st2,GEOID,NAME,lakename,lat,lon
MD,24001,Allegany,Lake Habeeb,39.70474661,-78.65173848
MD,24001,Allegany,Lonaconing Reservoir,39.55173742,-78.97408649
MD,24001,Allegany,Long Pond,39.6540532574181,-78.4069309993751
MD,24001,Allegany,Midland-Gilmore Reservoir,39.57529586,-78.93835258
MD,24001,Allegany,Pinto Utilities Reservoir,39.58643023,-78.8524736
MD,24001,Allegany,Ridgedale Reservoir,39.6439741,-78.78799403
MD,24001,Allegany,White Sulphur Pond,39.6513669678132,-78.4775573179491
MD,24003,Anne Arundel,Arden Pond,39.06708261,-76.58023957
MD,24003,Anne Arundel,Beverly Lake,38.87834076,-76.50329445
MD,24003,Anne Arundel,Big Pond,38.89270978,-76.49444735
MD,24003,Anne Arundel,Bohdal Pond,39.06494967,-76.49573054
MD,24003,Anne Arundel,Boot Pond,38.89396346,-76.57710133
MD,24003,Anne Arundel,Boyd Pond,39.1398109,-76.45171308
MD,24003,Anne Arundel,Brewer Pond,39.03038075,-76.55028162
MD,24003,Anne Arundel,Bunks Pond,39.10336647,-76.58766673
MD,24003,Anne Arundel,Cedar Pond,39.06505723,-76.56315604
MD,24003,Anne Arundel,Chase Pond,38.95565383,-76.47278443
MD,24003,Anne Arundel,Cooks Pond,39.10921544,-76.45212455
MD,24003,Anne Arundel,Cooleys Pond,39.07818825,-76.44246238
MD,24003,Anne Arundel,Cove,39.0677633538344,-76.4999204791107
MD,24003,Anne Arundel,Deep Pond,38.88289919,-76.50020931
MD,24003,Anne Arundel,Duck Pond,39.0988797,-76.58222755
MD,24003,Anne Arundel,Dunkeld Pond,39.0754133065349,-76.5356608710006
MD,24003,Anne Arundel,Elbow Lake,38.87166693,-76.59107415
MD,24003,Anne Arundel,Elizabeth Pond,39.03366529,-76.51546858
MD,24003,Anne Arundel,Flag Pond,38.81987794,-76.50175888
MD,24003,Anne Arundel,Flagg Pond,38.89160565,-76.49123768
MD,24003,Anne Arundel,Foster Pond,39.03809822,-76.52162432
MD,24003,Anne Arundel,Fresh Pond,39.10800732,-76.47346714
MD,24003,Anne Arundel,Hartings Ponds,39.05202311,-76.50465214
MD,24003,Anne Arundel,Heron Lake,38.9536104,-76.47014868
MD,24003,Anne Arundel,Hines Ponds,39.15282594,-76.47274259
MD,24003,Anne Arundel,Hundley Pond,38.90954461,-76.6261211
MD,24003,Anne Arundel,Kelly Pool,39.09486206,-76.73463676
MD,24003,Anne Arundel,Koi Pond,39.1207884584096,-76.6559493078423
MD,24003,Anne Arundel,Lake Claire,39.05016921,-76.44823034
MD,24003,Anne Arundel,Lake Liberty,39.08037059,-76.59458959
MD,24003,Anne Arundel,Lake Marion,39.13462732,-76.72567653
MD,24003,Anne Arundel,Lake Placid,39.05838129,-76.4590685
MD,24003,Anne Arundel,Lake Waterford,39.11391113,-76.5619072
MD,24003,Anne Arundel,Letha Ponds,39.14559699,-76.46023663
MD,24003,Anne Arundel,Martins Pond,39.00959158,-76.51905722
MD,24003,Anne Arundel,Meadow Pond,38.8715574,-76.55588005
MD,24003,Anne Arundel,Mezick Ponds,39.01278886,-76.40341458
MD,24003,Anne Arundel,Misty Lake,39.1438723953683,-76.7000445705578
MD,24003,Anne Arundel,Moreland Pond,38.8200966,-76.64061342
MD,24003,Anne Arundel,Naval Academy Golf Course Pond,38.99336579,-76.46105382
MD,24003,Anne Arundel,Otter Pond,39.07181478,-76.43124039
MD,24003,Anne Arundel,Park Lake,39.07993381,-76.47697337
MD,24003,Anne Arundel,Pig Pond,38.87621164,-76.52831906
MD,24003,Anne Arundel,Pleasant Lake,38.99624731,-76.443394
MD,24003,Anne Arundel,Porkchop Pond,38.90327688,-76.56398514
MD,24003,Anne Arundel,Potomac River Reservoir,38.99077773,-76.56755583
MD,24003,Anne Arundel,Quarry Ponds,38.90776425,-76.53335398
MD,24003,Anne Arundel,Rieve's Pond,39.0678142707634,-76.7831480364276
MD,24003,Anne Arundel,Saefern Lake,39.01307417,-76.53982585
MD,24003,Anne Arundel,Salt Pond,38.86787975,-76.51989576
MD,24003,Anne Arundel,Soldier Lake,39.08383281,-76.73321716
MD,24003,Anne Arundel,Spriggs Pond,39.06479473,-76.49840116
MD,24003,Anne Arundel,Stuart Pond,38.88223731,-76.57018763
MD,24003,Anne Arundel,Tagalong Ponds,38.90303667,-76.57113625
MD,24003,Anne Arundel,Walking Fish Pond,39.00918647,-76.70122487
MD,24003,Anne Arundel,Wayson Pond,38.92859819,-76.64463222
MD,24003,Anne Arundel,Westinghouse Bay,39.009814,-76.40820897
MD,24003,Anne Arundel,White Pond,39.15701384,-76.48568289
MD,24003,Anne Arundel,Winchester Pond,39.00932452,-76.49738165
MD,24003,Anne Arundel,Winterberry Pond,39.02678079,-76.5104585
MD,24003,Anne Arundel,Woolchurch Cove,38.99086382,-76.47563218
MD,24003,Anne Arundel,Woolchurch Pond,38.99090762,-76.47363145
MD,24003,Anne Arundel,Yates Pond,39.15521797,-76.49025783
MD,24005,Baltimore,Beaverdam Pond,39.47922739,-76.65681807
MD,24005,Baltimore,Bradshaw Pit,39.4078513360823,-76.3790893260862
MD,24005,Baltimore,Caves Ore Bank,39.4359552776314,-76.736456536992
MD,24005,Baltimore,Clement Cove Pond,39.2395002229138,-76.5023027244051
MD,24005,Baltimore,Cochrans Pond,39.37736756,-76.63357749
MD,24005,Baltimore,Green Glade Pond,39.5253544063979,-76.5191988917167
MD,24005,Baltimore,Lake Roland,39.38657412,-76.64375502
MD,24005,Baltimore,Lone Goose Pond,39.4313111552535,-76.680520681579
MD,24005,Baltimore,Lost Lake,39.2300398321557,-76.7292749669365
MD,24005,Baltimore,Old Quarry Lake,39.3453717559186,-76.8638512850929
MD,24005,Baltimore,Oregon Pool,39.49285156,-76.6880718
MD,24005,Baltimore,Pikesville Reservoir,39.38622113,-76.72913703
MD,24005,Baltimore,Prettyboy Reservoir,39.64074229,-76.74533107
MD,24005,Baltimore,Quarry Lake,39.382741234425,-76.6910795660197
MD,24005,Baltimore,Springlake Pond,39.4544185442465,-76.6102300593172
MD,24009,Calvert,Allan Pond,38.709063894392,-76.6760918631684
MD,24009,Calvert,Bald Cypress Pond,38.7176373606791,-76.6425567983291
MD,24009,Calvert,Chesapeake Ranch Club Lake,38.36417082,-76.42241125
MD,24009,Calvert,Cove Lake,38.37042649,-76.39203285
MD,24009,Calvert,Drum Point Pond,38.32364595,-76.42230632
MD,24009,Calvert,Duncans Pond,38.4522887,-76.45936313
MD,24009,Calvert,Fishing Creek,38.6784071110369,-76.5523361730025
MD,24009,Calvert,Hagerstown City Park Lake,38.74126574,-76.679443
MD,24009,Calvert,Hutchins Pond,38.7019163019776,-76.6034745744969
MD,24009,Calvert,Kasey's Pond,38.4935763283852,-76.5905892557962
MD,24009,Calvert,Lake Charming,38.33037142,-76.41663735
MD,24009,Calvert,Lake Ridge,38.6603218009248,-76.5795069242516
MD,24009,Calvert,Lake Vista,38.3256015,-76.43263988
MD,24009,Calvert,Richardson's Pond,38.4536988925585,-76.462600618691
MD,24009,Calvert,Richardsons Pond,38.45461369,-76.46318774
MD,24009,Calvert,Todds Pond,38.45001529,-76.45658623
MD,24009,Calvert,Wilbur Pond,38.39106319,-76.39838378
MD,24011,Caroline,Chapel Branch,38.9093494380454,-75.8283781374358
MD,24011,Caroline,Deep Branch,38.8561573809337,-75.9183704630433
MD,24011,Caroline,Garland Lake,38.916162,-75.79977219
MD,24011,Caroline,Lake Bonnie,39.02251815,-75.77585334
MD,24011,Caroline,Lake Pinehurst,38.77497387,-75.86965997
MD,24011,Caroline,Linchester Mill Pond,38.70384479,-75.89304093
MD,24011,Caroline,Mitchell Run,38.7601385746103,-75.9792437070033
MD,24011,Caroline,Smithville Community Lake,38.76836406,-75.76270367
MD,24011,Caroline,Smithville Lake,38.78066188,-75.73197066
MD,24011,Caroline,Williston Lake,38.82664688,-75.84050002
MD,24013,Carroll,Bennett Cerf Park Pond,39.5875815357625,-76.9783271154865
MD,24013,Carroll,Cascade Lake,39.61787956,-76.88809854
MD,24013,Carroll,County Home Farm Pond,39.55624718,-76.99566247
MD,24013,Carroll,Cranberry Reservoir,39.6026814,-76.96398653
MD,24013,Carroll,Hunters Crossing Pond,39.3983219821366,-76.9461769534514
MD,24013,Carroll,Hydes Quarry,39.5652357114988,-77.0727521454265
MD,24013,Carroll,Liberty Lake,39.42661428,-76.89089677
MD,24013,Carroll,Parr's Spring,39.3540694002337,-77.1674383401478
MD,24013,Carroll,Piney Run Reservoir,39.3973442933586,-76.9842542704
MD,24013,Carroll,Robert’s Field Community Pond,39.5962463744069,-76.8419392271396
MD,24013,Carroll,Ten Estates Pond,39.4129267764014,-77.0705911166273
MD,24013,Carroll,Walnut Pond,39.6682398486242,-76.8854394406168
MD,24013,Carroll,Westminster Community Pond,39.59173808,-76.99502195
MD,24015,Cecil,Arnold Pond,39.4554393195058,-75.9618450949894
MD,24015,Cecil,Black Duck Creek,39.4458983091241,-75.8461605883138
MD,24015,Cecil,Cannonball Cove,39.69975885514,-76.1940442749774
MD,24015,Cecil,Chesapeake City East Disposal Area,39.5221823,-75.78923296
MD,24015,Cecil,Court House Point Disposal Area Lake,39.50152806,-75.87570377
MD,24015,Cecil,Cow Pond,39.61037197,-75.81886519
MD,24015,Cecil,Elkton Reservoir,39.61639368,-75.80624794
MD,24015,Cecil,Funks Pond,39.6717921640757,-76.1781328151179
MD,24015,Cecil,Grove Point Disposal Area Lake,39.38859839,-76.01989174
MD,24015,Cecil,Mason Dixon Original Settling Pond,39.6111902,-76.02829997
MD,24015,Cecil,Metton Pond,39.46779161,-75.83220764
MD,24015,Cecil,Mill Pond,39.43382867,-75.88818748
MD,24015,Cecil,Nottingham Lake,39.6681854695596,-76.0794579640581
MD,24015,Cecil,Octoraro Lakes,39.70183439,-76.12564391
MD,24015,Cecil,Perryville Reservoir,39.58742617,-76.05486029
MD,24015,Cecil,Plum Creek Pond,39.5754317,-75.90053348
MD,24015,Cecil,Rising Sun Community Pond,39.6976933,-76.07180791
MD,24015,Cecil,Rising Sun Waste Water Lagoon,39.70733901,-76.0782693
MD,24015,Cecil,Stancill Incorporated Reservoir,39.56845961,-76.0314
MD,24015,Cecil,Triumph Industrial Park retention pod,39.6168243603286,-75.8571730900765
MD,24015,Cecil,Triumph Industrial Park retention pond,39.6165541203713,-75.855987170345
MD,24015,Cecil,Wapiti Pond,39.4813437887377,-75.9777535185954
MD,24017,Charles,Cat Pond,38.61245162,-76.9742068
MD,24017,Charles,Cedarville Pond,38.62776873,-76.80388683
MD,24017,Charles,Gilbert Pond,38.51441911,-76.80443591
MD,24017,Charles,Hampshire Lake,38.62293376,-76.95829569
MD,24017,Charles,Hughesville Pond,38.54831502,-76.80303464
MD,24017,Charles,Lambeth Hill Lake,38.5972707,-76.88277264
MD,24017,Charles,McAllister Pond Number One,38.5406662738559,-76.922984442612
MD,24017,Charles,O'Donnell Lake,38.6184271939727,-76.9304751969727
MD,24017,Charles,Post Office Lake,38.60575851,-76.90002423
MD,24017,Charles,Redwood Lake,38.51624325,-76.9549204
MD,24017,Charles,Saint Pauls Lake,38.58860211,-76.90160151
MD,24017,Charles,Smoots Pond,38.48286158,-76.79511518
MD,24017,Charles,Trinity Lake,38.45210144,-76.84309869
MD,24017,Charles,Wakefield Lake,38.6047957,-76.896639
MD,24017,Charles,Wheatley Lake,38.49022621,-76.85549786
MD,24019,Dorchester,Backgarden Pond,38.40926645,-76.03556447
MD,24019,Dorchester,Big Millpond,38.51467548,-75.87909938
MD,24019,Dorchester,Blackwater Pond,38.41360066,-76.06203373
MD,24019,Dorchester,Cattail Pond,38.4051253235396,-76.0935732751343
MD,24019,Dorchester,Chapel Cove,38.475962554431,-76.300566945649
MD,24019,Dorchester,Chester River Country Club Lake,38.6110931,-75.84159928
MD,24019,Dorchester,Dieffenbach Pond,38.43965798,-76.11907424
MD,24019,Dorchester,Fishing Pond,38.5504734530701,-75.7367236930017
MD,24019,Dorchester,Goose Creek,38.5972281302103,-75.9712498794999
MD,24019,Dorchester,Goose Dam,38.4678248362316,-76.2531675550071
MD,24019,Dorchester,Goose Pond,38.39943029,-76.05120393
MD,24019,Dorchester,Higgins Millpond,38.52808795,-75.95852633
MD,24019,Dorchester,Irving Millpond,38.5932885,-75.73079986
MD,24019,Dorchester,Island Pond,38.41162286,-75.91062626
MD,24019,Dorchester,Julie Pond,38.41230884,-75.97154914
MD,24019,Dorchester,Kuehnle Pond,38.42585523,-76.02561141
MD,24019,Dorchester,Lans Pond,38.39708093,-76.09697032
MD,24019,Dorchester,Little Savanna Lake,38.37345503,-75.90721745
MD,24019,Dorchester,Maryland Noname 3 Reservoir,38.6746412,-75.88386762
MD,24019,Dorchester,Otter Pond,38.39744701,-76.0740558
MD,24019,Dorchester,Parish Pond,38.40237011,-75.94847181
MD,24019,Dorchester,Pinks Pond,38.5841452,-76.08715311
MD,24019,Dorchester,Raymond Pond,38.4246896,-76.10580383
MD,24019,Dorchester,Robinson Cove,38.4216481601832,-76.2713299524567
MD,24019,Dorchester,Round Pond,38.41084236,-76.07261181
MD,24019,Dorchester,Shiell Pond,38.2691495438535,-76.1838358056231
MD,24019,Dorchester,Shorts Creek Pond,38.4178630661517,-76.0653208464324
MD,24019,Dorchester,Wrights Millpond,38.61092224,-75.73267322
MD,24021,Frederick,Bond Farm Pond,39.56431813,-77.5451898
MD,24021,Frederick,Burkittsville Town Pond,39.3928800208142,-77.6302236211542
MD,24021,Frederick,Chevy Chase Lake,39.29944525,-77.34052291
MD,24021,Frederick,Culler Lake,39.41749281,-77.42418371
MD,24021,Frederick,Echo Lake,39.5185396096859,-77.6002815200235
MD,24021,Frederick,Emmitsburg Reservoir,39.69912867,-77.37979158
MD,24021,Frederick,Fishing Creek Reservoir,39.52589537,-77.46479931
MD,24021,Frederick,Frank Bentz Memorial Lake,39.62120123,-77.42431095
MD,24021,Frederick,Hamburg Pond,39.5149896502689,-77.4885789496231
MD,24021,Frederick,Hunting Creek Lake,39.62605,-77.46014942
MD,24021,Frederick,Lake Anita Louise,39.41439535,-77.29437225
MD,24021,Frederick,Lake Jennifer,39.41288124,-77.15909619
MD,24021,Frederick,Lake Linganore,39.4138052814274,-77.3076233345952
MD,24021,Frederick,Lake Marian,39.4183816746548,-77.3258762457245
MD,24021,Frederick,Middletown Reservoir,39.44442017,-77.51657835
MD,24021,Frederick,Rainbow Lake,39.69551197,-77.39032664
MD,24021,Frederick,Saint Clair Farm Pond,39.34097219,-77.22315975
MD,24021,Frederick,Sand Flat,39.56061118,-77.49563624
MD,24021,Frederick,Walker Pond,39.7105867142542,-77.3359561826522
MD,24021,Frederick,Walkersville Reservoir,39.4756066,-77.28384673
MD,24021,Frederick,Whisky Springs Pond,39.5656585006352,-77.4926108003246
MD,24023,Garrett,Barton Debris Basin,39.54174676,-79.03382395
MD,24023,Garrett,Broadford Lake,39.4153979308322,-79.3695239137618
MD,24023,Garrett,Cunningham Lake,39.56380741,-79.23968746
MD,24023,Garrett,Frostburg Reservoir,39.70712438,-79.00501212
MD,24023,Garrett,Herrington Manor Recreation Area Reservoir,39.45532775,-79.45657217
MD,24023,Garrett,Lake Koshare,39.45720295,-79.4664714
MD,24023,Garrett,Lake Louise,39.68634142,-79.22993274
MD,24023,Garrett,Little Yok Number 1 Reservoir,39.41514824,-79.39915072
MD,24023,Garrett,Little Yok Number 6 Reservoir,39.413889616317,-79.3357708181172
MD,24023,Garrett,Little Yok Reservoir Site Number 5,39.37356035,-79.37424952
MD,24023,Garrett,Little Youghiogheny River Reservoir,39.42305366,-79.30387111
MD,24023,Garrett,Meadow Run Lake,39.6808404,-79.10587223
MD,24023,Garrett,Mountain Lake,39.40051494,-79.37056736
MD,24023,Garrett,New Germany Lake,39.6354279,-79.12100653
MD,24023,Garrett,Savage River Reservoir,39.52095495,-79.13904101
MD,24023,Garrett,Wolf Swamp,39.66714065,-79.08817611
MD,24025,Harford,Atkisson Reservoir,39.48158973,-76.34255191
MD,24025,Harford,Barley Pond,39.536671809052,-76.5119025629423
MD,24025,Harford,Bel Air Reservoir,39.57414676,-76.38263569
MD,24025,Harford,Broad Creek Memorial Camp Reservoir,39.68905351,-76.26788999
MD,24025,Harford,Campus Hills Pond,39.5639762389519,-76.2754445770934
MD,24025,Harford,Cattail Reservoir,39.63192775,-76.50101859
MD,24025,Harford,former Susquehanna & Tidewater Canal,39.5902919655848,-76.1239791475709
MD,24025,Harford,Frank’s Pond,39.5587511541224,-76.0978732949624
MD,24025,Harford,Little Deer Creek Reservoir Number 3,39.6275088567006,-76.5298027311664
MD,24025,Harford,Little Deer Creek Reservoir Site,39.64104987,-76.52838347
MD,24025,Harford,Michaels Mill Dam,39.57000184,-76.2627067
MD,24025,Harford,Nature Pond,39.6945257571451,-76.2689348387875
MD,24025,Harford,Romney Creek,39.3885953760121,-76.2072047407529
MD,24025,Harford,Serene Lake,39.4321971783137,-76.3122624469606
MD,24025,Harford,Swaderick Creek,39.3608241240517,-76.3026156310106
MD,24025,Harford,Watson Creek,39.3450925082687,-76.2908947922882
MD,24027,Howard,Applied Physics Lab Pond,39.1612228685842,-76.8962188135435
MD,24027,Howard,Beaverbrook Lake,39.2323918330451,-76.8698410593238
MD,24027,Howard,Centennial Lake,39.2421959,-76.85700494
MD,24027,Howard,Dunloggin Pond,39.2572574545929,-76.8360023099641
MD,24027,Howard,General Electric Retention Pond,39.17189767,-76.81138592
MD,24027,Howard,Glenmont Pond,39.215671780658,-76.824375338373
MD,24027,Howard,Jackson Pond,39.2153463023016,-76.819744784997
MD,24027,Howard,Johns Hopkins Pond,39.24104774,-76.93653787
MD,24027,Howard,Lake Elkhorn,39.18327387,-76.8419756
MD,24027,Howard,Lake Kittamaqundi,39.21615836,-76.85360948
MD,24027,Howard,Peaceful Pond,39.2947220082395,-76.7928224818623
MD,24027,Howard,Quarry Pit (historic),39.1674037805855,-76.8417996710785
MD,24027,Howard,Riggs Farm Pond,39.2832842,-77.05124901
MD,24027,Howard,Rocky Gorge Reservoir,39.13162743,-76.91784093
MD,24027,Howard,Rudian Pond,39.2690697299124,-76.8198306073408
MD,24027,Howard,Stone Lake,39.1395971566189,-76.8392404091004
MD,24027,Howard,Warfields Pond,39.27513223,-77.01958998
MD,24027,Howard,Wilde Lake,39.22361392,-76.8623963
MD,24029,Kent,Big Fairlee Pond,39.25647527,-76.21925805
MD,24029,Kent,Bramble Lake,39.20646475,-76.24256172
MD,24029,Kent,Chestertown Stabilization Pond Number 1,39.2039264925853,-76.0789950392804
MD,24029,Kent,Codjus Cove,39.3354334130764,-76.1244621206576
MD,24029,Kent,Eaton-Raimond Pond,39.3185115970823,-76.0779174543803
MD,24029,Kent,Fairlee Lake,39.24625253,-76.1642474
MD,24029,Kent,Frog Pond,39.3297405347256,-76.1380889790359
MD,24029,Kent,Hidden Lake,39.357261775759,-76.1179614691306
MD,24029,Kent,Jacks Cove,39.3296840553353,-76.0964008049587
MD,24029,Kent,Little Mill Pond,39.26231878,-75.83197316
MD,24029,Kent,Mendinhall Lake,39.23664087,-76.22749142
MD,24029,Kent,Millbrook Lake,39.26830211,-76.14734693
MD,24029,Kent,Montrose Farm Pond,39.20014365,-76.07940364
MD,24029,Kent,Saint Pauls Millpond,39.18839745,-76.17599649
MD,24029,Kent,Spring Cove,39.1477964612807,-76.2452821237836
MD,24029,Kent,Stavley Pond,39.2783031,-76.19075364
MD,24029,Kent,Wilson Pond,39.06266376,-76.22863346
MD,24031,Montgomery,Ashton Pond,39.1501383699928,-76.9898340107728
MD,24031,Montgomery,Beaver Pond,39.1317259580731,-77.4146187321472
MD,24031,Montgomery,Burnt Mills Reservoir,39.0334187283896,-77.0085251180369
MD,24031,Montgomery,Chesapeake and Ohio Canal,38.9860440771524,-77.2409856743356
MD,24031,Montgomery,Clopper Lake,39.14241065,-77.25112446
MD,24031,Montgomery,Dalecarlia Reservoir,38.94241523,-77.11071264
MD,24031,Montgomery,Elysium Lake,39.11968214,-77.22499146
MD,24031,Montgomery,Fallsmead Pond,39.0759366780795,-77.1772724418058
MD,24031,Montgomery,Great Falls Estate Lake,39.01144258,-77.2350344
MD,24031,Montgomery,Hidden Pond,39.215336632219,-77.0811026887605
MD,24031,Montgomery,Inspiration Lake,39.11727409,-77.24058402
MD,24031,Montgomery,Jim Berrier Memorial Lake,39.1562993216469,-77.2481951682435
MD,24031,Montgomery,Kensington Turtle Pond,39.0324682404864,-77.0621222130781
MD,24031,Montgomery,Kings Pond,39.2449831084741,-77.2766843755064
MD,24031,Montgomery,Lake Bernard Frank,39.10629723,-77.11330108
MD,24031,Montgomery,Lake Churchill,39.18828083,-77.27957981
MD,24031,Montgomery,Lake Eisen,39.0735933,-77.21068594
MD,24031,Montgomery,Lake Halcyon,39.12011794,-77.21892508
MD,24031,Montgomery,Lake Helene,39.12000527,-77.24012286
MD,24031,Montgomery,Lake Lynette,39.11850662,-77.24282653
MD,24031,Montgomery,Lake Needwood,39.1216742692671,-77.129713817147
MD,24031,Montgomery,Lake New Mark,39.0765356929631,-77.1540524194842
MD,24031,Montgomery,Lake Nirvana,39.11516466,-77.23945335
MD,24031,Montgomery,Lake Placid,39.11235651,-77.23738074
MD,24031,Montgomery,Lake Varnuna,39.12000638,-77.22769665
MD,24031,Montgomery,Lake Walker,39.16667228,-77.20645502
MD,24031,Montgomery,Lake Walker Pond Number Two,39.1540038,-77.20641937
MD,24031,Montgomery,Lake Whetstone,39.16489626,-77.2018726
MD,24031,Montgomery,Little Seneca Lake,39.19220014,-77.30187124
MD,24031,Montgomery,Longwood Pond,39.1736214917524,-77.0626487130195
MD,24031,Montgomery,Maple Lake,39.1424350183336,-77.179011020569
MD,24031,Montgomery,Montgomery County Airpark Small Pond,39.1659876871892,-77.1598520271147
MD,24031,Montgomery,New Reservoir,39.1165630629285,-77.291671506311
MD,24031,Montgomery,North Pond,39.1324347127306,-77.2114892485285
MD,24031,Montgomery,Pall Mall,39.1163273996963,-77.2753796826076
MD,24031,Montgomery,Potomac Valley Country Club Lake,39.11526943,-77.41813054
MD,24031,Montgomery,Rio Washingtonian Lake,39.1169343477607,-77.1974531189268
MD,24031,Montgomery,South Pond,39.1292968365462,-77.2118706971238
MD,24031,Montgomery,Stone Lake,39.00213792,-77.08609934
MD,24031,Montgomery,Sunfish Pond,39.109864144415,-77.1010941360737
MD,24031,Montgomery,Three Sisters Lakes,39.12111875,-77.22990336
MD,24031,Montgomery,Triadelphia Reservoir,39.21195227,-77.01955406
MD,24031,Montgomery,Union Bridge Municipal Reservoir,39.19114436,-77.19806791
MD,24031,Montgomery,Walton Pond,39.09982781,-77.43294309
MD,24033,Prince George's,Allen Pond,38.93348026,-76.73985671
MD,24033,Prince George's,Base Lake,38.7864228653924,-76.87221601943
MD,24033,Prince George's,Blue Pond,39.05913779,-76.86765371
MD,24033,Prince George's,Bluegill Pond,39.04160465,-76.79520473
MD,24033,Prince George's,Cash Lake,39.03027959,-76.79197345
MD,24033,Prince George's,Chews Lake,38.78763341,-76.73151104
MD,24033,Prince George's,Clinton Regional Park Lake,38.7368536,-76.91475076
MD,24033,Prince George's,Contee Main Settling Pond,39.07171606,-76.9098372
MD,24033,Prince George's,Depot Pond,38.81759554,-76.74098377
MD,24033,Prince George's,Dower House Pond,38.76694848,-76.82284641
MD,24033,Prince George's,Farm Pond,39.03578141,-76.78588592
MD,24033,Prince George's,Frog Pond,38.7267839851557,-76.7076524935267
MD,24033,Prince George's,Goose Pond,39.02943727,-76.79809782
MD,24033,Prince George's,Greenbelt Lake,39.00303744,-76.88793789
MD,24033,Prince George's,Hance Pond,39.05055746,-76.8007882
MD,24033,Prince George's,Harding Spring Pond,39.02262749,-76.79598044
MD,24033,Prince George's,Lake Deborah,38.9525815846282,-76.8180358106222
MD,24033,Prince George's,Lake Ruth,38.69106827,-76.89166803
MD,24033,Prince George's,Laurel Lake,39.09117838,-76.86056119
MD,24033,Prince George's,Mabbott Pond,39.0191937,-76.80477203
MD,24033,Prince George's,Mallard Pond,39.04279991,-76.79390888
MD,24033,Prince George's,Merkle Pond,38.727952765703,-76.7052104895379
MD,24033,Prince George's,Midwood Lane Stormwater Pond,38.9792977315168,-76.7395658013306
MD,24033,Prince George's,Northampton Lake,38.89972191,-76.81184122
MD,24033,Prince George's,Pence Pond,38.75312196,-76.78567532
MD,24033,Prince George's,Redington Lake,39.02479083,-76.79894725
MD,24033,Prince George's,Schoolhouse Pond,38.81922196,-76.75221238
MD,24033,Prince George's,Snowden Pond,39.05268867,-76.81495387
MD,24033,Prince George's,Soil Conservation Service Lake,39.01233992,-76.84714677
MD,24033,Prince George's,Stump Pond,38.7261526181641,-76.7112693724807
MD,24033,Prince George's,The Bowie Bog,38.9706203039452,-76.7574727335491
MD,24033,Prince George's,Windmill Pond,38.7302278051997,-76.7065582528299
MD,24033,Prince George's,Woodward Pond,38.96188803,-76.7483909
MD,24035,Queen Anne's,Carter Creek,38.8796309274854,-76.3588231309867
MD,24035,Queen Anne's,Chews Creek,38.86663082,-76.3619721
MD,24035,Queen Anne's,Ewing Pond,38.9609142797755,-76.1918939087256
MD,24035,Queen Anne's,Gimlets Pond,39.2448556895638,-75.8116961065354
MD,24035,Queen Anne's,Kent Island Narrows,38.97552472,-76.24925282
MD,24035,Queen Anne's,Lake Cardoza,38.93729145,-76.36106121
MD,24035,Queen Anne's,Lake Knapp,38.9505825246812,-76.2318077014058
MD,24035,Queen Anne's,Recreation Lake One,38.9683313249764,-75.9421392399126
MD,24035,Queen Anne's,Unicorn Lake,39.24929733,-75.86800854
MD,24035,Queen Anne's,Unicorn Mill Pond,39.24339262,-75.85639179
MD,24035,Queen Anne's,Wye Mills Community Lake,38.94502016,-76.07331702
MD,24037,St. Mary's,Biscoe Pond,38.19620258,-76.36920721
MD,24037,St. Mary's,Carroll Pond,38.17753276,-76.36076678
MD,24037,St. Mary's,Cherryfield Pond,38.13954383,-76.46318137
MD,24037,St. Mary's,Dukeharts Creek,38.2272429838448,-76.7613702909879
MD,24037,St. Mary's,Filbert Pond,38.13978043,-76.32343249
MD,24037,St. Mary's,Fisher's Creek,38.1930304395222,-76.4265034929028
MD,24037,St. Mary's,Fresh Pond,38.10002882,-76.33434133
MD,24037,St. Mary's,Goddards Pond,38.2681202483133,-76.668358706431
MD,24037,St. Mary's,Goose Creek,38.29338219,-76.38625761
MD,24037,St. Mary's,Green Holly Pond,38.29352358,-76.46392446
MD,24037,St. Mary's,Hall Pond,38.05837917,-76.34921968
MD,24037,St. Mary's,Hollis Lake,38.0821986,-76.33155079
MD,24037,St. Mary's,Johnson Pond,38.2848787617022,-76.5368008017133
MD,24037,St. Mary's,Lake Conoy,38.0574896368805,-76.3384171996312
MD,24037,St. Mary's,Lane Pond,38.19598181,-76.56078694
MD,24037,St. Mary's,Langley Hollow,38.14575844,-76.43382682
MD,24037,St. Mary's,Ledford Farm Pond,38.32812995,-76.71660764
MD,24037,St. Mary's,Norris Pond,38.22644423,-76.39140379
MD,24037,St. Mary's,Page Pond,38.21479375,-76.38553413
MD,24037,St. Mary's,Peters Pond,38.1320402,-76.32846855
MD,24037,St. Mary's,Pond Number Three,38.26760589,-76.42601924
MD,24037,St. Mary's,Saint Marys Lake,38.2550734,-76.54379918
MD,24037,St. Mary's,St. John's Pond,38.1887888596368,-76.4310521924543
MD,24037,St. Mary's,Tippitt Pond,38.22270266,-76.38908016
MD,24037,St. Mary's,Wherritts Pond,38.19260887,-76.42754458
MD,24039,Somerset,Costin Pond,37.99013047,-75.74209042
MD,24039,Somerset,Golden Pond,37.9894450878552,-76.0359743073484
MD,24039,Somerset,Great Pond,37.97624478,-76.03317151
MD,24039,Somerset,Haines Pond,38.17640054,-75.94926621
MD,24039,Somerset,Little Annemessex River,37.93792693,-75.84418672
MD,24039,Somerset,Maryland Noname 2 Lake,38.28525181,-75.68688235
MD,24039,Somerset,Parish Pond,37.95909977,-76.04332033
MD,24041,Talbot,Beaverdam Branch,38.8013076473048,-75.9744756325824
MD,24041,Talbot,Easton Primary Sewage Lagoon,38.7489673691613,-76.0185473659828
MD,24041,Talbot,Easton Secondary Sewage Lagoon,38.7474685136643,-76.0150996973632
MD,24041,Talbot,Harrison Circle Pond,38.6569913801988,-76.061112957347
MD,24041,Talbot,Jadwins Creek,38.8348812994754,-75.9283408648309
MD,24043,Washington,Bai Yuka,39.5733683293151,-77.7585459581213
MD,24043,Washington,Big Pool,39.61663979,-78.01429016
MD,24043,Washington,Blairs Valley Lake,39.69850084,-77.94240149
MD,24043,Washington,Brownsville Community Pond,39.381333336434,-77.6626303508212
MD,24043,Washington,Edgemont Reservoir,39.66311452,-77.54852815
MD,24043,Washington,Greenbriar Lake,39.53874855,-77.61914725
MD,24043,Washington,Hagerstown Reservoir,39.6482921,-77.57738586
MD,24043,Washington,Hancock Sewage Lagoon,39.70575197,-78.15493372
MD,24043,Washington,Lake Jenkins,39.63879756,-78.30410104
MD,24043,Washington,Lake Lanahan,39.64132394,-78.3032176
MD,24043,Washington,Lake Royer,39.71036358,-77.49558186
MD,24043,Washington,Little Pool,39.68527678,-78.11142462
MD,24043,Washington,Lower Lake,39.6371824265567,-77.7300945550243
MD,24043,Washington,Upper Lake,39.6342388169014,-77.7315784806354
MD,24045,Wicomico,Anderson Mill Pond,38.35789006,-75.67471974
MD,24045,Wicomico,Barren Pond,38.46238968,-75.73187044
MD,24045,Wicomico,Coulbourn Millpond,38.32941997,-75.59477805
MD,24045,Wicomico,Horntown Pond,38.4577281413973,-75.6976701125592
MD,24045,Wicomico,Johnsons Pond,38.38331937,-75.59661818
MD,24045,Wicomico,Leonard Pond,38.42571301,-75.55734714
MD,24045,Wicomico,Mitchell Pond #1,38.3695163149185,-75.6168014171404
MD,24045,Wicomico,Mitchell Pond #2,38.3678646375722,-75.6148070479764
MD,24045,Wicomico,Mitchell Pond #3,38.3658484599814,-75.6127261938323
MD,24045,Wicomico,Morris Mill Pond,38.32280806,-75.60315116
MD,24045,Wicomico,Parker Pond,38.35029012,-75.5438667
MD,24045,Wicomico,Parsons Lake,38.4018767926487,-75.5548304061169
MD,24045,Wicomico,Quantico Pond,38.4015004355125,-75.6964221149129
MD,24045,Wicomico,Rewastico Pond,38.41306121,-75.75086858
MD,24045,Wicomico,Riawalkin Pond,38.369624127535,-75.6744432694746
MD,24045,Wicomico,Schumaker Pond,38.34905393,-75.5654956
MD,24045,Wicomico,Tony Tank Pond,38.33393596,-75.60726713
MD,24045,Wicomico,Tonytank Pond,38.3348218203228,-75.6120301861808
MD,24045,Wicomico,Williams Pond,38.4345809998688,-75.5519888621821
MD,24047,Worcester,Beasey Pond,38.0523573,-75.36327454
MD,24047,Worcester,Big Millpond,38.02215966,-75.46012173
MD,24047,Worcester,Blue Pond,38.10993814,-75.29446929
MD,24047,Worcester,Bounder Pond,38.09703519,-75.2110943
MD,24047,Worcester,Buddy Pond,38.26076046,-75.18821718
MD,24047,Worcester,Costin Pond,38.00416238,-75.5507213
MD,24047,Worcester,Cropper Pond,38.24048247,-75.23302263
MD,24047,Worcester,Custis Pond,38.01535162,-75.62528283
MD,24047,Worcester,Herring Gut,38.28668941,-75.1851753
MD,24047,Worcester,Holland Creek,38.2577267543701,-75.1773692225155
MD,24047,Worcester,Lone Pond,38.102759,-75.20654202
MD,24047,Worcester,Mills Island Creek,38.04922001,-75.33782854
MD,24047,Worcester,Nassawango Mill Pond,38.20586643,-75.46780688
MD,24047,Worcester,Peters Pond,38.1838784,-75.26346171
MD,24047,Worcester,South Gate Pond,38.3785117768681,-75.1623375005379
MD,24047,Worcester,Stevenson's Pond,38.0806130115408,-75.5669288079575
MD,24047,Worcester,The Walkers Pond,38.4417203780257,-75.0665359291199
MD,24047,Worcester,Wrights Pond,38.26878105,-75.18488681
MD,24510,Baltimore,Banjo Pond,39.3575521480622,-76.6163642803239
MD,24510,Baltimore,Boat Lake,39.321087701786,-76.6470716791645
MD,24510,Baltimore,Druid Lake,39.31812323,-76.63643454
MD,24510,Baltimore,Lake Ashburton,39.32073818,-76.66981553
MD,24510,Baltimore,Lake Montebello,39.33171264,-76.5841043
MD,24510,Baltimore,Lily Pond,39.3285674369788,-76.6519115238994
MD,24510,Baltimore,Montebello Waste Water Lake,39.33729411,-76.58446842
MD,24510,Baltimore,Old Three Sisters Pond,39.3269814626393,-76.6525523774777
MD,24510,Baltimore,Patterson Park Boat Lake,39.2880673916002,-76.5807522135611
MD,24510,Baltimore,Sea Lion Pond,39.3277264271934,-76.65263889586
MD,24510,Baltimore,Silver Lake,39.25562065,-76.64841572
MD,24510,Baltimore,Wash Water Lake,39.3211445,-76.66611455
