st2,GEOID,NAME,lakename,lat,lon
TX,48001,Anderson,Allen Lake,31.82202467,-95.93342485
TX,48001,Anderson,Beaver Marsh,31.94593197,-95.72422446
TX,48001,Anderson,Big Lake,31.71519173,-95.83692739
TX,48001,Anderson,Black Lake,31.83455214,-95.42982829
TX,48001,Anderson,Bomer Lake,31.98223711,-95.74831454
TX,48001,Anderson,Broughton Lake,31.8469828,-95.63390076
TX,48001,Anderson,Broyles Lake,31.68275213,-95.59846647
TX,48001,Anderson,Brush Lake,31.76914557,-95.89424339
TX,48001,Anderson,Brushy Lake,31.62619472,-95.76659525
TX,48001,Anderson,Catfish Lake,32.00143199,-95.94985116
TX,48001,Anderson,Cedar Lake,31.72880336,-95.83211527
TX,48001,Anderson,Charles E Ham Lake,31.89625434,-95.58327465
TX,48001,Anderson,Cherry Tree Lake,31.888767618769,-95.4339521885406
TX,48001,Anderson,Circle R Lake Number 1,31.74999792,-95.5408173
TX,48001,Anderson,Circle R Lake Number 2,31.75531012,-95.54342964
TX,48001,Anderson,Clear Lake,31.7530031,-95.84685405
TX,48001,Anderson,Cox Lake,31.97634223,-95.96276333
TX,48001,Anderson,Crystal Lake,31.74874057,-95.50651228
TX,48001,Anderson,Davey Lake,31.79267797,-95.6472195
TX,48001,Anderson,De Young Lake,31.82369825,-95.69169318
TX,48001,Anderson,Duck Lake,31.88135936,-95.97688225
TX,48001,Anderson,Elkhart Lake,31.63676334,-95.54939787
TX,48001,Anderson,Fisherman Paradise Lake,32.0182281797331,-95.9075541073415
TX,48001,Anderson,Flag Lake,31.76001829,-95.87752043
TX,48001,Anderson,Gator Lake,32.00587343,-95.89388056
TX,48001,Anderson,Goose Pond,31.81904933,-95.90141944
TX,48001,Anderson,Grover C Walker Lake,31.80797645,-95.58664049
TX,48001,Anderson,Harrison Lake,31.83260054,-95.73041772
TX,48001,Anderson,Honey Lake,32.00490542,-95.44230253
TX,48001,Anderson,Horn Lake,32.01514882,-95.73565301
TX,48001,Anderson,Hudson Lake,31.76413217,-95.51548318
TX,48001,Anderson,Indian Pond,31.79611677,-95.41483584
TX,48001,Anderson,Ioni Lake,31.60838596,-95.46597825
TX,48001,Anderson,Jackson Lake,31.86983046,-95.59162569
TX,48001,Anderson,Johnnycake Lake,31.76905117,-95.89034298
TX,48001,Anderson,Joyce Lake,31.755528444322,-95.6722774566525
TX,48001,Anderson,Killion Lake,31.75734501,-95.49358548
TX,48001,Anderson,Lake Asbury,31.6624471927725,-95.6838533703406
TX,48001,Anderson,Lake Dogwood,31.84602925,-95.49907304
TX,48001,Anderson,Lake Francis,32.00208076,-95.93871969
TX,48001,Anderson,Lake Frankston,31.96692534,-95.54131834
TX,48001,Anderson,Lake JDM,32.02620497,-95.71418493
TX,48001,Anderson,Lake Mary,31.69220367,-95.54650206
TX,48001,Anderson,Lakeview Methodist Lake,31.65545635,-95.69101286
TX,48001,Anderson,Little Brushy Lake,31.62517607,-95.76930365
TX,48001,Anderson,Long Lake,31.62999777,-95.77329739
TX,48001,Anderson,Lost Prairie Lake,31.79104894,-95.5273542
TX,48001,Anderson,Lower City Lake,31.76364786,-95.66550472
TX,48001,Anderson,Lucky Lake,32.02585219,-95.79791799
TX,48001,Anderson,M.A. Davey Lake,31.8145399821131,-95.5762756452916
TX,48001,Anderson,McCrakin Lake,31.62369334,-95.76902159
TX,48001,Anderson,McDonald Lake,31.86095656,-95.55737365
TX,48001,Anderson,McFarlen Lake,31.84715973,-95.9256531
TX,48001,Anderson,Mossy Lake,31.77623839,-95.9058935
TX,48001,Anderson,Mud Lake,31.64547844,-95.7840396
TX,48001,Anderson,Old Salt Works Lake,31.73413616,-95.73037794
TX,48001,Anderson,Pat Morris Lake,31.73834516,-95.74479933
TX,48001,Anderson,Phillips Lake,31.81135261,-95.40747697
TX,48001,Anderson,Pineywoods Lake,31.9804722,-95.54919228
TX,48001,Anderson,Prairie Lake,31.77369107,-95.87162437
TX,48001,Anderson,Rampy Lake,31.99408404,-96.00564743
TX,48001,Anderson,Ranch House Lake,32.01204093,-95.88398517
TX,48001,Anderson,Snag Lake,31.75616138,-95.87245326
TX,48001,Anderson,Soil Conservation Service Site 1 Reservoir,31.80159124,-95.85167945
TX,48001,Anderson,Soil Conservation Service Site 2 Reservoir,31.78806414,-95.84089415
TX,48001,Anderson,Spring Lake,31.79197522,-95.86347464
TX,48001,Anderson,Spring Park Lake,31.76102408,-95.61007474
TX,48001,Anderson,Swamp,31.7722390531605,-95.6120405715058
TX,48001,Anderson,Swift Lake,31.75068073,-95.5625112
TX,48001,Anderson,TSRR Pond,31.7393461727406,-95.5725257030172
TX,48001,Anderson,Tyler Ferry Lake,31.77003419,-95.92530988
TX,48001,Anderson,Upper City Lake,31.76942805,-95.66428785
TX,48001,Anderson,Weed Lake,31.81322661,-95.94807097
TX,48001,Anderson,Williams Lake,31.76404516,-95.50984093
TX,48001,Anderson,Wilson Lake,31.66689088,-95.68682179
TX,48001,Anderson,Wolf Creek Lake,31.77605124,-95.69628676
TX,48003,Andrews,Baird Lake,32.19708917,-102.28318624
TX,48003,Andrews,Hackberry Lake,32.113665,-102.30073008
TX,48003,Andrews,Jumbo Tank,32.39259604,-102.92295158
TX,48003,Andrews,Little Hackberry Tank,32.35395987,-102.65371977
TX,48003,Andrews,Moore Lake,32.4287931021899,-102.977459668814
TX,48003,Andrews,North Hackberry Tank,32.37389401,-102.66298424
TX,48003,Andrews,Shafter Lake,32.39531461,-102.65720803
TX,48003,Andrews,Whalen Lake,32.34358347,-102.81794808
TX,48005,Angelina,Allred Lake,31.20833928,-94.8638334
TX,48005,Angelina,Berry Lake,31.3717349,-94.68351209
TX,48005,Angelina,Big Hole,31.19182106,-94.84550715
TX,48005,Angelina,Blackburn Lake,31.37542368,-94.85293436
TX,48005,Angelina,Brushy Lake,31.16969213,-94.82810974
TX,48005,Angelina,City Lake,31.37459809,-94.72761661
TX,48005,Angelina,Club Lake,31.13365755,-94.55159015
TX,48005,Angelina,Cypress Lake,31.10915496,-94.70303088
TX,48005,Angelina,Devils Lake,31.15919926,-94.83717305
TX,48005,Angelina,Dollarhide Lake,31.12167065,-94.74528466
TX,48005,Angelina,Duck Pond,31.15287995,-94.85399738
TX,48005,Angelina,East Pine Island Lake,31.16705077,-94.83523838
TX,48005,Angelina,Fiberboard Lake,31.15007523,-94.81794369
TX,48005,Angelina,Hans Lake,31.33525831,-94.5735378
TX,48005,Angelina,Hog Eye Lake,31.16255244,-94.8299618
TX,48005,Angelina,Jones Lake,31.35745014,-94.72625598
TX,48005,Angelina,Kolb Lake,31.35567442,-94.66679487
TX,48005,Angelina,Lake Kurth,31.4445861,-94.69063998
TX,48005,Angelina,Lake Myriad,31.36339125,-94.72674196
TX,48005,Angelina,Lake Temple,31.2719145794973,-94.7262665684801
TX,48005,Angelina,Lake Todd,31.312249309216,-94.8255560313751
TX,48005,Angelina,Little Cedar Creek Lake,31.19457923,-94.83632978
TX,48005,Angelina,Lufkin High School Ag Pond,31.3323347653759,-94.6871813944246
TX,48005,Angelina,Manning Mill Ponds,31.14059287,-94.54485052
TX,48005,Angelina,Ray Lake,31.16643543,-94.39317051
TX,48005,Angelina,Robinson Lake,31.36349808,-94.68342483
TX,48005,Angelina,Rush Pond,31.1424639,-94.77226204
TX,48005,Angelina,Ryan Lake,31.17279103,-94.83198762
TX,48005,Angelina,Sam Rayburn Reservoir,31.2312628,-94.36556502
TX,48005,Angelina,Tub Lake,31.16058684,-94.84967815
TX,48005,Angelina,Upper Lake Todd,31.3112286147765,-94.8235413272601
TX,48005,Angelina,VFW Lake,31.3351576562104,-94.7100713753427
TX,48005,Angelina,Walker Lake,31.3506779,-94.85687464
TX,48005,Angelina,Woods Lake,31.14248136,-94.82848733
TX,48005,Angelina,Yellow Bluff Lake,31.16392909,-94.82380384
TX,48007,Aransas,Big Devil Bayou,28.21317351,-96.92403199
TX,48007,Aransas,Bill Mott Bayou,28.17048548,-96.93116799
TX,48007,Aransas,Burgentine Lake,28.27818611,-96.89921086
TX,48007,Aransas,Canoe Lake,28.04968272,-97.03650503
TX,48007,Aransas,Egery Flats,28.06243798,-97.21587936
TX,48007,Aransas,Fresh Water Lake,28.02709998,-97.19024926
TX,48007,Aransas,Mustang Slough,28.22599735,-96.82077884
TX,48007,Aransas,Reynolds Metals Company Lake,28.03789274,-97.1876588
TX,48007,Aransas,Saint Charles Bay,28.1938305226025,-96.9488921704892
TX,48007,Aransas,Tailing Ponds Number 1,28.0005689176719,-97.1933873781378
TX,48007,Aransas,Tailing Ponds Number 3,27.9857647745178,-97.1902213055182
TX,48007,Aransas,Tomas Pond,28.30686318,-96.79988381
TX,48007,Aransas,Vinson Slough,28.07613887,-96.88322487
TX,48009,Archer,Bridwell Lake,33.45269982,-98.58614665
TX,48009,Archer,Calvin Lake,33.41833649,-98.66998869
TX,48009,Archer,Carver Lake,33.58462487,-98.63930188
TX,48009,Archer,Cole Storage Tank,33.69622446,-98.7082245
TX,48009,Archer,Conner Lake,33.44057562,-98.70562299
TX,48009,Archer,Continental Oil Company Reservoir,33.68321271,-98.74355961
TX,48009,Archer,Cp Burton Reservoir,33.74905252,-98.6496778
TX,48009,Archer,Dillards Lake,33.7394286,-98.59209163
TX,48009,Archer,Furr Lake,33.48094316,-98.84682671
TX,48009,Archer,Gilmore Lake,33.73443482,-98.91529153
TX,48009,Archer,Hrncirik Lake,33.50059211,-98.95270662
TX,48009,Archer,Ikard Lake,33.51473829,-98.68488567
TX,48009,Archer,Lake Cooper,33.44420232,-98.78859893
TX,48009,Archer,Lake Kickapoo,33.64316826,-98.82017622
TX,48009,Archer,Lake Olney,33.43319973,-98.78457678
TX,48009,Archer,Lake Wichita,33.83453479,-98.55982789
TX,48009,Archer,Lee Lake,33.82701517,-98.42761191
TX,48009,Archer,McGregor Ranch Lake Number 1,33.76292417,-98.48894641
TX,48009,Archer,McGregor Ranch Lake Number 2,33.80008485,-98.44084544
TX,48009,Archer,McKinney Lake,33.49490394,-98.61388285
TX,48009,Archer,Medders Lake,33.7216357,-98.48355925
TX,48009,Archer,Megargel Creek Reservoir,33.44726298,-98.85460396
TX,48009,Archer,Mexican Tank,33.68079848,-98.51548002
TX,48009,Archer,Old Tank,33.70641748,-98.52392258
TX,48009,Archer,Palo Pinto Tank,33.78503664,-98.91344441
TX,48009,Archer,Parkey Lake,33.56967194,-98.87584617
TX,48009,Archer,Powell Lake,33.44143979,-98.83700859
TX,48009,Archer,Red Tank,33.68190109,-98.526091
TX,48009,Archer,Schrieber Lake,33.53533936,-98.5990563
TX,48009,Archer,Scotland Lake,33.66076946,-98.47861115
TX,48009,Archer,Windmill Tank,33.70907806,-98.68110539
TX,48011,Armstrong,Badgley Lake,35.0661675099793,-101.46644086226
TX,48013,Atascosa,Big Lake,28.76367687,-98.35237914
TX,48013,Atascosa,Bonita Lake,28.9472114,-98.52448212
TX,48013,Atascosa,Brahma Tank,28.70963386,-98.51157728
TX,48013,Atascosa,Brown Lake,28.77272878,-98.47403614
TX,48013,Atascosa,Fairview Lake,28.98661179,-98.37753536
TX,48013,Atascosa,Goose Lake,28.80865562,-98.2903891
TX,48013,Atascosa,Government Tank,28.65154745,-98.47796269
TX,48013,Atascosa,Heinen Lake,28.97908664,-98.35619063
TX,48013,Atascosa,Highway Tank,28.68266355,-98.53724967
TX,48013,Atascosa,Hill Tank,28.65748637,-98.59175897
TX,48013,Atascosa,Hog Creek Tank,28.64904987,-98.51218311
TX,48013,Atascosa,Lake Number 3,28.74895127,-98.36367558
TX,48013,Atascosa,Lake Number 4,28.72381636,-98.36140178
TX,48013,Atascosa,Lazy JP Ranch Lake,28.89323237,-98.28098728
TX,48013,Atascosa,Marshall Lake,28.80264016,-98.63803745
TX,48013,Atascosa,McLerran Lake,28.79943623,-98.49358311
TX,48013,Atascosa,Open Tank,28.68893045,-98.52082577
TX,48013,Atascosa,Palmer Ranch Lake,28.94544095,-98.51115934
TX,48013,Atascosa,Peeler Lake,28.70127245,-98.48586623
TX,48013,Atascosa,Potts Lake,28.64989147,-98.61365612
TX,48013,Atascosa,Quillian Lake,28.90667326,-98.45764944
TX,48013,Atascosa,Ramsey Tank,28.667977,-98.52974687
TX,48013,Atascosa,Rincon Tank,28.70730572,-98.59857165
TX,48013,Atascosa,Rips Lake,28.97042649,-98.44583971
TX,48013,Atascosa,Sacatosa Tank,28.7229851,-98.60948372
TX,48013,Atascosa,Scheidt Lake,28.99839706,-98.54292966
TX,48013,Atascosa,Schorsch Lake,28.87315762,-98.58086804
TX,48013,Atascosa,T H Cattle Company Lake,28.72262919,-98.64695108
TX,48013,Atascosa,Telephone Tank,28.68854383,-98.50233474
TX,48013,Atascosa,Tom Ranch Lake Number 1,28.70478036,-98.28199388
TX,48013,Atascosa,Tom Ranch Lake Number 2,28.70588191,-98.29056746
TX,48013,Atascosa,Vat Tank,28.74098183,-98.59127489
TX,48013,Atascosa,Williams Lake,28.92798728,-98.45632785
TX,48015,Austin,Arnold Lake,30.00995812,-96.24477918
TX,48015,Austin,Butler Lake,29.88283398,-96.42455857
TX,48015,Austin,Cannons Lake,29.71301577,-96.01924757
TX,48015,Austin,Cook Lake,30.04374588,-96.28027759
TX,48015,Austin,Dunn Lake,30.06754848,-96.22455691
TX,48015,Austin,Hillbolt Lake,29.86637397,-96.30720663
TX,48015,Austin,Lake Virnau,29.74261898,-96.18688386
TX,48015,Austin,Mawis Lake,29.99467388,-96.30475188
TX,48015,Austin,Mewis Lake,29.99179961,-96.29778961
TX,48015,Austin,Moore Lake,29.86446076,-96.36243276
TX,48015,Austin,Nowaks Lake,29.69994976,-96.11673814
TX,48015,Austin,Plowden Lake,29.71081133,-96.26851619
TX,48015,Austin,Wards Lake,29.72749853,-96.04281513
TX,48017,Bailey,Baileyboro Lake,34.0043618,-102.82063047
TX,48017,Bailey,Coyote Lake,34.10494448,-102.88112017
TX,48017,Bailey,Jack Young Lake,33.96151473,-102.79591734
TX,48017,Bailey,Lower Goose Lake,33.96028671,-102.74487875
TX,48017,Bailey,Lower Pauls Lake,33.97960621,-102.71986241
TX,48017,Bailey,Lower White Lake,33.94269758,-102.7677001
TX,48017,Bailey,Muleshoe Fishing Pond,34.2293013882649,-102.738678627839
TX,48017,Bailey,Upper Goose Lake,33.95632894,-102.75488676
TX,48017,Bailey,Upper Pauls Lake,33.98489875,-102.71565584
TX,48017,Bailey,Upper White Lake,33.945228,-102.77323593
TX,48017,Bailey,Willow Lake,34.19177131,-102.71014967
TX,48019,Bandera,Berry Lake,29.78680823,-98.97768428
TX,48019,Bandera,Brewington Creek Ranch Lake,29.88511039,-99.37246248
TX,48019,Bandera,Castle Lake,29.78067088,-98.94587815
TX,48019,Bandera,Conoco Lake Number 1,29.74674223,-99.03194098
TX,48019,Bandera,Conoco Lake Number 2,29.7513521492859,-99.0312099376968
TX,48019,Bandera,Falls Lake,29.89262673,-99.18577528
TX,48019,Bandera,Gallant Lake,29.76386225,-99.28360922
TX,48019,Bandera,Hadfield Lake,29.80152776,-99.23050424
TX,48019,Bandera,Johnson Lake,29.82852272,-99.37793626
TX,48019,Bandera,Lake Hiawatha,29.74122152,-99.06862207
TX,48019,Bandera,McClennahan Lake 1,29.67807306,-99.33958698
TX,48019,Bandera,McClennahan Lake 2,29.67236329,-99.34344084
TX,48019,Bandera,Middle Verde Ranch Lake,29.65942968,-99.13074506
TX,48019,Bandera,Montague Lake,29.76224348,-99.1245671
TX,48019,Bandera,Morgan Lake,29.78001157,-99.06502552
TX,48019,Bandera,Mosher Little Lake,29.78801985,-99.06819682
TX,48019,Bandera,Old Langford Lake,29.63773815,-99.05373581
TX,48019,Bandera,Pelaez Lake,29.76521033,-99.53139192
TX,48019,Bandera,Rock Cliff Reservoir,29.76390232,-99.14606126
TX,48019,Bandera,Shadow Dance Ranch Lake,29.71950988,-99.31948767
TX,48019,Bandera,T S Clements Lake,29.87544325,-99.1637843
TX,48019,Bandera,Tatum Lake,29.77231226,-99.41039756
TX,48019,Bandera,Thallman Lake,29.78267293,-99.15225722
TX,48019,Bandera,Thompson Lake,29.83921321,-99.36975008
TX,48019,Bandera,Voss Lake,29.6985230887919,-99.3025845175225
TX,48019,Bandera,Walton Lake,29.66773168,-98.83741487
TX,48019,Bandera,Williams Pond,29.8403468245518,-99.3570828841862
TX,48019,Bandera,Wonder Hole,29.68400782,-98.9531231
TX,48019,Bandera,Youngblood Lake,29.80167026,-98.99105163
TX,48021,Bastrop,A J Rod Lake,30.01507436,-97.21972021
TX,48021,Bastrop,Bastrop State Park Lake,30.11445641,-97.27664107
TX,48021,Bastrop,Brockstein Lake,30.20842909,-97.16634515
TX,48021,Bastrop,Buescher Lake,30.04372772,-97.16041492
TX,48021,Bastrop,Casper Lake,30.04134782,-97.08482805
TX,48021,Bastrop,Clear Springs Lake,30.11507598,-97.46531892
TX,48021,Bastrop,Double D Ranch Lake,29.87193851,-97.29343459
TX,48021,Bastrop,Droemer Lake,30.12053033,-97.13595032
TX,48021,Bastrop,Duke Lake Number 1,30.01462115,-97.33502876
TX,48021,Bastrop,Duke Lake Number 2,30.0137083,-97.34137858
TX,48021,Bastrop,Egger Lake,30.14055126,-97.22820595
TX,48021,Bastrop,Foster Lake,29.95771821,-97.31120608
TX,48021,Bastrop,Harmon Lake,30.09013027,-97.23854331
TX,48021,Bastrop,Hicks Lake,30.17588526,-97.25849431
TX,48021,Bastrop,Huber Lake,29.91503444,-97.4437872
TX,48021,Bastrop,Lake Bastrop,30.15642273,-97.28141209
TX,48021,Bastrop,Lake Mina,30.1095201329292,-97.2888523936932
TX,48021,Bastrop,Lincoln Lake,30.25594343,-97.08936372
TX,48021,Bastrop,Parker Lake Dam,30.07032001,-97.10741706
TX,48021,Bastrop,Rod Lake Number 1,29.99857758,-97.21693868
TX,48021,Bastrop,Rod Lake Number 2,30.00369424,-97.21820449
TX,48021,Bastrop,Sanders Lake,30.16020692,-97.29791286
TX,48021,Bastrop,Shipp Lake,29.9938176,-97.11535003
TX,48021,Bastrop,Smith Lake,30.3084924,-97.27387463
TX,48021,Bastrop,Stagners Lake,29.97127018,-97.12970958
TX,48021,Bastrop,Tahitian Village Lake,30.10002167,-97.28330378
TX,48021,Bastrop,Trigg Lake,30.06824931,-97.57426929
TX,48021,Bastrop,Tuck Lake,30.18282836,-97.29279781
TX,48021,Bastrop,Voss Lake,30.07112609,-97.48159189
TX,48023,Baylor,Brushy Tank,33.74559428,-98.95934416
TX,48023,Baylor,Cowan Lake,33.67115289,-99.01844215
TX,48023,Baylor,Hunt Lake,33.40108387,-99.24419452
TX,48023,Baylor,Lake Diversion,33.79634435,-98.96409328
TX,48023,Baylor,Lake Kemp,33.75551358,-99.2224413
TX,48023,Baylor,Lost Lake,33.75006129,-99.30808093
TX,48023,Baylor,Millers Creek Reservoir,33.40283746,-99.39275278
TX,48023,Baylor,Peacock Lake,33.67131682,-99.38471565
TX,48023,Baylor,Porter Lake,33.48304072,-99.1687107
TX,48023,Baylor,Seymour Country Club Lake,33.56757502,-99.27640012
TX,48023,Baylor,Waggoner Lake Number 1,33.78117412,-99.31262329
TX,48023,Baylor,Waggoner Lake Number 2,33.80947979,-99.29211257
TX,48023,Baylor,Waggoner Lake Number 3,33.82293334,-99.28435546
TX,48023,Baylor,Waggoner Lake Number 4,33.83205657,-99.26939033
TX,48023,Baylor,Waggoner Lake Number 5,33.71249775,-99.12710293
TX,48025,Bee,Corrigan Hole,28.28639581,-97.61494861
TX,48025,Bee,Dougherty Reservoir,28.51504835,-97.78870977
TX,48027,Bell,City of Killeen Reservoir,31.08511221,-97.67953857
TX,48027,Bell,East Lake,31.1480171533345,-97.7375949875442
TX,48027,Bell,Engineer Lake,31.1575476,-97.66286988
TX,48027,Bell,Flint Trib Lake,31.24771445,-97.53372495
TX,48027,Bell,Gray Lake,31.0553602,-97.82074433
TX,48027,Bell,Heiner Lake,31.13323303,-97.6100633
TX,48027,Bell,Heitmeyer Lake,30.9257552630322,-97.5216050310384
TX,48027,Bell,Indian Lake,30.90222773,-97.75582011
TX,48027,Bell,Lake Boyd Callan,31.0102467,-97.50695063
TX,48027,Bell,Lake Bratcher,31.05068638,-97.82233313
TX,48027,Bell,Lake Polk,31.10094052,-97.3705806
TX,48027,Bell,Lansham Lake,30.97921797,-97.26773903
TX,48027,Bell,Larned Lake,31.15819251,-97.61866694
TX,48027,Bell,Marek Lake,31.05500416,-97.15108965
TX,48027,Bell,Miller Pond,31.1158921614537,-97.3319769303174
TX,48027,Bell,Mussie Lake,31.05552332,-97.83188632
TX,48027,Bell,Nolan Lake,31.1298703,-97.56822533
TX,48027,Bell,Prewitt Lake 2,30.96000405,-97.25096075
TX,48027,Bell,Prewitt Lake 3,30.96276982,-97.24683607
TX,48027,Bell,Prewitt Lake 5,30.96897052,-97.25612183
TX,48027,Bell,Rogers Lake,30.90748686,-97.23044283
TX,48027,Bell,Shaw Creek Reservoir,31.10673219,-97.60054542
TX,48027,Bell,Soil Conservation Service Site 1 Reservoir,31.11527862,-97.77074813
TX,48027,Bell,Soil Conservation Service Site 13 Reservoir,31.08381362,-97.55497969
TX,48027,Bell,Soil Conservation Service Site 15 Reservoir,31.06633867,-97.5056725
TX,48027,Bell,Soil Conservation Service Site 5 Reservoir,30.83808786,-97.33496797
TX,48027,Bell,Soil Conservation Service Site 5a Reservoir,31.14311485,-97.70105023
TX,48027,Bell,Soil Conservation Service Site 6 Reservoir,30.84288554,-97.31984763
TX,48027,Bell,Soil Conservation Service Site 9 Reservoir,31.0929474,-97.62862592
TX,48027,Bell,Stillhouse Hollow Lake,31.01893595,-97.58676358
TX,48027,Bell,Tank Wash,31.0837095469877,-97.8286503152608
TX,48027,Bell,Tank Wash Lake,31.14829787,-97.74537597
TX,48027,Bell,Veterans Administration Lake,31.07455826,-97.34062504
TX,48027,Bell,Wendland Farms Lake,31.14897543,-97.37318288
TX,48027,Bell,Zaleski Lake,31.19717106,-97.22716422
TX,48027,Bell,Zane Lake,30.95545414,-97.18594053
TX,48029,Bexar,Alamo Angus Ranch Lake,29.3401582,-98.76328755
TX,48029,Bexar,Baker Lake,29.26996967,-98.6429018
TX,48029,Bexar,Ballasetal Lake,29.31597495,-98.51280942
TX,48029,Bexar,Basin 1,29.294619913535,-98.4976248035881
TX,48029,Bexar,Basin 1 East,29.2948916760763,-98.4959236200954
TX,48029,Bexar,Basin 1 North,29.2955905289011,-98.4979897637765
TX,48029,Bexar,Basin 2,29.295605821024,-98.4938957120002
TX,48029,Bexar,Basin 3,29.2955433875884,-98.4905752241722
TX,48029,Bexar,Basin 4,29.2938156151798,-98.4928511846311
TX,48029,Bexar,Basin 5,29.2930303674472,-98.4959205554498
TX,48029,Bexar,Bird Pond,29.3115723447613,-98.4942565021508
TX,48029,Bexar,Blue Wing Lake,29.25816499,-98.43385262
TX,48029,Bexar,Braunig Lake,29.25363168,-98.37699021
TX,48029,Bexar,Buddy Calk Pond,29.5542182193094,-98.6293693267775
TX,48029,Bexar,Calaveras Lake,29.30253306,-98.31652554
TX,48029,Bexar,Canvasback Lake,29.29886252,-98.50755402
TX,48029,Bexar,Cassin Lake,29.30183636,-98.45689956
TX,48029,Bexar,Cavalry Tank,29.70373968,-98.58879238
TX,48029,Bexar,Coffee Cup Ponds,29.2925459803291,-98.5023737966443
TX,48029,Bexar,Crea Brothers Lake,29.5843488,-98.35031637
TX,48029,Bexar,Denman Estate Pond,29.5102291468951,-98.558808486331
TX,48029,Bexar,East Polder,29.2993172608403,-98.4933288487243
TX,48029,Bexar,Edward's Tank,29.304922719776,-98.4902440637151
TX,48029,Bexar,Elm Waterhole,29.68559243,-98.44221778
TX,48029,Bexar,Featherlight Pond,29.5095112082926,-98.3225414536012
TX,48029,Bexar,Georgs Hole,29.74991104,-98.60067395
TX,48029,Bexar,German Tank,29.70162314,-98.53547637
TX,48029,Bexar,Grothaus Lake,29.26403201,-98.71401695
TX,48029,Bexar,Harmark Lake,29.57604645,-98.34349151
TX,48029,Bexar,Heritage Duck Pond,29.4287262174156,-98.6827331719906
TX,48029,Bexar,Kilroy Lake,29.30417746,-98.58843274
TX,48029,Bexar,Kirby Lake,29.25726028,-98.75842973
TX,48029,Bexar,Lakeside Acres Club Lake,29.71512252,-98.67262075
TX,48029,Bexar,Leon Springs,29.6641394095951,-98.636242492259
TX,48029,Bexar,Lilly Pond,29.4614394864216,-98.4770086448118
TX,48029,Bexar,Lions Park Lake,29.38600731,-98.42776693
TX,48029,Bexar,Lost Pond,29.28019339,-98.68722004
TX,48029,Bexar,Luckey Lake,29.36797605,-98.7194824
TX,48029,Bexar,Middleton Pond,29.72391308,-98.57791779
TX,48029,Bexar,Millers Pond,29.3456849558825,-98.6187675986986
TX,48029,Bexar,Mitchell Lake,29.28289002,-98.49089313
TX,48029,Bexar,Northern Hills Lake,29.55795957,-98.41307101
TX,48029,Bexar,O R Mitchell Lake 1,29.31019842,-98.63492692
TX,48029,Bexar,O R Mitchell Lake 2,29.30139985,-98.63897232
TX,48029,Bexar,Olmos Reservoir,29.47327308,-98.47385626
TX,48029,Bexar,Pax Lake,29.16970961,-98.50594447
TX,48029,Bexar,Plaza Lake,29.4238721884293,-98.6610903776136
TX,48029,Bexar,Pond Number Twentytwo,29.72593277,-98.58828568
TX,48029,Bexar,Riley Lake,29.31881668,-98.36526987
TX,48029,Bexar,Salado Creek Watershed Reservoir 2,29.6663528132069,-98.5781347928689
TX,48029,Bexar,Salado Creek Watershed Reservoir 7,29.5638377781791,-98.5053281003857
TX,48029,Bexar,Sewell Pond,29.65088966,-98.58334044
TX,48029,Bexar,Ski Lake,29.454366832284,-98.6980484903486
TX,48029,Bexar,Skip's Pond,29.304140380605,-98.4940311254392
TX,48029,Bexar,Soil Conservation Service Site 10 Reservoir,29.30730511,-98.28247386
TX,48029,Bexar,Soil Conservation Service Site 11 Reservoir,29.60554436,-98.43290507
TX,48029,Bexar,Soil Conservation Service Site 12 Reservoir,29.62779304,-98.38931337
TX,48029,Bexar,Soil Conservation Service Site 13a Reservoir,29.60681848,-98.39582906
TX,48029,Bexar,Soil Conservation Service Site 13b Reservoir,29.60820689,-98.41436273
TX,48029,Bexar,Soil Conservation Service Site 6-A Reservoir,29.48113683,-98.2924455
TX,48029,Bexar,Soil Conservation Service Site 6 Reservoir,29.38192354,-98.29309012
TX,48029,Bexar,Soil Conservation Service Site 7 Reservoir,29.38612127,-98.28063682
TX,48029,Bexar,Soil Conservation Service Site 9 Reservoir,29.3454276,-98.27569919
TX,48029,Bexar,Spruce Lake,29.4325908252112,-98.6625370870345
TX,48029,Bexar,Swaan Pond,29.651715046254,-98.6148448306498
TX,48029,Bexar,West Polder,29.299236306561,-98.4958587428675
TX,48029,Bexar,White Company Lake,29.64294312,-98.72175492
TX,48029,Bexar,White Lake,29.65691008,-98.75740194
TX,48029,Bexar,White Ranch Lake,29.66812547,-98.75769765
TX,48029,Bexar,Woodlawn Lake,29.45141123,-98.53244243
TX,48029,Bexar,Woodlawn Lake Casting Pond,29.4491478393994,-98.5288988337142
TX,48031,Blanco,Duck Pond,30.3317081518949,-98.259040360295
TX,48031,Blanco,Mustang Lake,30.47589641,-98.31851067
TX,48031,Blanco,Soil Conservation Service Site 1 Reservoir,30.11287283,-98.42381208
TX,48031,Blanco,Tatum Lake,30.12483245,-98.45615159
TX,48031,Blanco,Taylor Lake,30.47126266,-98.48377615
TX,48031,Blanco,Wayne Smith Lake,30.10155711,-98.45100155
TX,48033,Borden,Battery Tank,32.62848966,-101.58590414
TX,48033,Borden,Behind Horse Pasture Tank,32.6273875,-101.442007
TX,48033,Borden,Big Tank Reservoir,32.94743547,-101.2420927
TX,48033,Borden,Bluff Tank,32.64325553,-101.50874045
TX,48033,Borden,Boedecker Tank,32.53699027,-101.29818992
TX,48033,Borden,Bones Tank,32.62013576,-101.52397991
TX,48033,Borden,Bull Pasture Tank,32.59677118,-101.36440679
TX,48033,Borden,Bull Tank,32.65749759,-101.56358805
TX,48033,Borden,Bush and Tiller Tank,32.5269868,-101.30273285
TX,48033,Borden,Catfish Tank,32.59431564,-101.38392171
TX,48033,Borden,Cliff Tank,32.88249284,-101.45062485
TX,48033,Borden,Coats Tank,32.68488854,-101.45318166
TX,48033,Borden,Creek Tank,32.53349938,-101.28715785
TX,48033,Borden,Creighton Lake,32.72253124,-101.53405635
TX,48033,Borden,Cunningham Tank,32.63880835,-101.49746069
TX,48033,Borden,Curley Tank,32.68541745,-101.31236515
TX,48033,Borden,Deep Tank,32.62192519,-101.49612215
TX,48033,Borden,Diamond Tank,32.55369051,-101.39549214
TX,48033,Borden,Division Tank,32.69714577,-101.36934928
TX,48033,Borden,Draw One Tank,32.68967864,-101.61256106
TX,48033,Borden,Draw Three Tank,32.69770064,-101.56968637
TX,48033,Borden,Draw Two Tank,32.69511034,-101.58150929
TX,48033,Borden,Dugout Tank,32.54070898,-101.40785217
TX,48033,Borden,East Tank,32.68486156,-101.52081784
TX,48033,Borden,Edwards Lake,32.73470148,-101.38396382
TX,48033,Borden,Everett Lake,32.67340415,-101.27901053
TX,48033,Borden,Flint Tank,32.64267246,-101.51413568
TX,48033,Borden,Forks of Hullem Tank,32.67794424,-101.350371
TX,48033,Borden,Fourmile Tank,32.70359185,-101.42516674
TX,48033,Borden,Frog Tank,32.5782535,-101.52447135
TX,48033,Borden,Glen Tank,32.60649939,-101.55978609
TX,48033,Borden,Good Draw Tank,32.58971076,-101.57739489
TX,48033,Borden,Gravel Tank,32.61771621,-101.59249136
TX,48033,Borden,Hackberry Tank,32.65215072,-101.36220994
TX,48033,Borden,High Wide and Handsome Tank,32.72580926,-101.36093717
TX,48033,Borden,Highway Tank,32.88494781,-101.43298017
TX,48033,Borden,Holmes Lake,32.75388662,-101.20671591
TX,48033,Borden,Home Tank,32.64750755,-101.54606742
TX,48033,Borden,Horseshoe Tank,32.5467966,-101.30613263
TX,48033,Borden,House Tank,32.53844878,-101.46029157
TX,48033,Borden,Hudson Tank,32.59317307,-101.32223537
TX,48033,Borden,Hutto Tank,32.62562143,-101.50283642
TX,48033,Borden,Indian Head Tank,32.68676012,-101.21882059
TX,48033,Borden,Jog Tank,32.6715862,-101.47784365
TX,48033,Borden,Johnson Trap Tank,32.63597271,-101.56069256
TX,48033,Borden,Jones Reservoir,32.93271871,-101.19713274
TX,48033,Borden,Jones Reservoir Number 2,32.93667857,-101.21115329
TX,48033,Borden,Lake J B Thomas,32.59092445,-101.18831469
TX,48033,Borden,Lemley Tank,32.64961231,-101.33312533
TX,48033,Borden,Little Red Tank,32.59817553,-101.32781507
TX,48033,Borden,Location Tank,32.61763127,-101.53903574
TX,48033,Borden,Long Draw Tank,32.68981637,-101.60075294
TX,48033,Borden,Long Hollow Tank,32.57101093,-101.56797337
TX,48033,Borden,Lost Tank,32.55243165,-101.44708891
TX,48033,Borden,Lower Wicker Tank,32.67257108,-101.32599885
TX,48033,Borden,Mother-in-Law Tank,32.58392596,-101.27553059
TX,48033,Borden,Mud Draw Tank,32.67639526,-101.52642903
TX,48033,Borden,Munger Tank,32.62430523,-101.4513921
TX,48033,Borden,Murphy Tank,32.72877295,-101.19238537
TX,48033,Borden,New Green Tank,32.69126523,-101.59205693
TX,48033,Borden,New Red Tank,32.60635048,-101.54195199
TX,48033,Borden,New Rock Tank,32.60700903,-101.50772031
TX,48033,Borden,North Flat Tank,32.67736168,-101.6011948
TX,48033,Borden,North Holley Tank,32.56786826,-101.26369334
TX,48033,Borden,North Pasture Tank,32.53569383,-101.431567
TX,48033,Borden,North Tank,32.70266197,-101.53429395
TX,48033,Borden,Polly Tank,32.69366478,-101.21182271
TX,48033,Borden,Prairie Hill Tank,32.67436778,-101.42065332
TX,48033,Borden,Red Dam Tank,32.6389131,-101.48727764
TX,48033,Borden,Red Mud Tank,32.70193504,-101.34754706
TX,48033,Borden,Ridge Tank,32.61715459,-101.57356135
TX,48033,Borden,River Hill Tank,32.65749607,-101.40266023
TX,48033,Borden,Road Tank,32.55398751,-101.29049791
TX,48033,Borden,Rocky Point Tank,32.66985858,-101.37196567
TX,48033,Borden,Rogers Tank,32.55774987,-101.53905626
TX,48033,Borden,Root Plow Tank,32.54884985,-101.47050543
TX,48033,Borden,Round Tank,32.69423677,-101.54101048
TX,48033,Borden,Rutherford Tank,32.57783046,-101.27525384
TX,48033,Borden,Salt Draw Tank,32.69283876,-101.56325365
TX,48033,Borden,Sams Tank,32.62974991,-101.26256895
TX,48033,Borden,Sand Rock Tank,32.61874169,-101.29044033
TX,48033,Borden,Seepy Tank,32.67864083,-101.61228617
TX,48033,Borden,Shady Tank,32.5515682,-101.4282071
TX,48033,Borden,Sheep Pen Tank,32.68302599,-101.37076888
TX,48033,Borden,Shipping Trap Tank,32.64955532,-101.49493071
TX,48033,Borden,Silt Tank,32.61037132,-101.50362008
TX,48033,Borden,Simer Lake,32.61249052,-101.30897507
TX,48033,Borden,Six Section Tank,32.6098819,-101.52973681
TX,48033,Borden,Slough Tank,32.66962563,-101.53857895
TX,48033,Borden,Smoot Tank,32.72952241,-101.38933999
TX,48033,Borden,Sourdough Tank,32.69219066,-101.40967231
TX,48033,Borden,South Holley Tank,32.56066598,-101.26375179
TX,48033,Borden,South Red Tank,32.5980628,-101.51578697
TX,48033,Borden,Southwest Tank,32.56257819,-101.41626006
TX,48033,Borden,Spring Tank,32.62441221,-101.54771232
TX,48033,Borden,Swift Draw Tank,32.59399747,-101.5604758
TX,48033,Borden,Tobacco Tank,32.70128755,-101.55041338
TX,48033,Borden,Triple Tanks,32.53178003,-101.39761854
TX,48033,Borden,Two Section Tank,32.65950044,-101.51649724
TX,48033,Borden,Vacation Tank,32.65241217,-101.55129697
TX,48033,Borden,Wascomb Tank,32.71537866,-101.23116412
TX,48033,Borden,West Trap Tank,32.64588494,-101.49991771
TX,48033,Borden,Whitaker Field Tank,32.52713433,-101.29617871
TX,48033,Borden,Wildcat Tank,32.56552862,-101.28719281
TX,48033,Borden,Windmill Tank,32.62082212,-101.53488775
TX,48035,Bosque,B E Farrell Lake Number 2,31.97407402,-97.74484009
TX,48035,Bosque,Ball Lake,32.06379966,-97.70605545
TX,48035,Bosque,Beard Lake,31.97552,-97.77437057
TX,48035,Bosque,Big Lake,32.07935473,-97.85787379
TX,48035,Bosque,Campbell Lake,32.12040214,-97.62889023
TX,48035,Bosque,Canyon Lake,32.096216,-97.83995933
TX,48035,Bosque,Clarke Lake,32.1411441,-97.74468993
TX,48035,Bosque,East Flat Top Lake,32.05536926,-97.813378
TX,48035,Bosque,El Colina Lake Number 2,32.06794586,-97.701616
TX,48035,Bosque,El Colina Lake Number 3,32.07990796,-97.68389234
TX,48035,Bosque,El Colina Lake Number 4,32.06041066,-97.67662585
TX,48035,Bosque,El Colina Lake Number 5,32.06561512,-97.62493956
TX,48035,Bosque,El Colina Lake Number 6,32.06309298,-97.62371885
TX,48035,Bosque,El Colina Lake Number 7,32.07334735,-97.62122813
TX,48035,Bosque,Farrell Lake Number 1,31.98165133,-97.75291891
TX,48035,Bosque,Flag Branch Lake,32.06235854,-97.85868493
TX,48035,Bosque,G J Roberts Lake,31.83720781,-97.29467617
TX,48035,Bosque,Houston Lake Number 1,32.15131525,-97.60383965
TX,48035,Bosque,Houston Lake Number 2,32.16058298,-97.58215057
TX,48035,Bosque,Irrigation Lake,32.06860252,-97.83122082
TX,48035,Bosque,K Bar Lake Number 1,31.77795363,-97.35842711
TX,48035,Bosque,K Bar Lake Number 2,31.78736175,-97.33917978
TX,48035,Bosque,K Bar Lake Number 3,31.79349085,-97.3325035
TX,48035,Bosque,K Bar Lake Number 4,31.80059162,-97.35188863
TX,48035,Bosque,Markum Lake Number 1,31.70473304,-97.38211324
TX,48035,Bosque,Markum Lake Number 2,31.70702709,-97.38242528
TX,48035,Bosque,Meridian Lake,31.88926486,-97.7025267
TX,48035,Bosque,Mokszycki Lake,32.12784837,-97.57964035
TX,48035,Bosque,Mustang Lake,32.07642457,-97.79561206
TX,48035,Bosque,Old Lake,32.078258,-97.81421522
TX,48035,Bosque,Olsen Lake,31.77796784,-97.56759536
TX,48035,Bosque,Ownsby Lake,32.04192825,-97.78931882
TX,48035,Bosque,Reed Lake 1,31.90761533,-97.79581121
TX,48035,Bosque,Reed Lake 2,31.90383619,-97.81119564
TX,48035,Bosque,Reed Lake 4,31.89556644,-97.78626039
TX,48035,Bosque,Soil Conservation Service Site 1 Reservoir,31.65523524,-97.6449285
TX,48035,Bosque,Soil Conservation Service Site 2 Reservoir,31.6345137,-97.54744735
TX,48035,Bosque,South Flat Top Lake,32.02691761,-97.8353695
TX,48035,Bosque,Stufflbeme Lake,32.14843809,-97.71273073
TX,48035,Bosque,Taylor Lake,31.71351765,-97.39220822
TX,48037,Bowie,Ashford Lake,33.36159792,-94.43933292
TX,48037,Bowie,Bringle Lake,33.50314359,-94.10499655
TX,48037,Bowie,Brushy Lake,33.57051341,-94.44349405
TX,48037,Bowie,Calver Lake,33.28739403,-94.56121796
TX,48037,Bowie,Caney Creek Reservoir,33.40917668,-94.31831273
TX,48037,Bowie,Caughorn Prairie,33.4257333,-94.72977092
TX,48037,Bowie,Cranfell Lake,33.53579058,-94.28918145
TX,48037,Bowie,Crystal Springs Lake,33.32742649,-94.38117031
TX,48037,Bowie,De Kalb Lake,33.48044557,-94.65172336
TX,48037,Bowie,Elliott Creek Reservoir,33.38989915,-94.26542442
TX,48037,Bowie,Flag Lake,33.26606267,-94.64276329
TX,48037,Bowie,Gifford Hill Lake,33.36879889,-94.05629679
TX,48037,Bowie,Goss Lake,33.27961829,-94.04667366
TX,48037,Bowie,Hatchel Lake,33.56862873,-94.60304972
TX,48037,Bowie,Hubbard Slough,33.54254262,-94.30772873
TX,48037,Bowie,Kennedy Lake,33.32795142,-94.06523438
TX,48037,Bowie,King Lake,33.51791306,-94.12538997
TX,48037,Bowie,Little Red Lake,33.54852851,-94.30264333
TX,48037,Bowie,Mudd Lake,33.29149846,-94.54817263
TX,48037,Bowie,New Lake,33.57805902,-94.44753468
TX,48037,Bowie,Old Tand P Lake,33.47014781,-94.44781389
TX,48037,Bowie,Parker Lake,33.31505026,-94.71082601
TX,48037,Bowie,Persimmon Pond,33.34507787,-94.6709682
TX,48037,Bowie,Pine Lake,33.27032832,-94.64236647
TX,48037,Bowie,Rush Lake,33.56937527,-94.17410502
TX,48037,Bowie,Shaw Lake,33.31116047,-94.72665518
TX,48037,Bowie,Smith Club Lake,33.53465601,-94.28426
TX,48037,Bowie,Spring Lake,33.4600319218896,-94.0552796506236
TX,48037,Bowie,Summer Hill Lake,33.55791476,-94.08593952
TX,48037,Bowie,T and P Lake,33.46716875,-94.44766431
TX,48037,Bowie,Wilson Lake,33.55562906,-94.25639077
TX,48037,Bowie,Winston Lake,33.67690504,-94.67052004
TX,48039,Brazoria,#1 Water,29.2925779368834,-95.3647199833094
TX,48039,Brazoria,Alligator Lake,29.10850965,-95.21179269
TX,48039,Brazoria,Archer Lake,29.36218379,-95.41507344
TX,48039,Brazoria,Ash Lake,29.03911862,-95.38226843
TX,48039,Brazoria,Baker Reservoir,29.25443743,-95.83392776
TX,48039,Brazoria,Barnes Lake,29.25431385,-95.52513984
TX,48039,Brazoria,Beal Reservoir,29.1903856,-95.62264412
TX,48039,Brazoria,Bell Lake,29.24742133,-95.57332042
TX,48039,Brazoria,Bieri Lake Number 2,29.20354721,-95.3617646
TX,48039,Brazoria,Bieri Lake Number 3,29.20577087,-95.35807745
TX,48039,Brazoria,Bieri Lake Number 4,29.19967791,-95.35917057
TX,48039,Brazoria,Bieri Lakes,29.19698854,-95.35170766
TX,48039,Brazoria,Bintliff Lake,29.13223852,-95.56595343
TX,48039,Brazoria,Bird Pond,29.13920404,-95.79393685
TX,48039,Brazoria,Black Ranch Lake,29.23911954,-95.56586262
TX,48039,Brazoria,Blackwell Reservoir,29.20377476,-95.73845965
TX,48039,Brazoria,Blue Lake,29.17771933,-95.52545222
TX,48039,Brazoria,Bonner Slough,29.37035902,-95.48560313
TX,48039,Brazoria,Brazos Harbor,28.94464553,-95.33507366
TX,48039,Brazoria,Brown Lake,29.21153038,-95.35877344
TX,48039,Brazoria,Bryan Lake,28.92141015,-95.3530138
TX,48039,Brazoria,Cedar Lake,29.19256379,-95.08299397
TX,48039,Brazoria,Cedar Lakes,28.84236581,-95.4966322
TX,48039,Brazoria,Chenango Pond,29.26699319,-95.46649686
TX,48039,Brazoria,Chubb Lake,29.01346135,-95.34884343
TX,48039,Brazoria,Clemens Reservoir Number 1,29.01974423,-95.49705688
TX,48039,Brazoria,Clemens Reservoir Number 2,29.01935389,-95.5022655
TX,48039,Brazoria,Clute Lake,29.02053552,-95.40194887
TX,48039,Brazoria,Coale Lake,29.12713892,-95.39650154
TX,48039,Brazoria,Collins Lake,29.14562111,-95.501536
TX,48039,Brazoria,Cox Lake,29.07522423,-95.2353832
TX,48039,Brazoria,Cut-Off Lake,29.04155532,-95.51803992
TX,48039,Brazoria,Dacus Lake,29.06309014,-95.56880434
TX,48039,Brazoria,Dane Lake,29.13588939,-95.4902304
TX,48039,Brazoria,Dingle Lake Number 2,29.2856344,-95.3058482
TX,48039,Brazoria,Division Lake,29.33927173,-95.42240371
TX,48039,Brazoria,Duck Lake,29.26576383,-95.22066481
TX,48039,Brazoria,Eagle Lake,29.02300512,-95.41781939
TX,48039,Brazoria,Eagle Nest Lake,29.2227588,-95.61132811
TX,48039,Brazoria,East Union Bayou,28.96981006,-95.32525746
TX,48039,Brazoria,Essex Bayou,29.00408949,-95.27693634
TX,48039,Brazoria,Evans Lake,29.10487996,-95.34656269
TX,48039,Brazoria,Follet Lake,29.06196383,-95.37916638
TX,48039,Brazoria,Garrett Lakes,29.2699096,-95.32469873
TX,48039,Brazoria,Griffith Reservoir,29.15484652,-95.56714572
TX,48039,Brazoria,Harris Reservoir,29.24164011,-95.53895949
TX,48039,Brazoria,Hickory Slough,29.56837055,-95.35603832
TX,48039,Brazoria,Homestead Lake,29.1733359206294,-95.4464719497769
TX,48039,Brazoria,Hudeck Reservoir,29.24209208,-95.38657381
TX,48039,Brazoria,Jamison Lake,29.2409286,-95.45836535
TX,48039,Brazoria,Jones Lake,28.88610385,-95.42595054
TX,48039,Brazoria,Lake Barbara,29.02775689,-95.38818388
TX,48039,Brazoria,Lake Pomona,29.5246580041444,-95.3914580138938
TX,48039,Brazoria,Lemon Reservoir,29.15954587,-95.32389766
TX,48039,Brazoria,Lewis Lake,29.17591844,-95.49223384
TX,48039,Brazoria,Long Pond,29.1871376,-95.5263689
TX,48039,Brazoria,Lost Lake,29.08703721,-95.21134188
TX,48039,Brazoria,Lostak Lake Number 1,29.19313187,-95.33129957
TX,48039,Brazoria,Mammoth Lake,29.0294796708166,-95.4167829957896
TX,48039,Brazoria,Mann Lake,29.19224851,-95.5949218
TX,48039,Brazoria,Manor Lake,29.21988921,-95.57996344
TX,48039,Brazoria,McCormack Reservoir Number 1,29.14471345,-95.32190351
TX,48039,Brazoria,McCormack Reservoir Number 2,29.14461317,-95.32513573
TX,48039,Brazoria,McCormack Reservoir Number 3,29.13155029,-95.32855279
TX,48039,Brazoria,McCormack Reservoir Number 4,29.12619643,-95.32007792
TX,48039,Brazoria,McNeal Lake,28.89637521,-95.46055147
TX,48039,Brazoria,Monsanto Reservoir,29.26654181,-95.21139814
TX,48039,Brazoria,Mowery Lake,29.38422905,-95.45712653
TX,48039,Brazoria,Mustang Lake East,29.3015677,-95.19043088
TX,48039,Brazoria,Mustang Lake West,29.29747356,-95.19673381
TX,48039,Brazoria,Nicks Lake,29.0275436,-95.24034562
TX,48039,Brazoria,Old Reservoir,28.91429318,-95.36786806
TX,48039,Brazoria,Oyster Creek Cut,28.95779499,-95.28651429
TX,48039,Brazoria,Oyster Lake,29.12178622,-95.17490632
TX,48039,Brazoria,Pecan Lake,29.042522191414,-95.4214859391172
TX,48039,Brazoria,Pelican Lake,28.88614867,-95.4559246
TX,48039,Brazoria,Peltier Lakes,29.21233689,-95.28717248
TX,48039,Brazoria,Rawlings Lakes,29.45921077,-95.40155712
TX,48039,Brazoria,Reservoir Number 10,29.23886543,-95.33052783
TX,48039,Brazoria,Reservoir Number 18,29.23180557,-95.32366875
TX,48039,Brazoria,Reservoir Number 9,29.23598615,-95.33033985
TX,48039,Brazoria,Rich Lake,29.20263093,-95.3663515
TX,48039,Brazoria,River Lake,29.2685062,-95.56922529
TX,48039,Brazoria,Round Lake,29.01520318,-95.36674055
TX,48039,Brazoria,Sally Lake,29.15928203,-95.50431414
TX,48039,Brazoria,Salt Lake,29.03986824,-95.25448072
TX,48039,Brazoria,San Bernard Reservoir Number 1,29.10515125,-95.70836112
TX,48039,Brazoria,San Bernard Reservoir Number 2,29.09732385,-95.7169775
TX,48039,Brazoria,San Bernard Reservoir Number 3,29.1049837302022,-95.7254970837442
TX,48039,Brazoria,Scoby Lake,29.16420533,-95.5005846
TX,48039,Brazoria,Sea Center Texas Reservoir,29.0157345576663,-95.446080748953
TX,48039,Brazoria,Senna Bean Lake,29.21983241,-95.52480598
TX,48039,Brazoria,Shank Lake,29.0183094,-95.32598174
TX,48039,Brazoria,Shy Pond,29.05069333,-95.45084092
TX,48039,Brazoria,Snag Lake,29.20976402,-95.5192385
TX,48039,Brazoria,Southwyck Lake,29.5455696119621,-95.3605864233979
TX,48039,Brazoria,Swan Lake,28.97051385,-95.2743483
TX,48039,Brazoria,Tankersley Lake,29.34027884,-95.51627265
TX,48039,Brazoria,Tenneco Lake Number 1,29.15600645,-95.62256374
TX,48039,Brazoria,Tenneco Lake Number 2,29.15441706,-95.59663511
TX,48039,Brazoria,Thurmond Lake,29.36869165,-95.47803045
TX,48039,Brazoria,Tigner-Farrer Reservoir,29.17323501,-95.37681565
TX,48039,Brazoria,Turner Lake,29.37812488,-95.56921297
TX,48039,Brazoria,Ward Lake,29.12293303,-95.4900477
TX,48039,Brazoria,William Harris Reservoir,29.24217296,-95.55614598
TX,48039,Brazoria,Willow Lake,29.41343199,-95.49406813
TX,48039,Brazoria,Wolf Lake,29.03881952,-95.23733661
TX,48041,Brazos,Big Slough,30.66042979,-96.17888864
TX,48041,Brazos,Brooke Lake,30.66767166,-96.2344387
TX,48041,Brazos,Brushy Lake,30.58277939,-96.19459303
TX,48041,Brazos,Bryan Utilities Lake,30.71053183,-96.45497969
TX,48041,Brazos,Carter Lake,30.59234426,-96.249836
TX,48041,Brazos,Cawthorn Lake,30.41632688,-96.23033232
TX,48041,Brazos,Clay Lake,30.44071249,-96.27238765
TX,48041,Brazos,Clear Lake,30.78302805,-96.18532541
TX,48041,Brazos,Clifty Creek Lake,30.44204335,-96.2235679
TX,48041,Brazos,Country Club Lake,30.64130993,-96.3613342
TX,48041,Brazos,Dobrovolny Lake,30.66102594,-96.44666906
TX,48041,Brazos,Fin Feather Lake,30.65055637,-96.37275277
TX,48041,Brazos,Frierson Lake Number 1,30.51929906,-96.25928439
TX,48041,Brazos,Frierson Lake Number 2,30.51439829,-96.25924783
TX,48041,Brazos,Frierson Lake Number 3,30.52107818,-96.27170307
TX,48041,Brazos,Hall Lake,30.86830635,-96.20431658
TX,48041,Brazos,Hare Lake,30.87710251,-96.25608942
TX,48041,Brazos,Herrling Lake 2,30.85889845,-96.1937091
TX,48041,Brazos,Lake ESTI,30.5772638765182,-96.3520128818714
TX,48041,Brazos,Lake Mary,30.66895442,-96.44674678
TX,48041,Brazos,Lake Placid,30.59351797,-96.2586186
TX,48041,Brazos,Leisure Lake,30.63495802,-96.41135821
TX,48041,Brazos,Linda Lake,30.62200164,-96.42599065
TX,48041,Brazos,Mooring Slough,30.68737216,-96.55728972
TX,48041,Brazos,Nantucket Lake,30.5434178799993,-96.2463806454782
TX,48041,Brazos,Oakland Lake,30.77739746,-96.23886415
TX,48041,Brazos,Pasture Lake,30.90682235,-96.24385607
TX,48041,Brazos,Peters Lake,30.76661619,-96.400478
TX,48041,Brazos,Prescott Lake,30.49000194,-96.24758251
TX,48041,Brazos,Railroad Lake,30.4237072050984,-96.2109422076661
TX,48041,Brazos,Rotello Lake,30.45749227,-96.15184064
TX,48041,Brazos,Smith Lake,30.66524883,-96.42512528
TX,48041,Brazos,Soil Conservation Service Site 6 Reservoir,30.43580232,-96.17215691
TX,48041,Brazos,Spearman Lake,30.52678179,-96.26308398
TX,48041,Brazos,String Prairie,30.81324167,-96.29823975
TX,48041,Brazos,Stuewe Lake,30.89466153,-96.31389297
TX,48041,Brazos,Tennessee Lake,30.42934158,-96.25787784
TX,48041,Brazos,Texas A and M University Lake Number 1,30.56491172,-96.36747699
TX,48041,Brazos,Tonkaway Lake,30.58914231,-96.19290562
TX,48041,Brazos,Weaver Lake,30.96623749,-96.2429878
TX,48041,Brazos,Wickson Lake,30.7569702,-96.17704633
TX,48041,Brazos,Wilson Lake,30.90235425,-96.21315857
TX,48041,Brazos,Yaupon Trails Pond,30.6509822499883,-96.2598774223927
TX,48043,Brewster,Baylor Tank,30.25797848,-103.6381875
TX,48043,Brewster,Bear Creek Tank,29.69783371,-103.00238898
TX,48043,Brewster,Bee Cove Tank,29.59206868,-102.97882851
TX,48043,Brewster,Big Rock Tank,30.55689483,-103.59345566
TX,48043,Brewster,Britton Tank,29.83334856,-102.54400749
TX,48043,Brewster,Broken Tank,29.85266775,-103.53329024
TX,48043,Brewster,Bull Waterhole,30.50394694,-103.32915168
TX,48043,Brewster,Bullis Gap Tank,29.8194285,-102.59680385
TX,48043,Brewster,Carlota Tinaja,29.27906188,-103.03557322
TX,48043,Brewster,Carney Tank,29.68492041,-103.2371184
TX,48043,Brewster,Cheosa Waterhole,29.62044535,-103.61272681
TX,48043,Brewster,Christmas Wells Tank,29.47001034,-103.42323007
TX,48043,Brewster,Crenshaw Tank,29.84851481,-102.76642999
TX,48043,Brewster,Dagger Tank,29.56838205,-103.07551242
TX,48043,Brewster,Dead Cow Hole,30.01993821,-103.07723017
TX,48043,Brewster,Dead Horse Hole,30.07863743,-103.09165045
TX,48043,Brewster,Dewees Tank,29.7400923,-103.57540442
TX,48043,Brewster,Double Tank,29.84561865,-102.70686647
TX,48043,Brewster,Double Tanks,29.57044369,-103.47722569
TX,48043,Brewster,Eighty Tank,30.27142943,-102.92716249
TX,48043,Brewster,Ernst Tank,29.26675267,-102.99478997
TX,48043,Brewster,Guys Tank,29.64945715,-103.00253526
TX,48043,Brewster,Hammond Ranch Lake,29.66423796,-103.73548669
TX,48043,Brewster,Herradura Tank,30.56406919,-103.57499091
TX,48043,Brewster,Hole in the Ground Tank,29.54450011,-102.91509648
TX,48043,Brewster,Key Cabin Tank,29.72855705,-103.07366017
TX,48043,Brewster,Lake Ament,29.45379389,-103.49218896
TX,48043,Brewster,Little Crenshaw Tank,29.84745706,-102.7362234
TX,48043,Brewster,Mailbox Tank,29.48023243,-103.13224123
TX,48043,Brewster,Norton Tank,29.63571049,-103.01884049
TX,48043,Brewster,Number Ten Tank,30.55417449,-103.58298903
TX,48043,Brewster,Paynes Waterhole,29.42080944,-103.56410141
TX,48043,Brewster,Perch Tank,30.52334174,-103.25073885
TX,48043,Brewster,Rice Tank,29.230504,-103.16630909
TX,48043,Brewster,Rockhouse Tank,29.57469695,-102.94075258
TX,48043,Brewster,Steel Tank,30.07782013,-103.1067817
TX,48043,Brewster,Stevenson Tank,29.85153489,-102.85704252
TX,48043,Brewster,Tinaja Grande,29.20870053,-103.66465565
TX,48043,Brewster,Willow Tank,29.31050154,-103.02882055
TX,48043,Brewster,Witcher Tank,30.50455305,-103.23191265
TX,48043,Brewster,Wood Hollow Tank,30.09245551,-103.22552964
TX,48045,Briscoe,Antelope Tank,34.58977322,-100.94568989
TX,48045,Briscoe,Barrel Tank,34.60386767,-101.06692022
TX,48045,Briscoe,Bass Tank,34.55008642,-101.05442322
TX,48045,Briscoe,Big Betty Reservoir,34.70666062,-101.29797604
TX,48045,Briscoe,Burson Lake,34.49299393,-100.9847597
TX,48045,Briscoe,Caliche Tank,34.57532276,-101.01802256
TX,48045,Briscoe,Cottonwood Lake,34.35384221,-101.12845849
TX,48045,Briscoe,Dry Creek Lake,34.41484594,-101.07485825
TX,48045,Briscoe,Grahams Lake,34.36423841,-101.12715415
TX,48045,Briscoe,Gravel Tank,34.58995976,-101.00863677
TX,48045,Briscoe,Hawkins Lake,34.42149394,-101.0816218
TX,48045,Briscoe,Hay Lake,34.44660173,-101.1638862
TX,48045,Briscoe,Holmes Creek Tank,34.42035916,-101.1288053
TX,48045,Briscoe,Horseshoe Tank,34.5719706,-101.02662297
TX,48045,Briscoe,Ladder Tank,34.46586482,-101.02877098
TX,48045,Briscoe,Lake Theo,34.41521718,-101.06543165
TX,48045,Briscoe,Little Cottonwood Creek Tank,34.4011306108063,-101.143162522215
TX,48045,Briscoe,Luther Lake,34.48916545,-101.0542063
TX,48045,Briscoe,Mayfield Lake,34.4838118,-101.43383349
TX,48045,Briscoe,Pole Tank,34.46511788,-100.97969089
TX,48045,Briscoe,Puckett Lake,34.37346568,-101.10717225
TX,48045,Briscoe,Scraper Tank,34.54961168,-101.04012971
TX,48045,Briscoe,Sink Lake,34.71793843,-100.99840905
TX,48045,Briscoe,Soil Conservation Service Site 1 Reservoir,34.38986754,-101.08707744
TX,48045,Briscoe,Soil Conservation Service Site 2 Reservoir,34.37993691,-101.08812776
TX,48045,Briscoe,Soil Conservation Service Site 3 Reservoir,34.39779411,-101.06439911
TX,48045,Briscoe,Soil Conservation Service Site 5 Reservoir,34.36330891,-100.99216803
TX,48045,Briscoe,Soil Conservation Service Site 6 Reservoir,34.36849497,-100.95906773
TX,48045,Briscoe,Soil Conservation Service Site 7 Reservoir,34.34693197,-100.95685508
TX,48045,Briscoe,Timber Lake,34.6851654,-100.99107621
TX,48045,Briscoe,Tule Creek Lake,34.54720727,-101.44824217
TX,48045,Briscoe,Wagon Wheel Tank,34.59032657,-101.04835025
TX,48045,Briscoe,Wild Horse Tank,34.5611009,-101.1468537
TX,48047,Brooks,Burro Lake,27.24811252,-98.15296242
TX,48047,Brooks,Cayetano Lake,27.1174646,-98.16107278
TX,48047,Brooks,Hauser Lake,27.19993782,-98.12919761
TX,48047,Brooks,La Hedionda Lake,27.19135413,-98.17950941
TX,48047,Brooks,La Redonda Lake,26.8864228,-98.21689328
TX,48047,Brooks,Laguna Madre,27.16710136,-98.13115525
TX,48047,Brooks,Medio Lake,26.96052457,-98.2460203
TX,48047,Brooks,Mesquite Lake,27.2446607,-98.16755495
TX,48047,Brooks,Mineral Pasture,26.88890656,-98.07281022
TX,48047,Brooks,Moreno Lake,27.2385201,-97.98730318
TX,48047,Brooks,Padrones Pasture,26.78855994,-98.05990245
TX,48047,Brooks,Prieta Tank,26.94035535,-98.3590914
TX,48047,Brooks,Quiteria Lake,26.87796381,-98.0036387
TX,48047,Brooks,Round Lake,26.99506375,-98.23265844
TX,48047,Brooks,Viboras Well,26.8045000331592,-98.086871546466
TX,48049,Brown,Blanket Creek Watershed Number 16,31.6911245,-98.74241079
TX,48049,Brown,Blanket Creek Watershed Number Eight,31.74582406,-98.78689143
TX,48049,Brown,Blanket Creek Watershed Number Fifteen,31.70902835,-98.73325471
TX,48049,Brown,Brownwood Lake,31.8497391,-99.04170759
TX,48049,Brown,Brownwood Lateral Watershed Number 20,31.74885014,-98.8530432
TX,48049,Brown,Brownwood Lateral Watershed Number 21,31.71858916,-98.83461192
TX,48049,Brown,Brownwood Lateral Watershed Number 22,31.65334584,-98.81180893
TX,48049,Brown,Brownwood Lateral Watershed Number 25,31.59175677,-98.92215591
TX,48049,Brown,Brownwood Lateral Watershed Number 4-B,31.64148729,-98.99844735
TX,48049,Brown,Brownwood Laterals WS SCS Site Four A,31.64189212,-98.96919335
TX,48049,Brown,Brownwood Laterals WS SCS Site Twentyfive,31.64052351,-98.94073262
TX,48049,Brown,Camp Bowie Reservoir,31.67520789,-98.98649592
TX,48049,Brown,Country Club Lake,31.65243732,-98.9945205
TX,48049,Brown,Dam Number 1,31.99432999,-99.06435115
TX,48049,Brown,Dam Number 2,31.98091265,-99.06246854
TX,48049,Brown,Jolley Lake,31.93479466,-99.17348747
TX,48049,Brown,Lake Brownwood,31.87220228,-99.02214723
TX,48049,Brown,Owens Lake,31.65983439,-99.14047163
TX,48049,Brown,Soil Conservation Service Site 10a Reservoir,31.8837006,-98.91658039
TX,48049,Brown,Soil Conservation Service Site 11a Reservoir,32.03990237,-99.18595486
TX,48049,Brown,Soil Conservation Service Site 12 Reservoir,32.06272498,-99.19413339
TX,48049,Brown,Soil Conservation Service Site 13 Reservoir,31.8621327,-98.84641907
TX,48049,Brown,Soil Conservation Service Site 15 Reservoir,31.84442952,-98.85729644
TX,48049,Brown,Soil Conservation Service Site 16a Reservoir,31.82720347,-98.88741098
TX,48049,Brown,Soil Conservation Service Site 17 Reservoir,31.79709404,-98.92004369
TX,48049,Brown,Soil Conservation Service Site 19 Reservoir,31.75996043,-98.86892263
TX,48049,Brown,Soil Conservation Service Site 22 Reservoir,31.63702373,-98.82177443
TX,48049,Brown,Soil Conservation Service Site 23 Reservoir,31.60791572,-98.79148005
TX,48049,Brown,Soil Conservation Service Site 26 Reservoir,32.05327754,-99.1328339
TX,48049,Brown,Soil Conservation Service Site 26a-1 Reservoir,31.66298078,-98.86062842
TX,48049,Brown,Soil Conservation Service Site 2a Reservoir,31.72703218,-99.05049961
TX,48049,Brown,Soil Conservation Service Site 30 Reservoir,32.0370614469189,-99.0229265643461
TX,48049,Brown,Soil Conservation Service Site 31 Reservoir,31.96862589,-98.89972242
TX,48049,Brown,Soil Conservation Service Site 33 Reservoir,31.947493,-98.91910749
TX,48049,Brown,Soil Conservation Service Site 34 Reservoir,32.05196528,-99.11489591
TX,48049,Brown,Soil Conservation Service Site 4b Reservoir,31.64368872,-98.99630011
TX,48049,Brown,Soil Conservation Service Site 5 Reservoir,31.68250489,-99.06031762
TX,48049,Brown,Soil Conservation Service Site 9 Reservoir,31.71350367,-98.78094829
TX,48049,Brown,Soil Conservation Service Site Eight Reservoir,31.7470998,-98.78577129
TX,48049,Brown,Soil Conservation Service Site Five Reservoir,31.54326297,-98.9668852
TX,48049,Brown,Soil Conservation Service Site Four Reservoir,31.56810888,-98.96957438
TX,48049,Brown,Soil Conservation Service Site One Reservoir,31.60503472,-98.9891412
TX,48049,Brown,Soil Conservation Service Site Two Reservoir,31.59381218,-98.97669088
TX,48049,Brown,Taylor Reservoir,31.68437783,-98.84574385
TX,48051,Burleson,Baker Lake,30.35091849,-96.43298693
TX,48051,Burleson,Balcar Lake,30.41101277,-96.78318578
TX,48051,Burleson,Beaver Lake,30.45370583,-96.54830168
TX,48051,Burleson,Black Lake,30.58895545,-96.55340279
TX,48051,Burleson,Bluestem Pond,30.3095597731771,-96.6367925726383
TX,48051,Burleson,Butler Bayou,30.57929051,-96.44957116
TX,48051,Burleson,Cade Lake Number 3,30.50503457,-96.76964153
TX,48051,Burleson,Edwards Lake,30.34628208,-96.70983761
TX,48051,Burleson,Family Fishing Pond,30.3127018023172,-96.6270219032701
TX,48051,Burleson,Garwood Lake,30.58578786,-96.68692967
TX,48051,Burleson,Gerland Lake,30.34075698,-96.70311248
TX,48051,Burleson,Gibbs Lake,30.5632231,-96.62851518
TX,48051,Burleson,Giesensclag Lake,30.50595367,-96.48238897
TX,48051,Burleson,Glover Lake,30.49588403,-96.63212461
TX,48051,Burleson,Hutchings Lake,30.38919087,-96.39048224
TX,48051,Burleson,Jon's Pond,30.3489472537677,-96.7131705303617
TX,48051,Burleson,Lamb Lake,30.32935317,-96.70140029
TX,48051,Burleson,Mallard Lake,30.45531094,-96.55780125
TX,48051,Burleson,Matcek Lake,30.48056222,-96.64736146
TX,48051,Burleson,Middle Bayou,30.51834168,-96.40819727
TX,48051,Burleson,Middle Lake,30.3519326637831,-96.7172632366998
TX,48051,Burleson,Palmer Lake,30.53134718,-96.57633965
TX,48051,Burleson,Sand Lake,30.46207052,-96.8919002
TX,48051,Burleson,Sanders Lake,30.49722093,-96.68755328
TX,48051,Burleson,Schlindler Lake,30.37240921,-96.70955383
TX,48051,Burleson,Schumacher Lake,30.43075472,-96.64275121
TX,48051,Burleson,Somerville Lake,30.31156491,-96.58621708
TX,48051,Burleson,Spring Lake,30.56119702,-96.74320914
TX,48051,Burleson,Teal Prairie,30.69022285,-96.60832972
TX,48051,Burleson,Wilkins Lake,30.39517855,-96.32755185
TX,48051,Burleson,Williams Lake,30.58973879,-96.7788159
TX,48051,Burleson,Woodrow Lake,30.60650827,-96.68755382
TX,48053,Burnet,Bible Lake,30.58985038,-98.23112873
TX,48053,Burnet,Buffalo Prairie,30.99742178,-98.39728858
TX,48053,Burnet,Cave Pond,31.00942047,-98.40284995
TX,48053,Burnet,Indian Lake,30.91052196,-98.38291073
TX,48053,Burnet,Lake Lyndon B Johnson,30.59024906,-98.39003098
TX,48053,Burnet,Lewis Lake,30.54626428,-98.19853912
TX,48053,Burnet,Long Rock Tank,30.60508846,-98.33215183
TX,48053,Burnet,McCrea Tank,31.01495586,-98.37551548
TX,48053,Burnet,Meadowlakes Number 1 Lake,30.57351142,-98.29242585
TX,48053,Burnet,Meadowlakes Number 2 Lake,30.57064502,-98.29084824
TX,48053,Burnet,Mill Pond,30.63725283,-98.23531747
TX,48053,Burnet,Owl Hollow Lake,30.91556757,-98.37097691
TX,48053,Burnet,Reservoir Number Four,31.02147285,-98.24720264
TX,48053,Burnet,Soil Conservation Service Site 4 Reservoir,31.02400272,-98.24512152
TX,48053,Burnet,Upper End Tank,31.00187183,-98.37953947
TX,48053,Burnet,Wildcat Lake,30.90907234,-98.38806482
TX,48053,Burnet,Yett Basin Pond,30.51822014,-98.17561982
TX,48055,Caldwell,Barth Lake,29.90870393,-97.68307555
TX,48055,Caldwell,Clark Lake,30.0070021253882,-97.6944039772724
TX,48055,Caldwell,Cooper Lake,29.86606517,-97.79240093
TX,48055,Caldwell,Duddleston Lake,29.82477342,-97.36523778
TX,48055,Caldwell,Grouskay-Fisher Lake,29.84630575,-97.79384774
TX,48055,Caldwell,Langford Lake,29.77181179,-97.80444112
TX,48055,Caldwell,Macon Lake,29.73849318,-97.51810228
TX,48055,Caldwell,Segler Lake,29.92586515,-97.62451158
TX,48055,Caldwell,Site Number Eighteen,29.97826534,-97.69549512
TX,48055,Caldwell,Site Number Twenty,29.94027419,-97.69169627
TX,48055,Caldwell,Site Number Twentyone,29.95906523,-97.65394314
TX,48055,Caldwell,Soil Conservation Service Site 14 Reservoir,29.95482383,-97.74527429
TX,48055,Caldwell,Soil Conservation Service Site 15 Reservoir,29.91527327,-97.70527356
TX,48055,Caldwell,Soil Conservation Service Site 23 Reservoir,29.85418967,-97.62713738
TX,48055,Caldwell,Soil Conservation Service Site 24 Reservoir,29.89440708,-97.53488055
TX,48055,Caldwell,Soil Conservation Service Site 26 Reservoir,29.87906208,-97.57748756
TX,48055,Caldwell,Soil Conservation Service Site 27 Reservoir,29.83460792,-97.56013182
TX,48055,Caldwell,Soil Conservation Service Site 28 Reservoir,29.85904612,-97.50823987
TX,48055,Caldwell,Soil Conservation Service Site 29 Reservoir,29.84998925,-97.49734583
TX,48055,Caldwell,Soil Conservation Service Site 31 Reservoir,29.79219056,-97.55025792
TX,48055,Caldwell,Soil Conservation Service Site 34 Reservoir,29.86802937,-97.76158801
TX,48055,Caldwell,Soil Conservation Service Site 37 Reservoir,29.77157833,-97.70215111
TX,48055,Caldwell,Soil Conservation Service Site 38 Reservoir,29.69312693,-97.65821192
TX,48055,Caldwell,Soil Conservation Service Site 8 Reservoir,29.93849051,-97.76221434
TX,48057,Calhoun,Alligator Slide Lake,28.48673084,-96.82329288
TX,48057,Calhoun,Big Dam Bayou,28.47279634,-96.4463891
TX,48057,Calhoun,Big Tree Lake,28.25455223,-96.78897254
TX,48057,Calhoun,Blind Bayou,28.52538681,-96.51015153
TX,48057,Calhoun,Buffalo Lake,28.50194146,-96.82472022
TX,48057,Calhoun,Clear Lake,28.65731033,-96.54449439
TX,48057,Calhoun,Cottonwood Bayou,28.16673084,-96.75176029
TX,48057,Calhoun,Coxs Creek Reservoir,28.67639426,-96.52993857
TX,48057,Calhoun,Dredge Spoil Lake,28.65493046,-96.52711536
TX,48057,Calhoun,Evaporation Lake Number 1,28.67755992,-96.5298743
TX,48057,Calhoun,Goff Bayou,28.50797016,-96.81197797
TX,48057,Calhoun,Green Lake,28.52728053,-96.83955721
TX,48057,Calhoun,Huckleberry Bayou,28.47696301,-96.45320519
TX,48057,Calhoun,Jones Bayou,28.55995189,-96.86533898
TX,48057,Calhoun,Jones Lake,28.25563975,-96.79657086
TX,48057,Calhoun,Lasalle Bayou,28.4869357783751,-96.4555983321415
TX,48057,Calhoun,Little Brundrett Lake,28.15618471,-96.79866389
TX,48057,Calhoun,Mud Lake,28.56975697,-96.60824974
TX,48057,Calhoun,Mud Lake Number 4,28.66606127,-96.54253973
TX,48057,Calhoun,Old Town Lake,28.55362028,-96.53503111
TX,48057,Calhoun,Operating Basin Number 1,28.50151714,-96.77112929
TX,48057,Calhoun,Operating Basin Number 31,28.52009719,-96.77594118
TX,48057,Calhoun,Operating Basin Number 5,28.50992731,-96.76208722
TX,48057,Calhoun,Powderhorn Lake,28.4917895,-96.5203911
TX,48057,Calhoun,Power Lake,28.25419613,-96.61751892
TX,48057,Calhoun,Raw Water Lake,28.6606853,-96.54444928
TX,48057,Calhoun,Redfish Lake,28.62411429,-96.3906201
TX,48057,Calhoun,Redfish Slough,28.2256575258308,-96.8072216290795
TX,48057,Calhoun,Salt Lake,28.63202839,-96.40837794
TX,48057,Calhoun,Shell Reef Bayou,28.17843505,-96.76027997
TX,48057,Calhoun,Storm Lake,28.65809523,-96.54958418
TX,48057,Calhoun,Swan Lake,28.21320074,-96.6872724
TX,48057,Calhoun,West Tidal Lake,28.4125374001846,-96.4934350442045
TX,48057,Calhoun,Wild Hog Lake,28.2509141299455,-96.7929802932716
TX,48059,Callahan,Baird Railroad Lake,32.38984491,-99.37130538
TX,48059,Callahan,Freeland Lake,32.19920708,-99.16325536
TX,48059,Callahan,Hall Lake,32.20176459,-99.36734204
TX,48059,Callahan,Hatchett Lake,32.36601036,-99.29068951
TX,48059,Callahan,Henninger Lake,32.42475085,-99.62671338
TX,48059,Callahan,La Reata Lake,32.31337224,-99.21110844
TX,48059,Callahan,Latimer Lake,32.38401371,-99.43111929
TX,48059,Callahan,Putnam Lake,32.37139246,-99.1813295
TX,48059,Callahan,Smith Lake,32.37910923,-99.31486388
TX,48059,Callahan,Soil Conservation Service Site 10 Reservoir,32.24247728,-99.42715222
TX,48059,Callahan,Soil Conservation Service Site 11a Reservoir,32.21300071,-99.5022828
TX,48059,Callahan,Soil Conservation Service Site 12 Reservoir,32.19187872,-99.40440493
TX,48059,Callahan,Soil Conservation Service Site 1a Reservoir,32.20997897,-99.26685534
TX,48059,Callahan,Soil Conservation Service Site 1b Reservoir,32.19393129,-99.24384571
TX,48059,Callahan,Soil Conservation Service Site 21 Reservoir,32.12826379,-99.22803506
TX,48059,Callahan,Soil Conservation Service Site 22 Reservoir,32.12340875,-99.24458504
TX,48059,Callahan,Soil Conservation Service Site 23 Reservoir,32.10068583,-99.26747119
TX,48059,Callahan,Soil Conservation Service Site 3 Reservoir,32.19709266,-99.22292999
TX,48059,Callahan,Soil Conservation Service Site 32 Reservoir,32.20007413,-99.57777354
TX,48059,Callahan,Soil Conservation Service Site 4 Reservoir,32.23663675,-99.20948074
TX,48059,Callahan,Soil Conservation Service Site 5 Reservoir,32.2175211,-99.18874777
TX,48059,Callahan,Soil Conservation Service Site 8 Reservoir,32.16512941,-99.21451577
TX,48059,Callahan,Straley Lake,32.17961751,-99.50329434
TX,48059,Callahan,T P Lake,32.38793638,-99.37611605
TX,48059,Callahan,Windham Lake,32.36646635,-99.33845985
TX,48061,Cameron,Abbott Reservoir,26.22105266,-97.60455681
TX,48061,Cameron,Adams Winter Garden Reservoir,26.10120366,-97.78497601
TX,48061,Cameron,Agua Negra,26.08153406,-97.47390289
TX,48061,Cameron,Arroyo Tank,26.31487658,-97.41947927
TX,48061,Cameron,Bahia Grande,26.04656221,-97.30325312
TX,48061,Cameron,Brownsville Sports Park Resaca 1,26.0031943931346,-97.519162196847
TX,48061,Cameron,Cain Reservoir 1,26.18378234,-97.37115511
TX,48061,Cameron,Cain Reservoir 2,26.17656205,-97.37920157
TX,48061,Cameron,Cameron Company Fwsd Reservoir 1,26.12024592,-97.32000784
TX,48061,Cameron,Cameron County District Number One Reservoir,26.06483157,-97.76486745
TX,48061,Cameron,Cayo Atascoso,26.2958717762808,-97.3838899599624
TX,48061,Cameron,Charco Hondo,26.09521656,-97.47650184
TX,48061,Cameron,Chico Tank,26.28589454,-97.44701931
TX,48061,Cameron,City of Harlingen Reservoir,26.16471351,-97.71699674
TX,48061,Cameron,Cross Lake,26.16768704,-97.48445182
TX,48061,Cameron,Cullen-Thompson Reservoir,26.24159311,-97.64692487
TX,48061,Cameron,Dana-Tule Reservoir 1,26.05425041,-97.46489578
TX,48061,Cameron,Dana-Tule Reservoir 2,26.04695666,-97.46438893
TX,48061,Cameron,El Civolo Tank,26.23068096,-97.44572848
TX,48061,Cameron,El Preseno Lake,26.21089477,-97.48850774
TX,48061,Cameron,El Sivolo Pond,26.27734699,-97.44363758
TX,48061,Cameron,El Tular,26.09605316,-97.31503727
TX,48061,Cameron,Esperanza Farms Lake,26.27142847,-97.65453564
TX,48061,Cameron,Espuela Tank,26.21731674,-97.44829174
TX,48061,Cameron,Hext Reservoir,26.27159309,-97.61363331
TX,48061,Cameron,Jasper Tank,26.2705184,-97.42543909
TX,48061,Cameron,La Feria Reservoir,26.13555899,-97.83183303
TX,48061,Cameron,Laguna Atascosa,26.23670384,-97.38899469
TX,48061,Cameron,Laguna de los Patos,26.18399312,-97.30058877
TX,48061,Cameron,Laguna Larga,26.07182022,-97.28215258
TX,48061,Cameron,Lake Harlingen,26.19752923,-97.69114338
TX,48061,Cameron,Loma Alta Lake,25.98763052,-97.42122991
TX,48061,Cameron,Lozano Banco Resaca,25.8943980634679,-97.4862463506264
TX,48061,Cameron,McCloud Hood Reservoir,26.25367127,-97.61698959
TX,48061,Cameron,Mercer Reservoir 1,26.17751269,-97.44838248
TX,48061,Cameron,Mercer Reservoir 2,26.16697358,-97.43960237
TX,48061,Cameron,Montgomery Reservoir,26.22001193,-97.58472798
TX,48061,Cameron,Nature Park East Resaca,26.0789419681163,-97.4730091282959
TX,48061,Cameron,Nature Park West Resaca,26.0803809010538,-97.4759271898783
TX,48061,Cameron,Negro Tank (historical),26.29868521,-97.44469526
TX,48061,Cameron,Olmito Lake,26.0259719,-97.53561257
TX,48061,Cameron,Pandri Talab,26.2058804241409,-97.6753245609679
TX,48061,Cameron,Port Isabel Reservoir,25.96039687,-97.22874979
TX,48061,Cameron,Reba Bass Lake,26.1667606,-97.78608482
TX,48061,Cameron,Resaca de la Palma,25.94293225,-97.48224065
TX,48061,Cameron,Resaca de La Palma Reservoir,25.97189977,-97.55118123
TX,48061,Cameron,Resaca de las Antonias,26.0902996,-97.44902696
TX,48061,Cameron,Resaca de las Flores,26.06286768,-97.53966531
TX,48061,Cameron,Resaca del Jardin,26.03700124,-97.59507915
TX,48061,Cameron,Resaca del Rancho Viejo,26.03125386,-97.55133761
TX,48061,Cameron,Resaca Del Rancho Viejo Reservoir,26.03152254,-97.60627557
TX,48061,Cameron,Resaca Reparo,26.10995668,-97.40266293
TX,48061,Cameron,Reservoir Number One,26.05649209,-97.72627414
TX,48061,Cameron,Reservoir Number Seven,26.24091896,-97.49465157
TX,48061,Cameron,Reservoir Number Two,26.06546176,-97.71518543
TX,48061,Cameron,Russel Lake 1,26.09221119,-97.55052515
TX,48061,Cameron,Salt Pond,25.99136783,-97.52521538
TX,48061,Cameron,San Martin Lake,26.00785425,-97.32104723
TX,48061,Cameron,Sweeney Lake,26.17041726,-97.50344163
TX,48061,Cameron,Tiocano Lake Bed,26.21068011,-97.81474239
TX,48061,Cameron,Town Resaca,25.91969504,-97.49867379
TX,48061,Cameron,Vareno Tank,26.23752605,-97.43420575
TX,48061,Cameron,Verdolaga Lake,25.97912101,-97.20492245
TX,48061,Cameron,Wardner Reservoir,26.17043718,-97.52232863
TX,48063,Camp,Beaver Lake,33.01090639,-94.90570871
TX,48063,Camp,Bennett Lake,32.94832719,-94.96982958
TX,48063,Camp,Big Brushy Lake,32.95504391,-94.79615774
TX,48063,Camp,Dunagan Lake,32.97408188,-94.82665308
TX,48063,Camp,Ferndale Lake,32.95174739,-95.07698203
TX,48063,Camp,Flanagan Lake,32.96380938,-94.80715993
TX,48063,Camp,Highland Club Lake,32.93885932,-94.98264131
TX,48063,Camp,Hopkins Lake,33.0679686,-94.94138726
TX,48063,Camp,Lake Sue,32.94546228,-94.83871613
TX,48063,Camp,Little Brushy Lake,32.95364862,-94.79328081
TX,48063,Camp,Pine Ridge Club Lake,32.97101198,-94.86658751
TX,48063,Camp,Spencer Lake,32.93127238,-95.08543429
TX,48065,Carson,Horn Reservoir,35.28727093,-101.17988122
TX,48065,Carson,Icehouse Lake,35.3940235,-101.54675258
TX,48065,Carson,Pantex Lake,35.37548912,-101.49841218
TX,48065,Carson,Rockwell Lake,35.39999963,-101.59517032
TX,48065,Carson,Soil Conservation Service Site 1 Reservoir,35.30247822,-101.28314235
TX,48067,Cass,Barnes Lake,32.90299716,-94.49159528
TX,48067,Cass,Birdie Lake,32.89121484,-94.55525037
TX,48067,Cass,Blue Lake,32.95299064,-94.48376993
TX,48067,Cass,Caver Lake,33.26419441,-94.14419621
TX,48067,Cass,Coker Lake,33.12295442,-94.61898695
TX,48067,Cass,Daniels Pond,33.03153579,-94.45614526
TX,48067,Cass,Fin and Feather Club Lake,33.08492869,-94.16190497
TX,48067,Cass,Flag Pond,32.94843747,-94.4432837
TX,48067,Cass,Foster Lake,33.0014694,-94.43724566
TX,48067,Cass,George Wesley Morse Lake,33.01796042,-94.39571851
TX,48067,Cass,Hall Lake Number 1,32.97770434,-94.29772632
TX,48067,Cass,Hall Lake Number 2,32.96028801,-94.31057019
TX,48067,Cass,Harvey Lake,33.01512371,-94.31585085
TX,48067,Cass,Hogan Lake,33.15634166,-94.23979341
TX,48067,Cass,Hughes Lake,32.93536897,-94.49075548
TX,48067,Cass,Indian Hills Lake,33.1091405,-94.20914237
TX,48067,Cass,Lake Arrowhead,33.11441548,-94.20770667
TX,48067,Cass,Linden Club Lake,33.02627898,-94.40412383
TX,48067,Cass,Mays Lake,33.12154614,-94.21074369
TX,48067,Cass,Morse Lake,33.02101982,-94.40286273
TX,48067,Cass,Morses Mill Pond,32.96527228,-94.07604065
TX,48067,Cass,Nickels Lake,33.06387333,-94.19397257
TX,48067,Cass,Porterfield Lake,33.16171532,-94.07843977
TX,48067,Cass,Price Lake,33.05973207,-94.34656924
TX,48067,Cass,Pruitt Lake,32.94476055,-94.48642625
TX,48067,Cass,Rhyne Lake,32.88212667,-94.59439719
TX,48067,Cass,Silt Retainer Reservoir,33.06463849,-94.35934177
TX,48067,Cass,Skelton Lake,33.01695617,-94.43189957
TX,48067,Cass,Spear Lake,32.9871449,-94.22365525
TX,48067,Cass,Supervisors Club Pond,33.24557823,-94.07263378
TX,48067,Cass,Wallace Lake,32.98017941,-94.49797581
TX,48067,Cass,Whipple Pond,32.91559743,-94.37890648
TX,48069,Castro,Cone Johnson Lake,34.68174451,-102.01982067
TX,48069,Castro,Cosby Lake,34.57754771,-102.0365161
TX,48069,Castro,North Tule Lake,34.68019069,-101.99844486
TX,48069,Castro,Schwalker Lake,34.58915289,-102.09366672
TX,48071,Chambers,Cane Pond,29.79246126,-94.78702819
TX,48071,Chambers,Catfish Acres Reservoir,29.69350259,-94.37479699
TX,48071,Chambers,Cotton Lake,29.7983959,-94.80637419
TX,48071,Chambers,Dunn Bayou,29.7797809387463,-94.7758830456034
TX,48071,Chambers,Dunn Lake,29.78489548,-94.7717226
TX,48071,Chambers,Kole Reservoir,29.63474736,-94.40952214
TX,48071,Chambers,Lake Anahuac,29.80255871,-94.68429254
TX,48071,Chambers,Lake Charlotte,29.86806096,-94.72558994
TX,48071,Chambers,Lake Stephenson,29.58123723,-94.66123175
TX,48071,Chambers,Lake Surprise,29.55346223,-94.68044987
TX,48071,Chambers,Lawrence Lakes,29.79961336,-94.75912458
TX,48071,Chambers,Lost Lake,29.85698704,-94.78388215
TX,48071,Chambers,Marshall Estate Lake Number 1,29.76368918,-94.38365855
TX,48071,Chambers,Marshall Estate Lake Number 2,29.75130864,-94.36896945
TX,48071,Chambers,Mayes Lake,29.82797046,-94.76810249
TX,48071,Chambers,Mesquite Pond,29.79492938,-94.78220895
TX,48071,Chambers,Mud Lake,29.85535001,-94.72100185
TX,48071,Chambers,North Reservoir,29.6143013463201,-94.4692057038184
TX,48071,Chambers,Peterson Lake,29.81074512,-94.74776534
TX,48071,Chambers,Robinson Lake,29.58468139,-94.59695514
TX,48071,Chambers,Round Lake,29.81801406,-94.76991159
TX,48071,Chambers,Shoveler Pond,29.6093547060874,-94.5516298513254
TX,48071,Chambers,Stanolind Reservoir,29.69653539,-94.38114703
TX,48071,Chambers,Wallis Lake,29.54828728,-94.70391018
TX,48071,Chambers,Wallisville Lake,29.80743828,-94.72850059
TX,48073,Cherokee,Barrons Lake,32.11535752,-95.03587106
TX,48073,Cherokee,Blackburn Pond,32.05488687,-95.43315865
TX,48073,Cherokee,Blue Lake,31.72133704,-94.96675662
TX,48073,Cherokee,Bog Lake,31.54180608,-95.13312367
TX,48073,Cherokee,Brock Lake,32.06613779,-95.23793898
TX,48073,Cherokee,Brown Lake,32.10590485,-95.35224235
TX,48073,Cherokee,Bushman's Lake,32.1216082055371,-95.2990516229228
TX,48073,Cherokee,Buzzard Slough,31.8648694,-95.42086561
TX,48073,Cherokee,Cary Lake,31.95712657,-95.43856166
TX,48073,Cherokee,Chain of Lakes,31.57764056,-95.23531672
TX,48073,Cherokee,Cherokee Lake,31.80260663,-95.19665211
TX,48073,Cherokee,City Lake,31.79761703,-95.13046472
TX,48073,Cherokee,Collard Lake,31.54194492,-95.13788502
TX,48073,Cherokee,Coon Pond,31.58175239,-95.21640555
TX,48073,Cherokee,Crysup Lake,32.02627879,-95.31264755
TX,48073,Cherokee,Dead Water Lake,31.87382105,-95.41996365
TX,48073,Cherokee,Decker Lake,31.64788363,-95.12968809
TX,48073,Cherokee,Dickey Lake,31.75625341,-95.15175634
TX,48073,Cherokee,Dublin Lake,31.98880527,-95.28919274
TX,48073,Cherokee,Duck Roost Lake,31.73188152,-94.9634996
TX,48073,Cherokee,Duren Lake,31.5788918,-95.14267639
TX,48073,Cherokee,Eagle Lake,31.559069,-94.90385037
TX,48073,Cherokee,Forman Lake,31.58568313,-95.15010993
TX,48073,Cherokee,Goldy Lake,32.07720252,-95.17506144
TX,48073,Cherokee,Grassy Lake,31.7198068,-94.96855553
TX,48073,Cherokee,Grassy Pond,31.5319924,-95.10151286
TX,48073,Cherokee,Hall Lake,32.08919783,-95.30616647
TX,48073,Cherokee,Henry Lake,31.96842998,-95.43315068
TX,48073,Cherokee,Holloway Lake,31.5432013308486,-95.0626083828477
TX,48073,Cherokee,Hollywood Lake,32.04409406,-95.25586988
TX,48073,Cherokee,Hurricane Lake,31.99852051,-95.44075788
TX,48073,Cherokee,Jacksonville Club Lake,31.9980129,-95.19912601
TX,48073,Cherokee,Jolly Lake,31.77823721,-94.96606851
TX,48073,Cherokee,Lake Acker,31.97580245,-95.29689471
TX,48073,Cherokee,Lake Jacksonville,31.91942048,-95.2951089
TX,48073,Cherokee,Lake Striker,31.96143928,-94.9897147
TX,48073,Cherokee,McPeak Springlake Ranch Lake,31.83568681,-95.18335465
TX,48073,Cherokee,Parks Lake,31.73452434,-95.17430134
TX,48073,Cherokee,Peacock Lake,31.95584246,-95.0749278
TX,48073,Cherokee,Pearman Lake,31.57882035,-95.22973224
TX,48073,Cherokee,Pine Crest Lake,31.95183092,-95.19661019
TX,48073,Cherokee,Pryor Lake,31.72973941,-95.20470668
TX,48073,Cherokee,Rusk City Lake,31.79990932,-95.12999056
TX,48073,Cherokee,Schoechler Lake,31.57673286,-95.24591373
TX,48073,Cherokee,Smith Lake,32.01607124,-95.23474599
TX,48073,Cherokee,Stafford Lake,31.88251073,-95.07673696
TX,48073,Cherokee,State Hospital Reservoir,31.81410343,-95.15436022
TX,48073,Cherokee,Stockton Lake,32.03531901,-95.17176994
TX,48073,Cherokee,Stovall Lake,31.76880501,-95.2189684
TX,48073,Cherokee,Tucker Lake,32.00209602,-95.42224393
TX,48073,Cherokee,Tulls Lake,31.99997153,-95.36593181
TX,48073,Cherokee,Turnbow Lake,31.93761252,-95.14732197
TX,48073,Cherokee,Upper Lake,31.51067376,-95.09387523
TX,48075,Childress,Baylor Lake,34.47181088,-100.37779736
TX,48075,Childress,Lake Childress,34.46917759,-100.35669025
TX,48075,Childress,Lake Scott,34.41320828,-100.21465503
TX,48075,Childress,Nippert Lake,34.42269643,-100.09439388
TX,48075,Childress,Park Lake,34.43277314,-100.20217204
TX,48075,Childress,Williams Reservoir,34.44657865,-100.32699535
TX,48077,Clay,Antelope Field Lake,33.48104601,-98.37874322
TX,48077,Clay,B and P Lake Number 2,33.81109644,-98.39003772
TX,48077,Clay,Berend Lake,33.63213838,-98.36879928
TX,48077,Clay,Burns Lake,33.5116779,-98.22409267
TX,48077,Clay,Byers City Reservoir,34.0745016,-98.19733191
TX,48077,Clay,Byers Lake,34.08957013,-98.26756472
TX,48077,Clay,Dickson Lake,33.71468706,-98.07502374
TX,48077,Clay,Dowdy Lake Number 1,33.88466827,-98.35398067
TX,48077,Clay,Dowdy Lake Number 2,33.87865263,-98.36110175
TX,48077,Clay,Edwards Lake,33.78631993,-98.11837975
TX,48077,Clay,Edwards Lake Number 2,33.81022144,-98.03732105
TX,48077,Clay,Edwards Lake Number 3,33.82124956,-98.05226582
TX,48077,Clay,Edwards Lake Number 4,33.83695144,-98.06516397
TX,48077,Clay,Edwards Lake Number 5,33.8182788,-98.0679697
TX,48077,Clay,Edwards Ranch Lake Number 1,33.85316706,-98.06592226
TX,48077,Clay,Edwards Ranch Lake Number 2,33.88169501,-98.05715699
TX,48077,Clay,Ferguson Lake,33.91255766,-98.35944548
TX,48077,Clay,Fields Lake,33.6970607,-98.23721267
TX,48077,Clay,Graf Lake,33.93236166,-98.17300926
TX,48077,Clay,Halsell Estate Lake,33.74916552,-98.31854681
TX,48077,Clay,Hapgood Lake,33.7149327,-98.06918033
TX,48077,Clay,Henrietta Lake,33.83235832,-98.1931771
TX,48077,Clay,Henrietta Reservoir 2,33.85123026,-98.18380705
TX,48077,Clay,Henry Lake,33.94318012,-98.40896175
TX,48077,Clay,Householder Lake,33.98076384,-98.25579052
TX,48077,Clay,Krottinger Lake,33.95940416,-98.36789215
TX,48077,Clay,Lake Arrowhead,33.70497453,-98.37976486
TX,48077,Clay,Lake Number 1,33.78511954,-98.40779582
TX,48077,Clay,Lively Lake,33.93380243,-98.1034989
TX,48077,Clay,Maddox Lake,33.95738521,-98.05464813
TX,48077,Clay,Near Pipeline Lake,33.679474,-98.15524344
TX,48077,Clay,Old Lake,33.76499146,-98.09725915
TX,48077,Clay,Parker Estate Lake,33.99218393,-98.41390734
TX,48077,Clay,Parker Lake Number 1,34.02945684,-98.18196072
TX,48077,Clay,Parker Lake Number 2,34.03886554,-98.17266076
TX,48077,Clay,Parker Lake Number 3,34.03908455,-98.16704073
TX,48077,Clay,Petrolia Field Lake,33.96413298,-98.23514638
TX,48077,Clay,Petrolia Lake Number 1,34.02750865,-98.25084085
TX,48077,Clay,Petrolia Lake Number 2,34.02619189,-98.25721837
TX,48077,Clay,Plaxco Lake,33.71972947,-97.99699265
TX,48077,Clay,School Land Lake,33.86960904,-98.37005228
TX,48077,Clay,Scott Lake,33.58382956,-98.12055861
TX,48077,Clay,Sloop Pond,33.78019102,-98.42198294
TX,48077,Clay,Soil Conservation Service Site 2 Reservoir,33.53168815,-98.0488621
TX,48077,Clay,Soil Conservation Service Site 4 Reservoir,33.52692807,-98.00543109
TX,48077,Clay,Soil Conservation Service Site 5a Reservoir,33.55019158,-97.9958213
TX,48077,Clay,Stephens Lake,33.64555267,-98.37060615
TX,48077,Clay,Three Island Lake,33.74403263,-98.39886589
TX,48077,Clay,Triangle T Lake Number 1,33.84792697,-98.35266766
TX,48077,Clay,Triangle T Lake Number Two,33.84085122,-98.35703137
TX,48077,Clay,W I Howard Lake,33.68870415,-98.32329402
TX,48077,Clay,Windthorst Lake,33.54221271,-98.39706843
TX,48081,Coke,Edward Rawling Lower Tank,31.91176872,-100.36786707
TX,48081,Coke,Edward Rawling Upper Tank,31.9143557,-100.36781733
TX,48081,Coke,Helfer Creek Tank,32.07968265,-100.81014996
TX,48081,Coke,Mountain Creek Reservoir,31.90085208,-100.47479252
TX,48081,Coke,Nan Hatty Tank,32.03708851,-100.80942021
TX,48081,Coke,Oak Creek Reservoir,32.0548739,-100.28581214
TX,48081,Coke,Oscar Tank,31.85470662,-100.50819139
TX,48081,Coke,Pyramid Tank,32.05678398,-100.80935627
TX,48081,Coke,Scudday Tank,32.03952176,-100.78681921
TX,48081,Coke,Soil Conservation Service Site 1 Reservoir,31.97841282,-100.37772435
TX,48081,Coke,Soil Conservation Service Site 4 Reservoir,32.00316721,-100.29851963
TX,48081,Coke,Soil Conservation Service Site 5 Reservoir,31.96049019,-100.29867341
TX,48081,Coke,W D Coleman Lake,31.84467171,-100.25725671
TX,48081,Coke,Wildcat Tank,31.82592501,-100.5261914
TX,48083,Coleman,Burkett Lake,32.00157385,-99.22946695
TX,48083,Coleman,C E Kingsbery Lake,31.65279058,-99.30047766
TX,48083,Coleman,Coker Lake,31.97839899,-99.66798083
TX,48083,Coleman,Country Club Lake,31.77176719,-99.45398571
TX,48083,Coleman,Daniels Lake,31.98686912,-99.64607634
TX,48083,Coleman,Hords Creek Lake,31.83602302,-99.57367051
TX,48083,Coleman,Hudson Lake,32.02708705,-99.59384432
TX,48083,Coleman,Hunter Lake,31.80216436,-99.45508235
TX,48083,Coleman,Johnson Lake,31.53814705,-99.46075273
TX,48083,Coleman,Knox Lake Number 1,32.03889257,-99.36858887
TX,48083,Coleman,Knox Lake Number 2,32.03218553,-99.34789596
TX,48083,Coleman,Knox Lake Number 3,32.01935615,-99.33235321
TX,48083,Coleman,Lake Coleman,32.0369991,-99.49873901
TX,48083,Coleman,Lake San Tana,31.76833691,-99.28991427
TX,48083,Coleman,Lake Scarborough,31.89248269,-99.44857713
TX,48083,Coleman,Lake Sealy,31.7768353,-99.28909297
TX,48083,Coleman,Leman Lake,31.48361735,-99.37926846
TX,48083,Coleman,Novice City Lake,31.98103118,-99.67809875
TX,48083,Coleman,Old City Lake,31.82131213,-99.44362969
TX,48083,Coleman,Santa Fe Lake,31.89793202,-99.52415542
TX,48083,Coleman,Shield Lake 7b,31.71337471,-99.41424341
TX,48083,Coleman,Soil Conservation Service Site 1 Reservoir,31.59362182,-99.27648359
TX,48083,Coleman,Soil Conservation Service Site 10a Reservoir,31.65142339,-99.22729412
TX,48083,Coleman,Soil Conservation Service Site 12c Reservoir,32.05558662,-99.6488854
TX,48083,Coleman,Soil Conservation Service Site 12e1 Reservoir,32.00249196,-99.65475208
TX,48083,Coleman,Soil Conservation Service Site 17 Reservoir,31.6175771,-99.38824771
TX,48083,Coleman,Soil Conservation Service Site 21 Reservoir,31.50249776,-99.33866527
TX,48083,Coleman,Soil Conservation Service Site 23 Reservoir,31.99598144,-99.45900779
TX,48083,Coleman,Soil Conservation Service Site 25 Reservoir,31.91060632,-99.35540826
TX,48083,Coleman,Soil Conservation Service Site 25a Reservoir,31.91114861,-99.47663835
TX,48083,Coleman,Soil Conservation Service Site 25b Reservoir,31.90012133,-99.44464609
TX,48083,Coleman,Soil Conservation Service Site 27 Reservoir,31.82698779,-99.23393543
TX,48083,Coleman,Soil Conservation Service Site 28 Reservoir,31.8007359,-99.26619161
TX,48083,Coleman,Soil Conservation Service Site 31 Reservoir,31.8612019,-99.33186918
TX,48083,Coleman,Soil Conservation Service Site 32 Reservoir,31.86672148,-99.36911009
TX,48083,Coleman,Soil Conservation Service Site 33 Reservoir,31.89625398,-99.53970702
TX,48083,Coleman,Soil Conservation Service Site 34a Reservoir,31.90982307,-99.54102396
TX,48083,Coleman,Soil Conservation Service Site 35 Reservoir,31.88086638,-99.53884726
TX,48083,Coleman,Soil Conservation Service Site 36 Reservoir,31.87057942,-99.51902747
TX,48083,Coleman,Soil Conservation Service Site 37 Reservoir,31.89338139,-99.64435629
TX,48083,Coleman,Soil Conservation Service Site 6a Reservoir,31.76185465,-99.44349834
TX,48083,Coleman,Soil Conservation Service Site 7a Reservoir,31.72041762,-99.41403824
TX,48083,Coleman,Talpa City Lake,31.75719828,-99.70644594
TX,48083,Coleman,Taylor Brothers Lake,31.8204202673471,-99.4858698776696
TX,48085,Collin,Bell Lake,33.07608,-96.40120569
TX,48085,Collin,Bethany Lakes (Northeast),33.0887421290456,-96.6422383475395
TX,48085,Collin,Bethany Lakes (Northwest),33.0880544115452,-96.643796985896
TX,48085,Collin,Bethany Lakes (Southeast),33.0864281069725,-96.6435113154295
TX,48085,Collin,Big Lake,33.0476460942381,-96.7254064654709
TX,48085,Collin,Box Lake,33.1546119668447,-96.7921888635254
TX,48085,Collin,Boyd Lake,33.0109878712112,-96.3937606810821
TX,48085,Collin,Bozman Farms Pond,32.9997001623283,-96.5189892690839
TX,48085,Collin,Bullfrog Pond,33.1609186131272,-96.6197327772248
TX,48085,Collin,Caldwell Lake,33.2162528585852,-96.8136779125226
TX,48085,Collin,Emerson Lake,32.99257216,-96.41391977
TX,48085,Collin,La Cima Lake,33.223685497359,-96.7851561254753
TX,48085,Collin,Lago Grande,33.0759093,-96.56726061
TX,48085,Collin,Lavon Lake,33.07361876,-96.47982497
TX,48085,Collin,Lewis Lake,33.24493843,-96.46982097
TX,48085,Collin,Monroe Lake,33.04991085,-96.57480069
TX,48085,Collin,Moores Lake,33.00865248,-96.40969537
TX,48085,Collin,Muddy Creek Reservoir,33.01932767,-96.57759758
TX,48085,Collin,North Lake,33.15229956,-96.34876983
TX,48085,Collin,Pierce Pond,33.19172484,-96.4908658
TX,48085,Collin,Preston Lakes,33.1445458309223,-96.7807587867399
TX,48085,Collin,Reed Lake,33.3088547,-96.32702494
TX,48085,Collin,Reservoir Number Eleven,33.27487368,-96.49518151
TX,48085,Collin,Reservoir Number Ten,33.2861145,-96.49286421
TX,48085,Collin,Sands Lake,32.98411789,-96.41051325
TX,48085,Collin,Shirley Phillips Mead Lake,33.03885662,-96.80040403
TX,48085,Collin,Sies Lagos Number 5,33.07607003,-96.56108623
TX,48085,Collin,Soil Conservation Service Site 10-A Reservoir,33.25269556,-96.75331011
TX,48085,Collin,Soil Conservation Service Site 10 Reservoir,33.32018855,-96.67869589
TX,48085,Collin,Soil Conservation Service Site 11 Reservoir,33.3019754559686,-96.6929610665943
TX,48085,Collin,Soil Conservation Service Site 13 Reservoir,33.28875805,-96.67709187
TX,48085,Collin,Soil Conservation Service Site 16 Reservoir,33.26625148,-96.66229063
TX,48085,Collin,Soil Conservation Service Site 18a Reservoir,33.3465042523479,-96.7670456756612
TX,48085,Collin,Soil Conservation Service Site 19 Reservoir,33.3285731916795,-96.8324330832289
TX,48085,Collin,Soil Conservation Service Site 1a Reservoir,33.2253669,-96.72088823
TX,48085,Collin,Soil Conservation Service Site 1b Reservoir,33.22100732,-96.74975047
TX,48085,Collin,Soil Conservation Service Site 1c Reservoir,33.23876547,-96.75900991
TX,48085,Collin,Soil Conservation Service Site 2 Reservoir,33.393514142019,-96.5049187539616
TX,48085,Collin,Soil Conservation Service Site 20 Reservoir,33.3115849242704,-96.835045795105
TX,48085,Collin,Soil Conservation Service Site 24 Reservoir,33.21915466,-96.57814875
TX,48085,Collin,Soil Conservation Service Site 28 Reservoir,33.26974117,-96.4491389
TX,48085,Collin,Soil Conservation Service Site 29 Reservoir,33.39012036,-96.67398924
TX,48085,Collin,Soil Conservation Service Site 29a Reservoir,33.38037148,-96.65461449
TX,48085,Collin,Soil Conservation Service Site 2a Reservoir,33.25503666,-96.70876476
TX,48085,Collin,Soil Conservation Service Site 2b Reservoir,33.22861339,-96.68464613
TX,48085,Collin,Soil Conservation Service Site 3 Reservoir,33.3859232586591,-96.4953014481773
TX,48085,Collin,Soil Conservation Service Site 30 Reservoir,33.3896089,-96.64562286
TX,48085,Collin,Soil Conservation Service Site 31 Reservoir,33.37174138,-96.65191459
TX,48085,Collin,Soil Conservation Service Site 32 Reservoir,33.35542024,-96.65147292
TX,48085,Collin,Soil Conservation Service Site 32a Reservoir,33.35205994,-96.62678039
TX,48085,Collin,Soil Conservation Service Site 33 Reservoir,33.34946075,-96.38926049
TX,48085,Collin,Soil Conservation Service Site 34 Reservoir,33.3092146049453,-96.6281926247496
TX,48085,Collin,Soil Conservation Service Site 3a Reservoir,33.1994901,-96.71986135
TX,48085,Collin,Soil Conservation Service Site 3b Reservoir,33.19362507,-96.70354133
TX,48085,Collin,Soil Conservation Service Site 3c Reservoir,33.19337241,-96.67841306
TX,48085,Collin,Soil Conservation Service Site 3d Reservoir,33.18920608,-96.66769796
TX,48085,Collin,Soil Conservation Service Site 3e Reservoir,33.18802724,-96.65771112
TX,48085,Collin,Soil Conservation Service Site 42 Reservoir,33.39010963,-96.58587794
TX,48085,Collin,Soil Conservation Service Site 43 Reservoir,33.37881663,-96.59437229
TX,48085,Collin,Soil Conservation Service Site 44 Reservoir,33.3633458,-96.5962395
TX,48085,Collin,Soil Conservation Service Site 45 Reservoir,33.35141268,-96.59976419
TX,48085,Collin,Soil Conservation Service Site 46 Reservoir,33.33419123,-96.56310629
TX,48085,Collin,Soil Conservation Service Site 47 Reservoir,33.32525025,-96.58503056
TX,48085,Collin,Soil Conservation Service Site 49 Reservoir,33.33453979,-96.31791202
TX,48085,Collin,Soil Conservation Service Site 50 Reservoir,33.33042585,-96.32198765
TX,48085,Collin,Soil Conservation Service Site 53 Reservoir,33.23398115,-96.58000711
TX,48085,Collin,Soil Conservation Service Site 5a Reservoir,33.18173376,-96.64451596
TX,48085,Collin,Soil Conservation Service Site 6 Reservoir,33.3726780976488,-96.524715696932
TX,48085,Collin,Soil Conservation Service Site 70 Reservoir,33.26078792,-96.29960006
TX,48085,Collin,Soil Conservation Service Site 71 Reservoir,33.25631386,-96.3066989
TX,48085,Collin,Soil Conservation Service Site 73 Reservoir,33.23761258,-96.31678021
TX,48085,Collin,Soil Conservation Service Site 75 Reservoir,33.21577992,-96.33365458
TX,48085,Collin,Soil Conservation Service Site 76 Reservoir,33.22297219,-96.33110858
TX,48085,Collin,Soil Conservation Service Site 77 Reservoir,33.22974778,-96.34579245
TX,48085,Collin,Soil Conservation Service Site 79 Reservoir,33.19621838,-96.36210185
TX,48085,Collin,Soil Conservation Service Site 8 Reservoir,33.352341,-96.50672392
TX,48085,Collin,Soil Conservation Service Site 80 Reservoir,33.18961142,-96.36350432
TX,48085,Collin,Soil Conservation Service Site 85a Reservoir,33.1187372,-96.36993478
TX,48085,Collin,Soil Conservation Service Site 85b Reservoir,33.12225411,-96.36229814
TX,48085,Collin,Soil Conservation Service Site 8a Reservoir,33.33011102,-96.70974451
TX,48085,Collin,Soil Conservation Service Site 8b Reservoir,33.3994547637741,-96.7544945262014
TX,48085,Collin,Soil Conservation Service Site 8b1 Reservoir,33.35248552,-96.72477274
TX,48085,Collin,Soil Conservation Service Site 8c Reservoir,33.36805219,-96.72732393
TX,48085,Collin,Soil Conservation Service Site 8d Reservoir,33.36727893,-96.6999424
TX,48085,Collin,Soil Conservation Service Site 8e Reservoir,33.35206937,-96.69617273
TX,48085,Collin,Soil Conservation Service Site 8f Reservoir,33.34045476,-96.68514011
TX,48085,Collin,Soil Conservation Service Site 8g Reservoir,33.38766588,-96.72276333
TX,48085,Collin,Soil Conservation Service Site 8h Reservoir,33.36915364,-96.70757444
TX,48085,Collin,South Lake,33.1388948,-96.34718329
TX,48085,Collin,Tatum Lake,33.17511522,-96.35026184
TX,48085,Collin,Timber Preserve Pond,33.00586722761,-96.6031762402513
TX,48085,Collin,Towne Lake,33.1850936214877,-96.6350151041765
TX,48085,Collin,Vial Lake,33.17257479,-96.81322826
TX,48085,Collin,Willow Bend Lake Number 1,33.03325936,-96.80172937
TX,48085,Collin,Willow Bend Lake Number 2,33.03786926,-96.80644657
TX,48085,Collin,Willow Ridge Fishing Pond,33.2331211707779,-96.7887757486052
TX,48085,Collin,Willow Ridge Lake,33.2226571551299,-96.7902441618371
TX,48087,Collingsworth,Cason Lake,34.91948802,-100.17210237
TX,48087,Collingsworth,Club Lake,34.79013628,-100.5127675
TX,48087,Collingsworth,Evans Lake,34.75949808,-100.52747366
TX,48087,Collingsworth,McIntosh Lake,34.90408606,-100.48466196
TX,48089,Colorado,Bailey Lake,29.77690919,-96.45883897
TX,48089,Colorado,Black Lake,29.54793871,-96.62337396
TX,48089,Colorado,Crooked Creek Lake,29.52354452,-96.66242791
TX,48089,Colorado,Cullen Lake,29.80639329,-96.61339074
TX,48089,Colorado,Eagle Lake,29.56779165,-96.34356486
TX,48089,Colorado,Engstrom Lake Number 1,29.38967385,-96.5056313
TX,48089,Colorado,Engstrom Lake Number 2,29.38220099,-96.4918563
TX,48089,Colorado,Glasscock Lake,29.6208128299035,-96.5811272774242
TX,48089,Colorado,Heller Lake,29.53388051,-96.44014534
TX,48089,Colorado,Hurvey Lake Number 1,29.7579979,-96.35783917
TX,48089,Colorado,Hurvey Lake Number 2,29.75282412,-96.36072001
TX,48089,Colorado,Lake Shalom,29.8101826192332,-96.6675125116944
TX,48089,Colorado,Lower Lake,29.55304847,-96.33898307
TX,48089,Colorado,Miller Lake,29.66723198,-96.5015626
TX,48089,Colorado,Muddy Lake,29.5432874,-96.45916428
TX,48089,Colorado,Prairie Lake,29.60519341,-96.55664585
TX,48089,Colorado,Rees Reservoir,29.44452082,-96.4713637
TX,48089,Colorado,Refuge Lake,29.67470915,-96.27015593
TX,48089,Colorado,Scott Lake,29.52605371,-96.73037716
TX,48091,Comal,Canyon Lake,29.88672035,-98.25041485
TX,48091,Comal,Haley Tank,29.76778123,-98.07731351
TX,48091,Comal,Homestead Entrance Pond,29.6345545699224,-98.2181099050694
TX,48091,Comal,Krause Lake,29.83673917,-98.3200567
TX,48091,Comal,Lake Petit,29.8727396080193,-98.2925339035068
TX,48091,Comal,Shaeferkoeter Lake 1,29.9470208853006,-98.3998743979585
TX,48091,Comal,Shaeferkoeter Lake 2,29.94538952,-98.40296019
TX,48091,Comal,Soil Conservation Service Site 2 Reservoir,29.81956533,-98.03274973
TX,48091,Comal,Spring Fed Pool,29.7114052368425,-98.1337900777599
TX,48091,Comal,villas pool,29.8062916923119,-98.4236257368342
TX,48091,Comal,Watering Hole,29.803031913738,-98.3956795775783
TX,48091,Comal,West Point-Pepperell Lake,29.69933532,-98.10726756
TX,48093,Comanche,A G Lee Lake,32.09715716,-98.58495201
TX,48093,Comanche,A T Gilchrest Lake,32.04435839,-98.73313448
TX,48093,Comanche,Ardean Kimmell Reservoir Number 2,32.15721649,-98.50404452
TX,48093,Comanche,Arvil Setzler Lake,32.21124314,-98.60135617
TX,48093,Comanche,Bean Lake,31.81120294,-98.62001968
TX,48093,Comanche,Bingham Brothers Lake,31.89514992,-98.50651132
TX,48093,Comanche,Bingham Lake,32.07545589,-98.72412444
TX,48093,Comanche,Charles Taylor Reservoir,32.04760185,-98.63728376
TX,48093,Comanche,Davis Lake,32.14128685,-98.65814164
TX,48093,Comanche,Donald A Nowlin Reservoir,32.083248,-98.68468633
TX,48093,Comanche,Dutton Lake,32.0772715,-98.74330275
TX,48093,Comanche,E J Alderman Lake,31.99911743,-98.56751045
TX,48093,Comanche,Eisenrich and Waldron Lake,32.15365551,-98.6149144
TX,48093,Comanche,Gilder Lake,32.18865521,-98.56037273
TX,48093,Comanche,Glover Lake,32.13227157,-98.60788072
TX,48093,Comanche,Golden Lake,32.08984746,-98.57651288
TX,48093,Comanche,Hardin Number 2 Lake,32.20263342,-98.59177167
TX,48093,Comanche,Highway Lake,32.04844589,-98.82952111
TX,48093,Comanche,Holland Lake,32.25049668,-98.57126815
TX,48093,Comanche,Huddleston Dam A Lake,32.0880277,-98.70169307
TX,48093,Comanche,Jerry Solomon Lake,32.03964319,-98.56648148
TX,48093,Comanche,Johnny Poynor Lake,32.02314143,-98.6367777
TX,48093,Comanche,Keith Reservoir,32.09960403,-98.70543907
TX,48093,Comanche,Koonce Lake 1,32.21912785,-98.55580122
TX,48093,Comanche,Koonce Lake 2,32.22213279,-98.55744261
TX,48093,Comanche,L M Whitely Lake,31.78876916,-98.47237889
TX,48093,Comanche,Lake Comanche,31.82490371,-98.58422054
TX,48093,Comanche,Lake Eanes,31.85278589,-98.62262984
TX,48093,Comanche,Lake Hanson,32.1711747,-98.50287583
TX,48093,Comanche,Lake Hanson-Taylor,32.18490431,-98.51510011
TX,48093,Comanche,Lesley Lake Number 2,32.00054602,-98.5411866
TX,48093,Comanche,McGinnis Lake,32.0387914,-98.5496082
TX,48093,Comanche,McGuire Lake,31.9628466,-98.57292943
TX,48093,Comanche,Nabors Lake,32.12481282,-98.60005977
TX,48093,Comanche,Nichols Lake,32.01017486,-98.6418923
TX,48093,Comanche,North Gibson Lake,32.08392427,-98.76748262
TX,48093,Comanche,Pino Lake,32.17023425,-98.67426223
TX,48093,Comanche,Railroad Lake,32.098925,-98.82386179
TX,48093,Comanche,Setzler Lake,32.15958634,-98.54973026
TX,48093,Comanche,Shults Lake,32.07369296,-98.86697142
TX,48093,Comanche,Skaggs Lake,32.05242099,-98.58144863
TX,48093,Comanche,Soil Conservation Service Site 1 Reservoir,32.0887706,-98.86293674
TX,48093,Comanche,Soil Conservation Service Site 10 Reservoir,31.92900266,-98.77738857
TX,48093,Comanche,Soil Conservation Service Site 11 Reservoir,31.90505818,-98.7745694
TX,48093,Comanche,Soil Conservation Service Site 12 Reservoir,31.78808973,-98.71303501
TX,48093,Comanche,Soil Conservation Service Site 2-A Reservoir,31.8532005,-98.76121766
TX,48093,Comanche,Soil Conservation Service Site 2 Reservoir,32.08410761,-98.82668111
TX,48093,Comanche,Soil Conservation Service Site 21 Reservoir,31.95888317,-98.28419245
TX,48093,Comanche,Soil Conservation Service Site 22 Reservoir,31.95262926,-98.27075433
TX,48093,Comanche,Soil Conservation Service Site 23 Reservoir,31.93201509,-98.26252883
TX,48093,Comanche,Soil Conservation Service Site 4 Reservoir,32.06720626,-98.74765722
TX,48093,Comanche,Soil Conservation Service Site 5 Reservoir,32.08283584,-98.70576115
TX,48093,Comanche,Soil Conservation Service Site 7 Reservoir,31.97951815,-98.8257814
TX,48093,Comanche,Soil Conservation Service Site 9 Reservoir,32.02081203,-98.66492818
TX,48093,Comanche,South Gibson Lake,32.06730892,-98.76642021
TX,48093,Comanche,Spruill Lake Number 1,32.11170529,-98.61009629
TX,48093,Comanche,Spruill Lake Number 2,32.11787006,-98.6175382
TX,48093,Comanche,Thiebaud Lake,31.9085064,-98.51686104
TX,48093,Comanche,W E Dennis Reservoir,32.14838585,-98.66697279
TX,48093,Comanche,Weatherby and Womack Lake,32.00676727,-98.69333947
TX,48093,Comanche,Welch Lake,32.04409001,-98.68568655
TX,48093,Comanche,Willis Lake,31.76221565,-98.69016403
TX,48093,Comanche,Wolfe Pecanlands Lake Number 1,32.07687243,-98.6796384
TX,48095,Concho,Allison Lake,31.51792569,-99.97750384
TX,48095,Concho,Chandler Lake,31.514285,-100.01587607
TX,48095,Concho,Concho County WCID 1 Lake,31.51221698,-99.91163242
TX,48095,Concho,Lockett Lake,31.10512146,-99.70228037
TX,48095,Concho,O. H. Ivie Reservoir,31.54291494,-99.6796823
TX,48095,Concho,Sims Lake,31.52758402,-99.97958378
TX,48095,Concho,Soil Conservation Service Site 1 Reservoir,31.30988226,-99.70973028
TX,48095,Concho,Soil Conservation Service Site 10 Reservoir,31.43602581,-99.77866577
TX,48095,Concho,Soil Conservation Service Site 16 Reservoir,31.12133114,-99.6055941
TX,48095,Concho,Soil Conservation Service Site 19 Reservoir,31.09246997,-99.68891111
TX,48095,Concho,Soil Conservation Service Site 2 Reservoir,31.32758662,-99.76323365
TX,48095,Concho,Soil Conservation Service Site 20 Reservoir,31.12577733,-99.75267517
TX,48095,Concho,Soil Conservation Service Site 21 Reservoir,31.20116991,-99.72688708
TX,48095,Concho,Soil Conservation Service Site 22 Reservoir,31.17182572,-99.76248017
TX,48095,Concho,Soil Conservation Service Site 24 Reservoir,31.17721978,-99.81616966
TX,48095,Concho,Soil Conservation Service Site 25 Reservoir,31.16978977,-99.82684608
TX,48095,Concho,Soil Conservation Service Site 26 Reservoir,31.11922593,-99.82813735
TX,48095,Concho,Soil Conservation Service Site 27 Reservoir,31.13321845,-99.84939745
TX,48095,Concho,Soil Conservation Service Site 28 Reservoir,31.1433496,-99.87861507
TX,48095,Concho,Soil Conservation Service Site 29 Reservoir,31.11856723,-99.95366047
TX,48095,Concho,Soil Conservation Service Site 3 Reservoir,31.35995151,-99.74767651
TX,48095,Concho,Soil Conservation Service Site 30 Reservoir,31.15239436,-99.96772728
TX,48095,Concho,Soil Conservation Service Site 31 Reservoir,31.1690622,-99.97823489
TX,48095,Concho,Soil Conservation Service Site 32 Reservoir,31.19572169,-99.93442842
TX,48095,Concho,Soil Conservation Service Site 33 Reservoir,31.22791982,-99.89097677
TX,48095,Concho,Soil Conservation Service Site 34 Reservoir,31.24798719,-99.87292882
TX,48095,Concho,Soil Conservation Service Site 35 Reservoir,31.22863759,-99.81890122
TX,48095,Concho,Soil Conservation Service Site 36 Reservoir,31.27433732,-99.7954877
TX,48095,Concho,Soil Conservation Service Site 37 Reservoir,31.25233439,-99.77709126
TX,48095,Concho,Soil Conservation Service Site 38 Reservoir,31.24913847,-99.74166587
TX,48095,Concho,Soil Conservation Service Site 4 Reservoir,31.36912177,-99.76145266
TX,48095,Concho,Soil Conservation Service Site 5-1 Reservoir,31.35189243,-99.80847324
TX,48095,Concho,Soil Conservation Service Site 5-2 Reservoir,31.34981235,-99.79422564
TX,48095,Concho,Soil Conservation Service Site 6 Reservoir,31.3522557,-99.83053912
TX,48095,Concho,Soil Conservation Service Site 7 Reservoir,31.37508432,-99.8371285
TX,48097,Cooke,B and L Ranch Lake,33.49711692,-96.95871277
TX,48097,Cooke,Bing Lake,33.72325735,-96.96055144
TX,48097,Cooke,Collums Lake,33.78301704,-96.9597311
TX,48097,Cooke,Hubert M Moss Lake,33.76736411,-97.23118434
TX,48097,Cooke,Lake Dealey,33.66836831,-97.01542621
TX,48097,Cooke,Lake Kiowa,33.56654695,-97.01176123
TX,48097,Cooke,Lake Kirby,33.4848298180609,-97.4776813165877
TX,48097,Cooke,Ray Roberts Lake,33.420632713647,-97.0342242924695
TX,48097,Cooke,Sarles Lake,33.58128271,-97.15050434
TX,48097,Cooke,Soil Conservation Service Site 15 Reservoir,33.5842843551927,-97.4855404371134
TX,48097,Cooke,Soil Conservation Service Site 34 Reservoir,33.4705378601972,-97.4422928960952
TX,48097,Cooke,Soil Conservation Service Site 36 Reservoir,33.4481289768503,-97.403889606437
TX,48097,Cooke,Soil Conservation Service Site 47 Reservoir,33.4457766455393,-97.332460715544
TX,48097,Cooke,Soil Conservation Service Site 61t Reservoir,33.471393623919,-97.0932891924266
TX,48097,Cooke,Soil Conservation Service Site 61u Reservoir,33.4649721592918,-97.0965542120292
TX,48097,Cooke,Soil Conservation Service Site 61v Reservoir,33.4563164168044,-97.0953109045073
TX,48097,Cooke,Soil Conservation Service Site 61w Reservoir,33.4488832953205,-97.0964875844608
TX,48097,Cooke,Soil Conservation Service Site 6b Reservoir,33.6526526591519,-97.3818400806263
TX,48097,Cooke,Soil Conservation Service Site 6e Reservoir,33.68269889689,-97.4120487069172
TX,48097,Cooke,Soil Conservation Service Site Number 18 Reservoir,33.4856245783349,-97.0883333825984
TX,48097,Cooke,Tipps Lake,33.4797777204872,-97.1194270077928
TX,48099,Coryell,Anchor Lake,31.42445587,-97.79360371
TX,48099,Coryell,Blue Watch Lake,31.1045579,-97.86476672
TX,48099,Coryell,Bluestem Estate Lake,31.19762489,-97.93062681
TX,48099,Coryell,Central Texas College Duck Pond,31.1209610569481,-97.8090688434477
TX,48099,Coryell,Copperas Cove Lake Number 2,31.14967158,-97.85336149
TX,48099,Coryell,Copperas Cove Lake Number 3,31.14446268,-97.86381081
TX,48099,Coryell,Hempel Lake,31.19684114,-97.90810188
TX,48099,Coryell,Henson Lake,31.33260892,-97.82549165
TX,48099,Coryell,Hubbard Lake,31.2648664030875,-97.669353432664
TX,48099,Coryell,Ironhorse Park Lake,31.35321791,-97.79210802
TX,48099,Coryell,J P Brocksch Lake,31.57390118,-97.8981702
TX,48099,Coryell,Kids Pond,31.124522806129,-97.8118307565089
TX,48099,Coryell,Lake Henry,31.15798919,-97.79678554
TX,48099,Coryell,Lepomis Pond,31.0998124701011,-97.8593716656756
TX,48099,Coryell,Peni-Bilt Lake,31.38812558,-97.74501712
TX,48099,Coryell,Starnes Lake Number One,31.1935399,-97.87702547
TX,48099,Coryell,Starnes Lake Number Two,31.1876831,-97.87563802
TX,48099,Coryell,Walker Lake,31.46985669,-97.77597546
TX,48099,Coryell,Woodward Lake Number 1,31.21204453,-97.93534656
TX,48099,Coryell,Woodward Lake Number 2,31.21503059,-97.91897949
TX,48101,Cottle,Beef Pasture Tank,34.0239502,-100.07784263
TX,48101,Cottle,Charley Hart Tank,34.03066353,-100.06314148
TX,48101,Cottle,Cow Hollow Trap,34.07589019,-100.50955109
TX,48101,Cottle,Dewees Tank,33.83880191,-100.49355238
TX,48101,Cottle,Groclose Lake,34.31216973,-100.36285243
TX,48101,Cottle,L V Worley Lake,33.94381258,-100.17188419
TX,48101,Cottle,Matador Tank,34.0706959,-100.06071317
TX,48101,Cottle,Paducah Golf Club Lake,34.00713949,-100.28100797
TX,48101,Cottle,Raggedy Tank,34.18881773,-100.47548678
TX,48101,Cottle,Red Hills Tank,34.0839385,-100.50095734
TX,48101,Cottle,Richards Lake,33.99022047,-100.29968059
TX,48101,Cottle,Rock Tank,34.06075433,-100.06129918
