st2,GEOID,NAME,lakename,lat,lon
MI,26023,Branch,Lake Michiana,41.7610724078563,-85.0650597726427
MI,26027,Cass,Coverdale Lake,41.7646932862715,-85.8225377580251
MI,26027,Cass,Indiana Lake,41.7606090290087,-85.8327680475455
MI,26021,Berrien,Davidson Lake,41.7604929317386,-86.5323518547575
MI,26023,Branch,Anderson Lake,41.7615492147988,-85.1802629505093
MI,26127,Oceana,Pentwater Lake,43.7703544298853,-86.4238210523476
MI,26093,Livingston,Whitmore Lake,42.4288332922541,-83.7526493880941
MI,26093,Livingston,Pickerel Lake,42.5191448537451,-83.7364682764722
MI,26093,Livingston,Woodruff Lake,42.5199112526825,-83.7285840828042
MI,26161,Washtenaw,Horseshoe Lake,42.4010294303161,-83.7561561635227
MI,26093,Livingston,Buck Lake,42.4589086626422,-83.8183259054529
MI,26161,Washtenaw,Nottingham Pond,42.4264568007336,-83.6113499855858
MI,26125,Oakland,Lake Angela,42.4857500779616,-83.6152874469545
MI,26161,Washtenaw,Baseline Lake,42.4247703742295,-83.8943820456729
MI,26093,Livingston,Gallagher Lake,42.4407980030956,-83.8649237541179
MI,26093,Livingston,Whitewood Lakes,42.4347402414182,-83.8758611291292
MI,26161,Washtenaw,Glacier Lake,42.3384975143101,-83.8324121056934
MI,26161,Washtenaw,Bridgeway Lake,42.3363698046758,-83.8230766266022
MI,26161,Washtenaw,Gallup Youth Fishing Pond,42.2729869000631,-83.6924976911629
MI,26163,Wayne,Washago Pond,42.1289570821186,-83.3729335662671
MI,26081,Kent,Fisk Lake,42.9561658898931,-85.6201144148054
MI,26089,Leelanau,Florence Lake,45.0099026683622,-86.1210969472217
MI,26161,Washtenaw,Second Sister Lake,42.2779675481634,-83.7971611410839
MI,26041,Delta,Camp 7 Lake,46.0571983151539,-86.5532799284781
MI,26153,Schoolcraft,Dodge Lake,46.1131234967924,-86.2689798094939
MI,26021,Berrien,Fernwood Pond,41.8652371195658,-86.3492255598659
MI,26161,Washtenaw,Pickerel Lake,42.4102390924146,-83.983126291967
MI,26099,Macomb,Clear Spring Lake,42.6717573076836,-83.0766148225707
MI,26099,Macomb,Twin Lake,42.6915011822905,-83.0733556595365
MI,26099,Macomb,Crystal Lake,42.6751576796014,-83.0908885018017
MI,26099,Macomb,Huntington Lake,42.6851939046707,-83.0845233108852
MI,26091,Lenawee,Globe Mill Pond,42.0068123092003,-83.9345347905782
MI,26091,Lenawee,Hidden Lake,42.0312628536061,-84.1099873742465
MI,26037,Clinton,Perch Lake,42.7957620059975,-84.4264205451439
MI,26041,Delta,South Lake,45.6339573809391,-87.2203448307562
MI,26099,Macomb,Sunderland Lake,42.691194998961,-83.0277373125385
MI,26099,Macomb,Lake Charme,42.6765503784233,-83.0863281275049
MI,26099,Macomb,Noc-Turne Lake,42.6780624140659,-83.0865646989058
MI,26125,Oakland,Carter Lake,42.6284283854795,-83.1043499784317
MI,26099,Macomb,South Golden Lake,42.6577391647032,-82.9984416159005
MI,26099,Macomb,Somerset Lake,42.6527308997663,-83.0078120331607
MI,26099,Macomb,Royal Lake,42.6528472963525,-83.0115025663269
MI,26099,Macomb,Forest Lake,42.6572315707687,-83.0239221287255
MI,26099,Macomb,Jewell Lake,42.6949855785345,-83.0170141242172
MI,26163,Wayne,Waterford Pond,42.415199944058,-83.4665673836158
MI,26163,Wayne,Blue Heron Lagoon,42.3468584366546,-82.9582999582561
MI,26065,Ingham,Timber Lake,42.7532982183297,-84.5057615637683
MI,26065,Ingham,Bear Lake,42.694544673213,-84.5074960489567
MI,26103,Marquette,Shiras Pool,46.5834403501407,-87.3857399998838
MI,26053,Gogebic,Pomeroy Lake,46.2772318041284,-89.5756382017625
MI,26071,Iron,Madelyn Lake,46.3575409623423,-88.9438705956384
MI,26061,Houghton,Fuller Lake,46.5872151776721,-88.7850983084291
MI,26053,Gogebic,Muskeg Lake,46.1929001259772,-89.0363549339388
MI,26061,Houghton,Pequet Lake,46.5279625283659,-88.6849927611221
MI,26071,Iron,Beaver Lake,46.0025429654087,-88.316849696428
MI,26013,Baraga,Bella Lake,46.7922832896896,-88.2579611939008
MI,26071,Iron,Snow Lake,46.325249070531,-88.6999643980924
MI,26061,Houghton,Penegor Lake,46.6150534180419,-88.8602459451405
MI,26061,Houghton,Bohmier Lake,46.8347191511235,-88.8794619953669
MI,26061,Houghton,Lake Eva,47.0192156269434,-88.7645326727611
MI,26013,Baraga,Sixmile Creek Pond,46.7192000345187,-88.5850274849058
MI,26053,Gogebic,Wellington Lake,46.3316090292006,-89.695079719358
MI,26071,Iron,Buddle Lake,46.3541058261935,-88.8119951315914
MI,26053,Gogebic,Black River Lake,46.3331091975442,-90.052785430862
MI,26071,Iron,Basswood Pond,46.1859468700368,-88.8664243354081
MI,26053,Gogebic,Lois Lake,46.1980767098165,-89.2501300222289
MI,26061,Houghton,Kentucky Lake,46.5726780305279,-88.7889037965064
MI,26053,Gogebic,Bobcat Lake,46.3563070703877,-89.6698925090377
MI,26053,Gogebic,Glen Lake,46.3086626793441,-89.7742568039034
MI,26053,Gogebic,Gallagher Lake,46.2821767475103,-89.1072618374333
MI,26053,Gogebic,Little Beatons Lake,46.3375066065212,-89.3726611230053
MI,26053,Gogebic,Tuesday Lake,46.2513499527772,-89.4975282772253
MI,26083,Keweenaw,Lake Addie,47.414153438278,-87.9122870691143
MI,26061,Houghton,Toivola Lakes,46.9871104532579,-88.8003166048506
MI,26083,Keweenaw,Lake Fanny Hooe,47.4640475990306,-87.86318784748
MI,26053,Gogebic,Bluegill Pond,46.2759019925745,-89.586500701733
MI,26061,Houghton,Bob Lake,46.6654027484448,-88.909153529494
MI,26061,Houghton,Hop Lake,46.5421936866841,-88.7619812106643
MI,26103,Marquette,McKenzie Bay,46.8014319912693,-87.7249792098983
MI,26061,Houghton,Markey Lake,46.5733555661175,-88.7825703889957
MI,26071,Iron,Jingle Lake,46.3971063568746,-88.7327372110814
MI,26053,Gogebic,Buck Lake,46.3206283359015,-89.1094041225976
MI,26053,Gogebic,Coyote Lake,46.3131819935441,-89.3043995994745
MI,26103,Marquette,Howe Lake,46.891139177871,-87.9496071810596
MI,26131,Ontonagon,Millet Pond,46.4152295691436,-89.0709151740494
MI,26083,Keweenaw,Long Lake,47.446180297859,-88.1833446193029
MI,26083,Keweenaw,Beaver Pond,47.3943044064434,-88.1810790201214
MI,26061,Houghton,Bender Lake,46.5921676231547,-88.8252378256916
MI,26071,Iron,Merrick Lake,45.9926307131372,-88.3448379804482
MI,26061,Houghton,Estes Lake,46.5586964645991,-88.7551651257304
MI,26013,Baraga,Lake Phillips,46.7145141096006,-88.0204050515744
MI,26071,Iron,Herbs Lake,46.3865975143818,-88.5912237050336
MI,26103,Marquette,Lake Independence,46.8058772549352,-87.6978233341455
MI,26053,Gogebic,Summit Lake,46.2568452156638,-89.6256976291918
MI,26053,Gogebic,Snowshoe Lake,46.2501023415032,-89.5845130029698
MI,26071,Iron,Stanley Lake,46.0588551740333,-88.7081438189956
MI,26061,Houghton,Walton Lake,46.4296238349343,-88.8762419760154
MI,26071,Iron,Tinsel Lake,46.361782336664,-88.9823495756548
MI,26053,Gogebic,Albino Lake,46.2616393564884,-89.2638923621465
MI,26053,Gogebic,Kinwamakwad Lake,46.2359071057596,-89.4991598411931
MI,26053,Gogebic,Pincherry Lake,46.2720817889929,-89.69867157892
MI,26053,Gogebic,Honeysuckle Lake,46.2711157644418,-89.7242882248495
MI,26131,Ontonagon,Barclay Pond,46.388208502431,-89.1347833427994
MI,26013,Baraga,Delene Lake,46.541227903353,-88.405936104197
MI,26071,Iron,Lake Mitigwaki,46.3429948864522,-88.9369815517864
MI,26071,Iron,Snipe Lake,46.0521516615476,-88.6947501199381
MI,26071,Iron,Shoe Pac Lake,46.146801125532,-88.3759820891671
MI,26103,Marquette,White Deer Lake,46.6762034362312,-88.0019603271128
MI,26103,Marquette,Canyon Lake,46.8331887690939,-87.9212617286319
MI,26013,Baraga,Saine Lake,46.4327496113136,-88.5414152262765
MI,26083,Keweenaw,Partridge Lake,47.4198803119288,-88.008020177862
MI,26103,Marquette,Harlow Lake,46.6268317300431,-87.490692221279
MI,26071,Iron,Syrup Lake,46.3974112347835,-88.8688188374279
MI,26053,Gogebic,Ross Lake,46.2604119962957,-89.3629092259297
MI,26071,Iron,Little Tamarack Lake,46.3003287985343,-88.7751737047486
MI,26071,Iron,Perch Lake,46.3622094885354,-88.6620473836697
MI,26013,Baraga,Ford Lake,46.6438305345452,-88.4749538528332
MI,26061,Houghton,Irish Lake,46.5661830864638,-88.7597931112641
MI,26061,Houghton,Prickett Lake,46.7049942645451,-88.6836758933432
MI,26053,Gogebic,Kvidera Lake,46.2326082866956,-89.16837005113
MI,26131,Ontonagon,Blair Lake,46.3496831561761,-89.3569194357097
MI,26083,Keweenaw,Lake Medora,47.4408973439279,-87.9818533486577
MI,26061,Houghton,Corbin Lake,46.5298425484528,-88.7621980277407
MI,26061,Houghton,Booth Lake,46.5348493121418,-88.7725099927924
MI,26053,Gogebic,Raven Lake,46.2610974496957,-89.2208811518759
MI,26053,Gogebic,Gaylord Lake,46.2777571241365,-89.6838090604522
MI,26053,Gogebic,Cyrus Lake,46.2469814061437,-89.6442230511784
MI,26083,Keweenaw,Gull Lake,47.4457072940981,-88.0319186725857
MI,26061,Houghton,Beller Pond,46.4327667040193,-88.8688335313032
MI,26053,Gogebic,Allen Lake,46.2242000545285,-89.1719103799125
MI,26053,Gogebic,Lake Audrey,46.2922621925608,-89.190458617042
MI,26053,Gogebic,Morris Lake,46.2573926595492,-89.5212789083458
MI,26061,Houghton,Obenhoff Lake,47.102529147172,-88.6814975014088
MI,26061,Houghton,Bush Lake,47.0098327181778,-88.7722252545425
MI,26083,Keweenaw,Bailey Pond,47.4366364073045,-88.0473967821294
MI,26071,Iron,Horn Lake,46.1026805756141,-88.8415987181376
MI,26083,Keweenaw,Lake Bailey,47.4582927747668,-88.0992638176392
MI,26103,Marquette,Silver Lake Basin,46.6587039716851,-87.8408224252812
MI,26103,Marquette,Carp River Lake,46.4929780951702,-87.4624353246391
MI,26071,Iron,Shank Lake,46.4037364326055,-88.3598026591516
MI,26053,Gogebic,Pelton Pond,46.3632170680185,-89.6285888916712
MI,26061,Houghton,Burns Lake,46.4999006772007,-88.7706770773062
MI,26071,Iron,Fox Farm Lake,46.4097375098085,-88.4799634866143
MI,26071,Iron,Homan Lake,46.124765844358,-88.8310606212636
MI,26071,Iron,Horseshoe Lake,46.0978004767101,-88.9081048636613
MI,26071,Iron,Dam Lake,46.0249182762778,-88.4529903259288
MI,26053,Gogebic,Stickley Lake,46.3121221285005,-89.3861837779769
MI,26053,Gogebic,Corssbill Lake,46.3234806081041,-89.3197415698844
MI,26131,Ontonagon,Paulding Pond,46.3853386734679,-89.1734990187753
MI,26071,Iron,Roost Lake,46.3644046586487,-88.8788819873416
MI,26053,Gogebic,Corey Lake,46.2318720237596,-89.2974220954627
MI,26053,Gogebic,Slope Lake,46.2668036819106,-89.1154657494245
MI,26053,Gogebic,Liluis Lake,46.2316372828132,-89.2650131739102
MI,26061,Houghton,Tear Lake,47.2068021534733,-88.6649999798431
MI,26071,Iron,Chuck Lake,46.3189976735179,-88.6630716255155
MI,26103,Marquette,McClure Storage Basin,46.5575018538593,-87.5317800904603
MI,26061,Houghton,Moonshine Lake,46.5491940648329,-88.7475740733797
MI,26061,Houghton,Lake Ongie,46.9675854685785,-88.7856977392946
MI,26053,Gogebic,Powwow Lake,46.2434771682048,-89.1200242085871
MI,26061,Houghton,Swedetown Pond,47.2381470567758,-88.4604984705385
MI,26103,Marquette,Rush Lake,46.8874754975582,-87.9125847069458
MI,26131,Ontonagon,Moll Lake,46.4207300936749,-89.0332563627218
MI,26053,Gogebic,Sucker Lake,46.3063528814693,-89.2502934249381
MI,26053,Gogebic,Beatons Lake,46.3281072251468,-89.3634200191324
MI,26053,Gogebic,Sun Dance Lake,46.3584752375156,-89.6454739473019
MI,26053,Gogebic,Schneider Lake,46.2497968466445,-89.1350951024588
MI,26053,Gogebic,Chickadee Lake,46.2313546230846,-89.22403205347
MI,26053,Gogebic,Little Duck Lake,46.2264810929987,-89.2277571777576
MI,26071,Iron,Ice Lake,46.1009358893909,-88.6147770524056
MI,26071,Iron,Skyline Lake,46.3562942356834,-88.9490002100828
MI,26131,Ontonagon,Beaver Lake,46.6990300526115,-89.8143141197983
MI,26053,Gogebic,Image Lake,46.2597423666265,-89.6888010374228
MI,26053,Gogebic,Little Pomeroy Lake,46.2692371175458,-89.5705932083255
MI,26071,Iron,Gadwall Lake,46.0996930540344,-88.8620916640533
MI,26053,Gogebic,Winterberry Lake,46.2949723566776,-89.2698947279225
MI,26053,Gogebic,Presque Isle River Flooding,46.3359233884192,-89.7288381155862
MI,26071,Iron,McPherson Lake,46.3733856993254,-88.9560578731169
MI,26061,Houghton,Pine Dam Lake,46.9196440329293,-88.9020022226795
MI,26071,Iron,Murphy Lake,46.3419828793406,-88.8164330657588
MI,26053,Gogebic,Rickles Lake,46.249294931249,-89.2113095017064
MI,26053,Gogebic,Porcupine Lake,46.2581238121208,-89.239775547914
MI,26053,Gogebic,Trail Lake,46.2475356923016,-89.2313920286283
MI,26061,Houghton,High Lake,46.5030587057604,-88.7417829782222
MI,26053,Gogebic,Cowslip Lake,46.2892498525556,-89.3116402800747
MI,26013,Baraga,Coontail Lake,46.4946024539926,-88.635640282982
MI,26071,Iron,Grieg Lake,46.0539308233738,-88.7587404444404
MI,26071,Iron,Little Pickerel Lake,46.3883145998966,-88.4126525645358
MI,26053,Gogebic,Miller Lake,46.3353355874657,-89.6965623461935
MI,26103,Marquette,Dutch Johns Pond,46.8417384490116,-87.7839904382994
MI,26053,Gogebic,Foxpaw Lake,46.309674201411,-89.8108085722745
MI,26061,Houghton,Bog Lake,46.4513906876558,-88.6927118954449
MI,26053,Gogebic,Foggy Lake,46.2535079490737,-89.4864587867096
MI,26053,Gogebic,Kunschke Lake,46.2516775571142,-89.6684306907141
MI,26053,Gogebic,Spruce Lake,46.3060866638807,-89.5839999480433
MI,26071,Iron,Glitter Lake,46.4124853547131,-88.7748043741692
MI,26071,Iron,Rabbitz Lake,46.3660951626908,-88.9032580763113
MI,26061,Houghton,Green Lake,46.5497489076263,-88.782740004755
MI,26053,Gogebic,Pit Lake,46.2655495100728,-89.2611536746263
MI,26053,Gogebic,Partridge Lake,46.2541130905958,-89.3074057331729
MI,26061,Houghton,Winona Lake,46.8632368567472,-88.9089485753437
MI,26053,Gogebic,Crazy Bear Lake,46.317176704665,-89.27953284754
MI,26061,Houghton,Boston Lake,47.1710245610752,-88.5270921328831
MI,26053,Gogebic,Lindsley Lake,46.2180907280012,-89.4284734789685
MI,26053,Gogebic,Bergner Lake,46.2462196970707,-89.5119129196887
MI,26053,Gogebic,Cloverleaf Lake,46.254692743421,-89.4578123512785
MI,26053,Gogebic,Jaybird Lake,46.3198388358977,-89.2596530927417
MI,26071,Iron,Dog Lake,46.3830702511742,-88.7381338270876
MI,26103,Marquette,Teal Lake,46.5130384748723,-87.628711447918
MI,26053,Gogebic,Ridge Lake,46.2924896606328,-89.7777715517738
MI,26053,Gogebic,Dawn Lake,46.255631738781,-89.6065302842983
MI,26071,Iron,Elinor Lake,46.3555765618502,-88.9054315402451
MI,26103,Marquette,Lake Bacon,46.5009501926918,-87.6601081637438
MI,26103,Marquette,Cooper Lake,46.5058696346033,-87.708030383118
MI,26071,Iron,Spree Lake,46.35832048224,-88.9483209086179
MI,26071,Iron,Harding Lake,46.3618104779355,-88.8895038730989
MI,26131,Ontonagon,Hijacker Lake,46.3462788973405,-89.0811104052846
MI,26131,Ontonagon,Interior Lake,46.347715008541,-89.0877926574469
MI,26131,Ontonagon,Behlow Lake,46.4076399307906,-89.1754338215072
MI,26053,Gogebic,Grace Lake,46.2471592733952,-89.4638173885624
MI,26053,Gogebic,Snap Jack Lake,46.2482955350217,-89.3568934601693
MI,26053,Gogebic,Misty Lake,46.2530418930275,-89.4818026538997
MI,26053,Gogebic,Tomassi Lake,46.25246605908,-89.0567996363741
MI,26071,Iron,Johnson Lake,46.2535282721606,-88.9621120172423
MI,26061,Houghton,Lake Fifteen,46.810733609917,-88.8674188093496
MI,26071,Iron,Fern Lake,46.1202444362996,-88.8024402883048
MI,26071,Iron,Chamberlain Lake,46.3643603111297,-88.8074782283226
MI,26071,Iron,Bonny Lake,46.3215014131551,-88.6728582924299
MI,26053,Gogebic,Osprey Lake,46.2866949599455,-89.8034335319465
MI,26061,Houghton,Crystal Lake,46.502224814071,-88.7623289337287
MI,26071,Iron,Doe Lake,46.4121773807888,-88.9872752957077
MI,26071,Iron,Clear Lake,46.3695454703317,-88.9509982822023
MI,26013,Baraga,Pinery Lakes,46.7663232235449,-88.3934007943248
MI,26083,Keweenaw,Lost Lake,47.4293419771063,-87.8189969801813
MI,26061,Houghton,Bear Lake,47.232995159138,-88.5947545684416
MI,26083,Keweenaw,Mudd Lake,47.4759345578487,-87.9483461027622
MI,26083,Keweenaw,Thayer Lake,47.2886442047789,-88.2621834453024
MI,26053,Gogebic,Little Castle Lake,46.3174329467347,-89.0772171588614
MI,26131,Ontonagon,Temple Lake,46.3398601567784,-89.0540756667343
MI,26131,Ontonagon,North Line Lake,46.3618192025957,-89.256875105228
MI,26083,Keweenaw,Bay Lake,47.4060495356395,-87.7643337705717
MI,26053,Gogebic,Jacksnipe Lake,46.3272769904569,-89.7104512818259
MI,26071,Iron,Wolf Lake,46.3258382673509,-88.6537396799271
MI,26053,Gogebic,Taps Lake,46.3082857063832,-89.7499459573881
MI,26053,Gogebic,Mastodon Lake,46.2611343033518,-89.6534987652369
MI,26061,Houghton,Otter Lake,46.9126035474085,-88.5737704115166
MI,26053,Gogebic,Shadow Lake,46.2281747974363,-89.1566633775173
MI,26071,Iron,East Paint Lake,46.3445223071789,-88.8753730777954
MI,26053,Gogebic,Maud Lake,46.2522990389093,-89.3795077265359
MI,26013,Baraga,Engman Lake,46.683142692821,-88.5336840770677
MI,26103,Marquette,Quarry Pond,46.5293021565481,-87.3986968170355
MI,26053,Gogebic,Winter Lake,46.2595649284498,-89.1935922365695
MI,26013,Baraga,Bendry Lake,46.7585704437755,-88.5395838850785
MI,26053,Gogebic,Paint River Springs,46.173666579063,-89.0517697512346
MI,26053,Gogebic,Cranberry Lake,46.2324336973234,-89.5700711350314
MI,26053,Gogebic,Hartley Lake,46.3240931578885,-89.3921950008994
MI,26131,Ontonagon,Steusser Lake,46.4528811564603,-89.2502512472008
MI,26053,Gogebic,Bracken Lake,46.3308116932678,-89.0426640496032
MI,26083,Keweenaw,Turtle Lake,47.3636679250413,-88.4199279158347
MI,26083,Keweenaw,Deer Lake,47.3533046400256,-88.0373886345605
MI,26083,Keweenaw,Horseshoe Pond,47.3465843954429,-88.2751694544531
MI,26083,Keweenaw,Deerwater Lake,47.3239772543157,-88.2854469226033
MI,26103,Marquette,Gold Mine Lake,46.5206758245747,-87.7732115840789
MI,26071,Iron,Lake Fifteen,46.126223110997,-88.5483298328022
MI,26083,Keweenaw,Seneca Lake,47.3153902507032,-88.3748020879513
MI,26053,Gogebic,Beaver Station Lake,46.2338188978074,-89.1744928941958
MI,26103,Marquette,Little Pelissier Lake,46.4934491900857,-87.4449298283355
MI,26053,Gogebic,Tea Lake,46.1334896478367,-89.0074064790395
MI,26053,Gogebic,Sago Lake,46.1328702196022,-89.0012311589416
MI,26053,Gogebic,Lynx Lake,46.297784833908,-89.8832532344086
MI,26053,Gogebic,Hook Lake,46.2974658207654,-89.8797423561324
MI,26103,Marquette,Pelissier Lake,46.4825715435269,-87.4320048638129
MI,26071,Iron,Poker Lake,46.3602754306046,-88.8121493427885
MI,26053,Gogebic,Barb Lake,46.3271476385912,-89.5892140623484
MI,26053,Gogebic,Amik Lake,46.2933773109725,-89.2622541529373
MI,26053,Gogebic,Dutch Lake,46.2131727511996,-89.4602686724239
MI,26061,Houghton,Chapman Pond,46.5802527386204,-88.7853080707648
MI,26061,Houghton,Lake Twentyeight,46.4461317072667,-88.9439150402085
MI,26131,Ontonagon,Pickle Pond,46.4565509557518,-89.1540033991945
MI,26053,Gogebic,Elbow Lake,46.3516654966941,-89.7818159719129
MI,26061,Houghton,Mill Lake,46.5108040435861,-88.7217463923026
MI,26071,Iron,Cemetery Lake,46.235613523899,-88.4668010893479
MI,26053,Gogebic,Little Trail Lake,46.2436249630581,-89.2338096711245
MI,26053,Gogebic,Opal Lake,46.2498480719554,-89.1290198750575
MI,26053,Gogebic,Hidden Lake,46.3129310264238,-89.2665286010877
MI,26131,Ontonagon,Avant Pond,46.3387013209932,-88.9967895732914
MI,26071,Iron,Laurel Lake,46.0227737873016,-88.6363265505717
MI,26053,Gogebic,Cup Lake,46.3805764863651,-89.4937759939986
MI,26071,Iron,Spies Lake,46.3670344025968,-88.4098900094566
MI,26061,Houghton,Saint George Lake,46.5174810032003,-88.7438364393504
MI,26071,Iron,Rock Lake,46.3268790775079,-88.9423485827151
MI,26053,Gogebic,Louise Lake,46.228693991883,-89.3409819231866
MI,26053,Gogebic,Downy Lake,46.2625302164197,-89.6633305101347
MI,26053,Gogebic,Flicker Lake,46.2621525183798,-89.6673655435677
MI,26071,Iron,Bennett Lake,46.3253883049558,-88.9585949792134
MI,26131,Ontonagon,Duck Lake,46.5639133718394,-88.9983151116057
MI,26131,Ontonagon,Weidman Lake,46.6477772457604,-89.5676681096101
MI,26071,Iron,Bela Lake,46.377075107613,-88.9336436346741
MI,26083,Keweenaw,Gill Lake,47.4255905607099,-87.7169521173559
MI,26103,Marquette,Reany Lake,46.5864949090983,-87.6025612060668
MI,26103,Marquette,Harkin Lake,46.6099562335495,-87.5189333618872
MI,26103,Marquette,Club Lake,46.5977455999231,-87.5715228509069
MI,26071,Iron,Plover Lake,46.0333898432071,-88.6809340887544
MI,26131,Ontonagon,Courtney Lake,46.7534533794926,-88.9373869876295
MI,26071,Iron,Ripple Lake,46.360773126272,-88.9179164071421
MI,26071,Iron,Sunset Lake,46.1346481664596,-88.5913232310828
MI,26131,Ontonagon,Bum Lake,46.3404372597962,-89.0683540283022
MI,26053,Gogebic,Lumberjack Lake,46.2507270152553,-89.1452113843514
MI,26053,Gogebic,Buckthorn Lake,46.2665477528251,-89.7102334864879
MI,26131,Ontonagon,Weary Lake,46.586275367959,-89.6212557964378
MI,26103,Marquette,First Bass Lake,46.6839881635895,-87.631912135078
MI,26131,Ontonagon,Lake of the Clouds,46.8049784619012,-89.7481251842263
MI,26013,Baraga,Third Lake,46.7750486665079,-88.3762549464125
MI,26053,Gogebic,Dream Lake,46.2061786672162,-89.3754975814394
MI,26053,Gogebic,Beaver Dam Lake,46.240582184951,-89.173240359984
MI,26071,Iron,Pathic Lake,46.4043636553461,-88.8063150324795
MI,26053,Gogebic,Jane Lake,46.2188987018616,-89.4417684004846
MI,26083,Keweenaw,Copper Lake,47.4109951787839,-87.8337783900068
MI,26061,Houghton,Stone Quarry Lake,47.0036325588607,-88.3947921054889
MI,26131,Ontonagon,Very Sudden Pond,46.741334289176,-88.8956522054184
MI,26013,Baraga,Kontio Lake,46.6542644350525,-88.3915979542759
MI,26013,Baraga,Net River Flooding,46.4364049465821,-88.5238176857336
MI,26131,Ontonagon,Sand Lake,46.3890873079769,-89.12326449313
MI,26053,Gogebic,Monk Lake,46.2628365279667,-89.620175048827
MI,26053,Gogebic,Finn Pond,46.3098811325097,-89.6458211683622
MI,26053,Gogebic,Arnested Lake,46.3123793040839,-89.7195966178224
MI,26071,Iron,Timber Lake,46.1432013955253,-88.8251957918014
MI,26053,Gogebic,Sunday Lake,46.4809730966746,-89.9440004126682
MI,26013,Baraga,Mogans Lake,46.4960384375205,-88.3731518942904
MI,26053,Gogebic,Fishhawk Lake,46.2164584944401,-89.4149962052461
MI,26053,Gogebic,Kerr Lake,46.2434410988751,-89.2758487297964
MI,26053,Gogebic,Mountain Lake,46.2313947986495,-89.2598039924669
MI,26071,Iron,Lake Sixteen,46.1239388680676,-88.568447253576
MI,26071,Iron,Crowfoot Lake,46.2249101016326,-88.8435410569425
MI,26061,Houghton,Three-On Lake,46.4202710876509,-88.7933832444109
MI,26071,Iron,Gilbert Lake,46.2013888667127,-88.4222553025878
MI,26071,Iron,Hehe Lake,46.3705863732498,-88.8855677098675
MI,26053,Gogebic,Moccasin Lake,46.2346023083997,-89.5120320542747
MI,26061,Houghton,Lake Roland,46.8882766864039,-88.8516764972964
MI,26131,Ontonagon,Clark Lake,46.6346590980411,-89.7710792976186
MI,26013,Baraga,Burns Lake,46.6546958115075,-88.4906040382094
MI,26053,Gogebic,Dellies Lake,46.2424058138035,-89.1441073970459
MI,26053,Gogebic,Clearwater Lake,46.2562367748447,-89.4116761811647
MI,26013,Baraga,Dommer Lake,46.5984200094775,-88.2699594474316
MI,26053,Gogebic,Sherman Pond,46.2986406898322,-89.0882204325552
MI,26131,Ontonagon,Bell Pond,46.3513854678698,-89.0109442052059
MI,26071,Iron,Avaunt Pond,46.3344857635372,-88.9826185283681
MI,26131,Ontonagon,Robbins Pond,46.3801436420966,-89.2271619738344
MI,26053,Gogebic,Pigeon Lake,46.2554973280559,-89.6422005557704
MI,26053,Gogebic,Little Oxbow Lake,46.2579936422108,-89.6678195660844
MI,26071,Iron,Gabbit Lake,46.3967656548129,-88.8234255160073
MI,26131,Ontonagon,Camp Lake,46.3979525091028,-89.0543184062842
MI,26131,Ontonagon,Berland Lake,46.6092412153901,-89.5856290786273
MI,26053,Gogebic,Joann Lake,46.3100989807258,-89.90884070726
MI,26053,Gogebic,Feather Lake,46.3181812315277,-89.7697606929313
MI,26071,Iron,Lake Twentytwo,46.1018409251161,-88.7888543938196
MI,26053,Gogebic,Jingwak Lake,46.2555783758016,-89.69608720611
MI,26053,Gogebic,Orchard Lake,46.257948030542,-89.5712709078614
MI,26053,Gogebic,Mishike Lake,46.3117960825933,-89.7506562725333
MI,26053,Gogebic,Croziers Lake,46.3003649065175,-89.1229722445402
MI,26103,Marquette,Saux Head Lake,46.7128691042132,-87.5753061441975
MI,26053,Gogebic,Stone Lake,46.1926282040551,-89.0513948276211
MI,26103,Marquette,Cliff Lake,46.848492637773,-87.9730484849145
MI,26103,Marquette,Brandts Pond,46.770799660557,-87.667919035724
MI,26103,Marquette,Stag Lake,46.6947918482105,-87.8222546490593
MI,26061,Houghton,Donken Lake,46.9316804654698,-88.7992150765357
MI,26061,Houghton,Lake Perrault,47.0301073586485,-88.7339470732858
MI,26061,Houghton,Pike Lake,46.8343258944664,-88.8442410939864
MI,26061,Houghton,Lake Annie,47.1772018004927,-88.5903062548402
MI,26071,Iron,Glare Lake,46.4084959962631,-88.7765544462909
MI,26053,Gogebic,Jay Lake,46.2342821199225,-89.2816501881282
MI,26071,Iron,Lake Nine,46.1373977559936,-88.5613910521491
MI,26131,Ontonagon,Beaver Pond,46.3521430624097,-89.1646052969128
MI,26053,Gogebic,Bluejay Lake,46.3217226815089,-89.7811388852253
MI,26053,Gogebic,Hoist Lake,46.1840159699881,-89.1581628449538
MI,26071,Iron,LaCrosse Lake,46.3982172289157,-88.7615565721418
MI,26053,Gogebic,High Lake,46.2384918270032,-89.2774743137603
MI,26131,Ontonagon,Deadman Lake,46.3345905357907,-89.1227883962809
MI,26103,Marquette,Gingrass Lake,46.5287730205833,-87.762948952993
MI,26061,Houghton,Clear Lake,46.8372171271989,-88.872138370376
MI,26071,Iron,Cougar Lake,46.334787912464,-88.694874912503
MI,26013,Baraga,King Lake,46.5197744717526,-88.4087947493103
MI,26071,Iron,Wildwood Lake,46.09829757391,-88.5639956651965
MI,26013,Baraga,Kelly Lake,46.7116260813768,-88.5748338104426
MI,26071,Iron,Leather Leaf Lake,46.0349934673947,-88.2869105286915
MI,26061,Houghton,Still Lake,46.5833392587877,-88.7850191782678
MI,26071,Iron,Lake Emily,46.1132565496,-88.5014293113649
MI,26053,Gogebic,Tamarack Lake,46.239018380016,-88.9933036857885
MI,26053,Gogebic,West Bear Lake,46.2426081007059,-89.2631366454564
MI,26053,Gogebic,Hilltop Lake,46.2402129190413,-89.2325891160398
MI,26053,Gogebic,Katherine Lake,46.2396086564113,-89.3120292224152
MI,26053,Gogebic,Narrow Lake,46.2845637936432,-89.6817411183661
MI,26053,Gogebic,Meander Lake,46.2900818758785,-89.6776339010365
MI,26071,Iron,Little Hagerman Lake,46.0448013274482,-88.7862624403802
MI,26053,Gogebic,Eel Lake,46.2962235067075,-89.7616386367869
MI,26071,Iron,Fourth Lake,46.1360198518891,-88.9827789834031
MI,26083,Keweenaw,North Pond,47.4395771457461,-88.0796917247288
MI,26071,Iron,Twin Lakes,46.3106703116339,-88.4398482653342
MI,26071,Iron,Robinson Lake,46.3562190823464,-88.9161716735063
MI,26071,Iron,Seven Springs Lake,46.0064124827357,-88.3086521358416
MI,26053,Gogebic,Mink Lake,46.3138330849422,-89.7820470483731
MI,26061,Houghton,Saunder Lake,46.5543164590594,-88.7560471519384
MI,26071,Iron,Little Wolf Lake,46.3292650734722,-88.6662287747597
MI,26103,Marquette,Silver Mine Lakes,46.6029501830122,-87.6530993833474
MI,26071,Iron,Norway Lake,46.4144402310002,-88.6858983943342
MI,26061,Houghton,Sandy Lake,46.8509913181205,-88.8705020361079
MI,26053,Gogebic,Basin Lake,46.2510319910791,-89.6734424360505
MI,26071,Iron,Arc Lake,46.3240503685596,-88.9717156756489
MI,26071,Iron,Rookery Lake,46.3701104681997,-88.880161971786
MI,26071,Iron,Hemlock Lake,46.3802645945967,-88.402585419325
MI,26071,Iron,Swamp Lake,46.1737903275524,-88.4529034196661
MI,26071,Iron,Quiver Lake,46.3205193884004,-88.946375332133
MI,26071,Iron,Forest Lake,46.3259872962098,-88.9512019423698
MI,26131,Ontonagon,Bass Lake,46.6261655386905,-89.7796836036876
MI,26053,Gogebic,Orchid Lake,46.3236693114312,-89.7830351231027
MI,26061,Houghton,Beitner Lake,46.4405107380309,-88.8153557016559
MI,26071,Iron,Wagner Lake,46.0702163581944,-88.5360936530626
MI,26131,Ontonagon,Spargo Lake,46.3571199664363,-89.2691055864797
MI,26053,Gogebic,Whitmore Lake,46.3129037904017,-89.2797799082227
MI,26053,Gogebic,East Bear Lake,46.241914438219,-89.2515655162305
MI,26103,Marquette,Mountain Lake,46.8567843325241,-87.9170540383136
MI,26103,Marquette,Penny Lake,46.6779658635522,-87.7737714011527
MI,26013,Baraga,Summit Lake,46.7177633151309,-88.044660290572
MI,26053,Gogebic,Queen Lake,46.274709800752,-89.6615176024377
MI,26053,Gogebic,Jack Lake,46.2755747426546,-89.658267993197
MI,26061,Houghton,Seventeenmile Lake,46.9534783336111,-88.7710078119486
MI,26083,Keweenaw,Schlatter Lake,47.4290541238131,-87.7413260678117
MI,26071,Iron,Trap Lake,46.3702828324273,-88.9544561980213
MI,26053,Gogebic,Damon Lake,46.2682900614735,-89.3766750228219
MI,26053,Gogebic,Doyle Lake,46.2535314837403,-89.2871669941162
MI,26131,Ontonagon,Hemlock Lake,46.3412289943177,-89.3601756971605
MI,26071,Iron,Fisher Lake,46.3295922208921,-88.982062316053
MI,26053,Gogebic,Deeryard Lake,46.2666465780615,-89.4413032342948
MI,26071,Iron,Papoose Lake,46.3777450892509,-88.818066447351
MI,26103,Marquette,Regan Lake,46.6938736883711,-87.6503404709095
MI,26103,Marquette,Morgan Pond,46.5180649248185,-87.5164635654851
MI,26103,Marquette,Enchantment Lake,46.5214312255146,-87.4568172860705
MI,26103,Marquette,Three Lakes,46.5778992935354,-87.4568772110245
MI,26013,Baraga,Evergreen Lake,46.710712863762,-88.0356175248086
MI,26053,Gogebic,Twilight Lake,46.2484821595951,-89.5898205753848
MI,26071,Iron,Paint Lake,46.3504343856793,-88.8867738906979
MI,26071,Iron,Cable Lake,46.3519710846859,-88.5917918828334
MI,26053,Gogebic,Saint Augustine Lake,46.3045947184639,-89.6124114207831
MI,26103,Marquette,Lake Minnie (Cedar Lake),46.4826414895493,-87.6410439525779
MI,26103,Marquette,North Lake,46.5011162314881,-87.7628286511859
MI,26053,Gogebic,Pats Lake,46.2479894200015,-89.3241933452327
MI,26131,Ontonagon,Mattie Lake,46.432770710652,-89.0640707247376
MI,26053,Gogebic,Hay Lake,46.2140681068874,-89.3312109113181
MI,26053,Gogebic,Duck Lake,46.2041404880413,-89.2181965939588
MI,26103,Marquette,Big Mud Lake,46.5544370145951,-87.7272840347957
MI,26103,Marquette,Baby Lake,46.5136801776026,-87.6603672120844
MI,26061,Houghton,Davidson Lakes,46.5164913279907,-88.9818216478808
MI,26053,Gogebic,Wilson Lake,46.2067478167734,-89.157782468185
MI,26053,Gogebic,Hummingbird Lake,46.2436557537882,-89.5059000493755
MI,26053,Gogebic,Mayflower Lake,46.2708889266722,-89.7182807928732
MI,26053,Gogebic,Helen Lake,46.2449067130563,-89.3410484714451
MI,26053,Gogebic,Marell Lake,46.3098897700555,-89.9357097753793
MI,26071,Iron,Lewis Lake,46.385798455364,-88.9014918094931
MI,26053,Gogebic,Twist Lake,46.1790640784396,-89.2019747772588
MI,26071,Iron,Muffle Lake,46.4098927545145,-88.7984146572132
MI,26061,Houghton,Lake Gerald,46.8987095276958,-88.8284548175554
MI,26103,Marquette,Echo Lake,46.6429899645166,-87.5459950888091
MI,26061,Houghton,Cemetery Lake,46.8636244367929,-88.90062504845
MI,26071,Iron,Winslow Lake,46.3450159490294,-88.7635966670796
MI,26071,Iron,Ketchum Lake,46.2692719315564,-88.8289608859502
MI,26071,Iron,James Lake,46.2005673487928,-88.9088122371869
MI,26071,Iron,Iron Lake,46.1452694714849,-88.652861167939
MI,26071,Iron,Merriman Lake,46.156557084879,-88.7491425975223
MI,26103,Marquette,Second Bass Lake,46.6852766882789,-87.6362484471442
MI,26071,Iron,Minnie Lake,46.0324218086704,-88.5183277756227
MI,26053,Gogebic,Chokecherry Lake,46.2744245251821,-89.6943170548822
MI,26013,Baraga,Little King Lake,46.528130508228,-88.3709889612521
MI,26061,Houghton,Dentel Lake,46.5440204163204,-88.7804566499727
MI,26071,Iron,Armstrong Lake,46.0172657749534,-88.4327021671373
MI,26061,Houghton,Haywire Lake,46.5285269006274,-88.701484895338
MI,26053,Gogebic,Little Mosquito Lake,46.2482572200389,-89.4714492193874
MI,26071,Iron,Mud Lakes,46.1221085521679,-88.3633005897567
MI,26053,Gogebic,Pilot Lake,46.242960842737,-89.2082318070838
MI,26053,Gogebic,Copper Pond,46.5753482833185,-89.8906364440522
MI,26061,Houghton,Beck Lake,46.5148338568268,-88.7171554051647
MI,26071,Iron,Cone Lake,46.3361230048867,-88.7930500403567
MI,26071,Iron,Wildcat Lake,46.3413794967805,-88.7852662844014
MI,26071,Iron,Nesbit Lake,46.4159106373482,-88.6924417577293
MI,26071,Iron,Little Tobin Lake,46.0243095872393,-88.3046949102988
MI,26103,Marquette,Bob Lake,46.7036341326681,-87.8447285839641
MI,26061,Houghton,Echo Lake,46.612136513273,-88.8482110635955
MI,26071,Iron,Swan Lake,46.163108457064,-88.3955283397853
MI,26131,Ontonagon,Kennedy Lake,46.4837366528664,-89.1508946999078
MI,26061,Houghton,Bowstead Lake,46.4447030403993,-88.7485359303225
MI,26131,Ontonagon,Sudden Lake,46.7418593753698,-88.903156255517
MI,26061,Houghton,Bob Hall Lake,46.8694251942492,-88.8785500637123
MI,26071,Iron,Blue Lake,46.0393846438864,-88.4526938307332
MI,26083,Keweenaw,Breakfast Lake,47.4230921818465,-87.8871285674431
MI,26083,Keweenaw,Hoar Lake,47.4055111872067,-87.8091371137545
MI,26131,Ontonagon,Butterfield Lake,46.7760451393652,-88.9411351116736
MI,26013,Baraga,Beaver Lake,46.5638217780141,-88.4558537264472
MI,26061,Houghton,Huron Lake,47.1045662666539,-88.5854451297714
MI,26061,Houghton,Morrison Lake,46.9763828328605,-88.7859703521764
MI,26103,Marquette,Bishop Pond,46.5406820248259,-87.4631563580175
MI,26131,Ontonagon,Hobo Lake,46.339498679672,-89.0754707261475
MI,26053,Gogebic,Little Langford Lake,46.2752953509939,-89.4952958922989
MI,26071,Iron,Gasley Lake,46.3994101944126,-88.7518716127243
MI,26053,Gogebic,Jennings Lake,46.2404682613953,-89.2021229368352
MI,26083,Keweenaw,Clear Lake,47.4232602373097,-88.0353110703757
MI,26083,Keweenaw,Copper Falls Lake,47.4166976462193,-88.1914459224746
MI,26053,Gogebic,Honk Lake,46.2560156196782,-89.5561763585881
MI,26053,Gogebic,Quack Lake,46.2557781075877,-89.5609738980303
MI,26103,Marquette,Bentley Ponds,46.7538731193946,-87.9300109633505
MI,26053,Gogebic,Nansen Lake,46.2426519389675,-89.5730815176505
MI,26071,Iron,Railroad Lake,46.0693508251734,-88.3316368120769
MI,26053,Gogebic,Teal Lake,46.3309425788625,-89.7120621184715
MI,26053,Gogebic,Richard Lake,46.2421918183668,-89.5937939170753
MI,26071,Iron,Lake IHM,46.0042145028263,-88.4404263985929
MI,26071,Iron,Circle Lake,46.0864545141134,-88.8591471775653
MI,26071,Iron,Porter Lake,46.3300014734916,-88.5783671464307
MI,26013,Baraga,Parent Lake,46.5736410894846,-88.4373994228321
MI,26071,Iron,Big Spring Hole,46.2879563126678,-88.843123197029
MI,26071,Iron,Hammer Lake,46.320986121777,-88.9218674384907
MI,26103,Marquette,Lake Margaret,46.6851948232046,-87.9638811383603
MI,26053,Gogebic,Guides Lake,46.2387968150711,-89.4613401311361
MI,26053,Gogebic,Spider Lake,46.2547462481725,-89.4666431981019
MI,26131,Ontonagon,Sumac Lake,46.3630590849023,-89.0800112594993
MI,26053,Gogebic,Plains Lake,46.3010826941407,-88.9962096069151
MI,26061,Houghton,Lake Weber,47.0079603605694,-88.8026990272859
MI,26053,Gogebic,Cox Lake,46.2427532707717,-89.426371657831
MI,26053,Gogebic,Peter and Paul Lakes,46.2524017496162,-89.5037321898182
MI,26053,Gogebic,Mule Lake,46.2185468610389,-89.3865482041864
MI,26061,Houghton,Peck Lake,46.4367876398257,-88.7070617013997
MI,26053,Gogebic,Musque Lake,46.3260550288236,-89.2946304554915
MI,26053,Gogebic,Pan Lake,46.315377139016,-89.2884357864172
MI,26053,Gogebic,Sun Lake,46.2427961190349,-89.1003901237014
MI,26053,Gogebic,Ogima Lake,46.2899695698982,-89.274472311201
MI,26053,Gogebic,McDonald Lake,46.3771684117848,-90.0078239503573
MI,26071,Iron,Arrow Lake,46.3184784788408,-88.9118731037825
MI,26071,Iron,Toots Lake,46.3211929805857,-88.9300476183667
MI,26053,Gogebic,Katie Lake,46.2622100256997,-89.6851272217715
MI,26053,Gogebic,Morley Lake,46.2128522976281,-89.4325653778102
MI,26053,Gogebic,Holly Lake,46.2642412735268,-89.6111891246875
MI,26053,Gogebic,Thrush Lake,46.3199046603174,-89.7928660096605
MI,26053,Gogebic,Range Lake,46.2560351828912,-89.6140925608118
MI,26131,Ontonagon,Jack Pine Lake,46.5611146763585,-89.0247606466805
MI,26061,Houghton,Plantation Lakes,46.5681787748183,-88.8413520294321
MI,26071,Iron,Cottenham Lake,46.3778573306194,-88.9739208210243
MI,26103,Marquette,Wetmore Pond,46.6032994414251,-87.4718236271744
MI,26071,Iron,Galpin Lake,46.1142249332688,-88.9424803429904
MI,26013,Baraga,Drummond Lake,46.4768535893423,-88.4495970704898
MI,26071,Iron,Moose Lake,46.1142546030175,-88.9519556631703
MI,26061,Houghton,Emily Lake,46.8596043051745,-88.8538437027203
MI,26071,Iron,Poplar Ridge Lake,46.3010015172816,-88.4576619251448
MI,26053,Gogebic,Reynolds Lake,46.2550348061798,-89.6646733403051
MI,26053,Gogebic,Bluebell Lake,46.2752958256093,-89.7182600125494
MI,26053,Gogebic,Wilson Springs,46.1821063537094,-89.1816095995219
MI,26131,Ontonagon,Hare Pond,46.3625107537602,-89.0025118234088
MI,26131,Ontonagon,Erickson Lake,46.4498415261506,-89.1698182565717
MI,26053,Gogebic,Castle Lake,46.3152234734698,-89.0746230462982
MI,26053,Gogebic,Horseshoe Lake,46.254080945887,-89.066669627209
MI,26061,Houghton,Maggie Lake,46.4275853938468,-88.8880101310466
MI,26053,Gogebic,Germain Lake,46.2131526136625,-89.2655879245835
MI,26103,Marquette,Lake Raymond,46.6600842741472,-87.9738891907401
MI,26013,Baraga,Jackson Lakes,46.6764510627856,-88.4898928216731
MI,26131,Ontonagon,Tanlund Lake,46.4364401355145,-89.1941558695012
MI,26071,Iron,Tepee Lake,46.3847683355234,-88.8778310412175
MI,26053,Gogebic,Crane Lake,46.3212704367018,-89.3027699581214
MI,26053,Gogebic,Banner Lake,46.3287549100318,-89.6127114290609
MI,26053,Gogebic,Wolf Lake,46.2981618776868,-89.2873542629586
MI,26071,Iron,Ermine Lake,46.2490851276917,-88.8470102765065
MI,26053,Gogebic,Kickapoo Lake,46.2255316684183,-89.4976627714405
MI,26053,Gogebic,Big Mosquito Lake,46.2458628168977,-89.4704992097651
MI,26071,Iron,Whisper Lake,46.3493656100001,-88.9803202213929
MI,26103,Marquette,Gunpowder Lake,46.4853082922449,-87.6335176598201
MI,26071,Iron,Cranberry Lake,46.3460367544949,-88.9588963937428
MI,26071,Iron,Curry Lake,46.3452690205622,-88.9648105311578
MI,26053,Gogebic,Whitefish Lake,46.2060969850225,-89.3489720661869
MI,26053,Gogebic,Daisy Lake,46.2162478170808,-89.3672458584608
MI,26103,Marquette,Nash Lake,46.6086916012514,-87.597152572612
MI,26071,Iron,Morrison Lake,46.1609963043805,-88.6241174917179
MI,26053,Gogebic,Hawthorn Lake,46.2704465467679,-89.7089760192458
MI,26071,Iron,Nelson Lake,46.1179516311691,-88.8108936046802
MI,26071,Iron,Fire Lake,46.1942534204927,-88.4683990144677
MI,26053,Gogebic,Sagaigan Lake,46.6287741253647,-90.0327617041207
MI,26061,Houghton,Barchard Lake,46.5707292982995,-88.7697858012612
MI,26071,Iron,Bass Lake,46.0457618383008,-88.7710357322286
MI,26053,Gogebic,Cutters Pond,46.2641787273678,-89.2038447694881
MI,26053,Gogebic,Bass Lake,46.3049785421107,-89.1748089311984
MI,26053,Gogebic,Fleury Lake,46.2332151265094,-89.1508973585105
MI,26053,Gogebic,Dorothy Lake,46.2237335821099,-89.3453017193175
MI,26053,Gogebic,Johnston Springs,46.1895682426387,-89.34375335063
MI,26013,Baraga,Anderson Lake,46.6996238543172,-88.5547280436627
MI,26103,Marquette,Lake Bancroft,46.4941512587674,-87.6743633267017
MI,26103,Marquette,8 Lake,46.6401228947894,-87.7698548292765
MI,26103,Marquette,Dead River Storage Basin,46.5905079300198,-87.6701520999776
MI,26013,Baraga,Lake Dortay,46.7012509189599,-88.0252947345205
MI,26103,Marquette,Bentley Lake,46.7395169614936,-87.9396356416671
MI,26061,Houghton,Staff Lake,46.579834036777,-88.8048184503685
MI,26071,Iron,Silk Lake,46.3600834789471,-88.882128222156
MI,26071,Iron,Webb Lake,46.1394825313091,-88.6846856505548
MI,26071,Iron,Scott Lake,46.0319879985052,-88.5519800787627
MI,26013,Baraga,Tracy Lake,46.4701307672491,-88.4811460396152
MI,26071,Iron,Chicken Lake,46.4025506026671,-88.766032603089
MI,26061,Houghton,Elginor Lake,46.5101070009601,-88.7298778174539
MI,26071,Iron,Petrow Lake,46.3699776307215,-88.6880546976171
MI,26131,Ontonagon,Deer Lake,46.3712976792278,-89.2505531049974
MI,26053,Gogebic,McCullough Lake,46.2428047687958,-89.4703561714986
MI,26131,Ontonagon,Mirror Lake,46.7619259333546,-89.7711507583003
MI,26053,Gogebic,Siskin Lake,46.2190379123833,-89.3702429950519
MI,26103,Marquette,Lake Ann,46.872480871479,-87.9269390099907
MI,26103,Marquette,Silver Lead Mine Lake,46.6699909092765,-87.8506808863592
MI,26053,Gogebic,Anderson Lake,46.2153169543091,-89.1439354206484
MI,26053,Gogebic,Raspberry Lake,46.2501583125374,-89.5065584081484
MI,26053,Gogebic,Inkpot Lake,46.2287963226609,-89.5063207947982
MI,26131,Ontonagon,Locust Pond,46.3683973626549,-88.9999132279844
MI,26131,Ontonagon,Buckeye Lake,46.3721518404608,-88.9978160776007
MI,26071,Iron,Feeder Lake,46.3719584417241,-88.9290504503199
MI,26061,Houghton,Kunze Lake,46.4395274496436,-88.7245236147783
MI,26053,Gogebic,Trapper Lake,46.2136379242228,-89.2557986770275
MI,26053,Gogebic,Plymouth Lake,46.3077413018794,-89.7563500474523
MI,26053,Gogebic,King Lake,46.2753348547748,-89.6661275374301
MI,26053,Gogebic,Redboat Lake,46.3450921008895,-89.7738810021696
MI,26061,Houghton,Stonington Lake,46.9627382782581,-88.7866003344231
MI,26013,Baraga,Little Summit Lake,46.6341648440817,-88.3341023386064
MI,26083,Keweenaw,Central Lake,47.4059209890727,-88.1928861614482
MI,26071,Iron,Chara Lake,46.1034407522942,-88.7535525878088
MI,26013,Baraga,Island Lake,46.6963169109561,-88.0143615406184
MI,26061,Houghton,Horseshoe Lake,46.8402077372105,-88.8760851668129
MI,26071,Iron,Ponozzo Lake,46.2558664669397,-88.6947745084175
MI,26071,Iron,Marten Lake,46.3933451407009,-88.6949431582156
MI,26071,Iron,Archie Pond,45.9973518783157,-88.3395490536487
MI,26053,Gogebic,Gray Lake,46.2223384520927,-89.449887844938
MI,26071,Iron,Finn Lake,46.0339863144193,-88.3462889777222
MI,26071,Iron,Isaacson Lake,46.0243112857688,-88.4366092258669
MI,26071,Iron,Kennedy Lake,46.0341067650141,-88.2946232712524
MI,26071,Iron,Tim Bowers Pond,46.0453102338617,-88.2912244885494
MI,26061,Houghton,McLellan Lake,46.4778796931222,-88.7421311332316
MI,26061,Houghton,Davis Lake,46.5739776473302,-88.7682101469689
MI,26071,Iron,Maggie Lakes,46.0098013558644,-88.4643336800521
MI,26103,Marquette,Rock Lake,46.4927955563787,-87.7094006127494
MI,26131,Ontonagon,Indian Creek,46.7421877696947,-88.8874639842078
MI,26083,Keweenaw,Owl Lake,47.4235615906641,-88.1873307435141
MI,26071,Iron,Balcomb Lake,46.3840048415161,-88.9541612358848
MI,26061,Houghton,Rice Lake,47.1634597406392,-88.2836218300426
MI,26103,Marquette,Lost Lake,46.7194036970071,-87.9724020357546
MI,26103,Marquette,Florence Pond,46.850678433365,-87.8703886786071
MI,26131,Ontonagon,Stanko Lake,46.6253335975206,-89.5683378451138
MI,26071,Iron,Silver Lake,46.1515125658448,-88.8306222957511
MI,26053,Gogebic,Brush Lake,46.3266624888168,-89.2371279761189
MI,26071,Iron,Killdeer Lake,46.35280551581,-88.9602038566251
MI,26103,Marquette,Third Bass Lake,46.6873282104227,-87.6456583708321
MI,26013,Baraga,Roland Lake,46.8221047152618,-88.1784973015595
MI,26071,Iron,Little Nesbit Lake,46.4115438438191,-88.692931717302
MI,26061,Houghton,Twelvemile Lake,47.0025777765929,-88.7241047341575
MI,26061,Houghton,Thirteenmile Lake,46.9933233183652,-88.7468108365643
MI,26131,Ontonagon,Lost Lake,46.769333351431,-89.6904539630441
MI,26071,Iron,Club Lake,46.3206869474635,-88.9344468115989
MI,26071,Iron,Anderson Lake,46.1085383449803,-88.4261488952281
MI,26071,Iron,Gravel Pit Lake,46.1138438690815,-88.463394610261
MI,26053,Gogebic,Heron Lake,46.325239660963,-89.7780621421921
MI,26061,Houghton,Calumet Lake,47.254875940727,-88.4463866361748
MI,26053,Gogebic,Ox Yoke Lake,46.3196983870003,-89.2810480623895
MI,26053,Gogebic,Elsie Lake,46.2240914445036,-89.3414785633634
MI,26131,Ontonagon,Lily Pond,46.7377579520498,-89.7930141858705
MI,26053,Gogebic,Henry Lake,46.3279848304206,-89.7884417031663
MI,26061,Houghton,Thomas Lake,46.4612163423262,-88.7535236056361
MI,26061,Houghton,Toby Lake,46.4498605927045,-88.7252298566913
MI,26071,Iron,Fur Farm Pond,46.1795160526207,-88.7600696150217
MI,26071,Iron,Grosse Lake,46.3920769708918,-88.8760022648533
MI,26053,Gogebic,Plum Lake,46.2213318726652,-89.5044044272825
MI,26071,Iron,Paw Lake,46.3616088454493,-88.9583942772806
MI,26061,Houghton,Little Rice Lake,47.154318368718,-88.2703300230556
MI,26053,Gogebic,Twin Pups Lakes,46.2865093832978,-89.8212364105784
MI,26071,Iron,Dunn Lake,46.4167271462427,-88.8427625977278
MI,26061,Houghton,Lake Fourteen,46.8228349895105,-88.833786683135
MI,26053,Gogebic,Bluegill Lake,46.3045448735824,-89.0260299324992
MI,26131,Ontonagon,Pendock Pond,46.5798588756898,-89.6346486353286
MI,26061,Houghton,York Lake,46.5502837916438,-88.9032257585276
MI,26103,Marquette,Baldwin Kiln Lake,46.5402840114295,-87.5637706305183
MI,26103,Marquette,Picket Lake,46.5323180149609,-87.6038892796281
MI,26071,Iron,Golden Lake,46.1744801787032,-88.8867784274984
MI,26061,Houghton,Richard Lake,46.5892270619411,-88.8058463523736
MI,26053,Gogebic,Perch Lake,46.3103316453211,-89.1055503875591
MI,26071,Iron,Dragon Pond,46.3169620323421,-88.9834964862625
MI,26013,Baraga,Little Lake,46.6471136169512,-88.5591312375589
MI,26013,Baraga,Lost Lake,46.7343055249634,-88.360993471869
MI,26053,Gogebic,Dinner Lake,46.1999830244614,-89.1347041513963
MI,26053,Gogebic,Clear Lake,46.2485477801564,-89.2711490272571
MI,26053,Gogebic,Hattie Lake,46.2561812802276,-89.3701290521809
MI,26071,Iron,Houser Lake,46.3530909832839,-88.9436119894741
MI,26131,Ontonagon,Coral Lake,46.3597370595366,-89.0023513709263
MI,26131,Ontonagon,Corpse Pond,46.3455675582973,-89.0022737712162
MI,26061,Houghton,Lake Thirteen,46.4672537576179,-88.7530220257351
MI,26071,Iron,Dahm Lake,46.174307001083,-88.4391016738563
MI,26131,Ontonagon,Amber Lake,46.4617365960531,-89.239263640161
MI,26013,Baraga,May Lake,46.4628584290026,-88.5796259105879
MI,26053,Gogebic,Brown Lake,46.217749043594,-89.4739599822216
MI,26053,Gogebic,Dumbbell Lake,46.2312118474964,-89.4635786227609
MI,26053,Gogebic,Midget Lake,46.2447701750822,-89.4088642556569
MI,26103,Marquette,Blemhuber Lake,46.6685278360743,-87.5686430980696
MI,26043,Dickinson,Bass Lake,45.8531618013509,-88.0722794731991
MI,26043,Dickinson,Chapin Pit,45.8239891141401,-88.0615557488468
MI,26097,Mackinac,Hanks Pond,45.8504831085077,-84.6204140020261
MI,26165,Wexford,Lake Cadillac,44.2411084620501,-85.4269197455099
MI,26165,Wexford,Lake Mitchell,44.2472647691608,-85.4817903371067
MI,26165,Wexford,Gyttja Lake,44.2713712632247,-85.4889463831836
MI,26037,Clinton,Round Lake,42.8776824865124,-84.4450616620247
MI,26025,Calhoun,Saint Mary's Lake,42.3787819491958,-85.1817566288869
MI,26025,Calhoun,Cotton Lake,42.2155747087014,-85.1723144689404
MI,26025,Calhoun,Beadle Lake,42.2757288985435,-85.1462185625099
MI,26025,Calhoun,Hart's Lake,42.3078125622188,-85.2837319750632
MI,26077,Kalamazoo,Jackson Hole Lake,42.3136395831349,-85.3505642191419
MI,26089,Leelanau,Big Glen Lake,44.8686909003257,-85.9635936265768
MI,26089,Leelanau,Little Glen Lake,44.8689464827867,-86.0206849103746
MI,26125,Oakland,Dragonfly Pond,42.5232116337737,-83.1562613179633
MI,26045,Eaton,Frazier Memorial Pond,42.7664715014743,-84.7653707324529
MI,26037,Clinton,Lake Geneva,42.8338172289318,-84.5830691230522
MI,26037,Clinton,Lake Ovid,42.936824120057,-84.4130456688241
MI,26055,Grand Traverse,Boardman Lake,44.7465493420387,-85.6143233394258
MI,26075,Jackson,Lime Lake,42.1857599748784,-84.5509703752648
MI,26125,Oakland,Timberland Lake,42.7127703173628,-83.5064927415761
MI,26125,Oakland,Lower Pond,42.7048149363895,-83.4884267929455
MI,26125,Oakland,Discovery Pond,42.7057323224641,-83.4846139619662
MI,26117,Montcalm,Snow Lake,43.1348875552019,-85.0541507993182
MI,26067,Ionia,Woodard Lake,43.0817128408477,-85.0618853289247
MI,26125,Oakland,Beverly Pond,42.5221621225309,-83.2307092367959
MI,26035,Clare,Thurston Lake,43.8722527361945,-84.8674659955926
MI,26019,Benzie,Crystal Lake,44.6616039038092,-86.1724654516518
MI,26057,Gratiot,Half-Moon Lake,43.4557934537687,-84.8244979437625
MI,26117,Montcalm,Crystal Lake,43.2620870031162,-84.9326521676122
MI,26143,Roscommon,Higgins Lake,44.4742123186936,-84.7226897293387
MI,26143,Roscommon,Houghton Lake,44.3429950965434,-84.7283700171804
MI,26163,Wayne,Stony Creek Mill Pond,42.306353343148,-83.230815584748
MI,26031,Cheboygan,Burt Lake,45.4700148805012,-84.6670466348791
MI,26163,Wayne,Lake Okonoka,42.3412184669169,-82.9630511038529
MI,26053,Gogebic,Scaup Lake,46.1574946121075,-89.0603387524354
MI,26087,Lapeer,Russell Lake,42.9948531546552,-83.1735131128359
MI,26087,Lapeer,Pierce Lake,42.9892215610274,-83.1468254816821
MI,26087,Lapeer,Mill Pond,42.9248240170135,-83.1242713691302
MI,26087,Lapeer,Young Lake,42.982376705759,-83.1247667011651
MI,26087,Lapeer,Cluebine Lake,42.9864644833979,-83.1371619780162
MI,26087,Lapeer,Mcnally Lake,42.9874051400699,-83.1069362864048
MI,26087,Lapeer,Pickerel Pond,42.9955966071677,-83.0687270754863
MI,26087,Lapeer,O'Neil Lake,42.9875201713981,-83.0822669440763
MI,26087,Lapeer,Petz Lake,43.0441868337582,-82.9949970411815
MI,26087,Lapeer,Baines Lake,43.0383218583398,-82.9990331562661
MI,26087,Lapeer,Rose Lake,43.1193103480627,-83.1468323213426
MI,26087,Lapeer,Simmons Lake,43.096973630996,-83.1307424357807
MI,26087,Lapeer,Pickerel Lake,43.0925246863517,-83.1245879002263
MI,26147,St. Clair,Pine Lake,42.9847451602241,-82.5565402093237
MI,26151,Sanilac,Deckerville Reservoir,43.5108982907921,-82.7477516481815
MI,26093,Livingston,Gosling Lake,42.4394932657137,-84.0034502961243
MI,26099,Macomb,Clinton River Spillway,42.5703701862109,-82.8615341186292
MI,26099,Macomb,Lake Tranquillity,42.6633730647896,-82.855373356728
MI,26147,St. Clair,Mud Lake,42.6143279619938,-82.6392477409667
MI,26099,Macomb,Lake Chalet,42.7731825575711,-82.7970908518357
MI,26093,Livingston,Watson Lake,42.4244208744323,-84.028090319286
MI,26117,Montcalm,Tamarack Lake,43.4435444027553,-85.2661792781207
MI,26087,Lapeer,Hagemeister Lake,42.8897519924529,-83.158627353155
MI,26125,Oakland,Heron Hollow Pond,42.7277800263133,-83.3211507734686
MI,26125,Oakland,Foster Lake,42.7138216305729,-83.4553330729889
MI,26125,Oakland,Darb Lake,42.5987242819741,-83.4019931486117
MI,26125,Oakland,Hess Lake,42.6162281990564,-83.3684824245194
MI,26125,Oakland,Van Norman Lake,42.7047588007653,-83.411883218258
MI,26125,Oakland,Scott Lake,42.6697202124868,-83.3529543419042
MI,26125,Oakland,Lake Goodrich,42.6526886769403,-83.4212509219601
MI,26125,Oakland,Williams Lake,42.6756985304142,-83.4233321658357
MI,26125,Oakland,Lester Lake,42.7040987328814,-83.424268379245
MI,26125,Oakland,Geneva Lake,42.6438377718599,-83.3658326267359
MI,26125,Oakland,Fiddle Lake,42.64938888955,-83.3760174133644
MI,26125,Oakland,Elizabeth Lake,42.6304957893286,-83.3806538645832
MI,26125,Oakland,Watkins Lake,42.6639925281578,-83.3683654247369
MI,26125,Oakland,Rainbow Lake,42.6960235177845,-83.4021329904828
MI,26125,Oakland,Townsend Lake,42.7081149717767,-83.400760972671
MI,26125,Oakland,Eagle Lake,42.697483461995,-83.384407547452
MI,26125,Oakland,Silver Lake,42.6784538276255,-83.3412631531048
MI,26125,Oakland,Schoolhouse Lake,42.6855477948857,-83.3485249018729
MI,26125,Oakland,Upper Silver Lake,42.6770841025,-83.3274217189615
MI,26125,Oakland,Lake Angelus,42.6914577797665,-83.3239696409228
MI,26125,Oakland,Deer Lake,42.7337290916331,-83.4336630556394
MI,26125,Oakland,Parke Lake,42.7381003705248,-83.4148106426168
MI,26125,Oakland,Bridge Lake,42.7511091943106,-83.4705333614114
MI,26125,Oakland,Softwater Lake,42.7435102625694,-83.4688917887911
MI,26125,Oakland,Middle Lake,42.7275054944661,-83.4248527571199
MI,26125,Oakland,Huckleberry Lake,42.7160871804726,-83.4502528241863
MI,26125,Oakland,Sans Souci Lake,42.7193836210882,-83.4468020492241
MI,26125,Oakland,Little Walters Lake,42.7494221984166,-83.4144009151761
MI,26125,Oakland,Susin Lake,42.7623723732945,-83.4799086694875
MI,26125,Oakland,Dixie Lake,42.7659551461248,-83.491509529926
MI,26125,Oakland,Knox Lake,42.7620381605126,-83.4476809959043
MI,26125,Oakland,Gulick Lake,42.7277114303041,-83.3971138301652
MI,26125,Oakland,Millers Lake,42.7445587794891,-83.326707349197
MI,26125,Oakland,Whipple Lake,42.778718823017,-83.3773184438887
MI,26125,Oakland,Crooked Lake,42.7761165470733,-83.3946943866941
MI,26125,Oakland,Equestrian Lake,42.788165462256,-83.3870295907731
MI,26125,Oakland,Upper Bushman Lake,42.7891579223126,-83.377706425013
MI,26125,Oakland,Walters Lake,42.7630988738421,-83.3478070680523
MI,26125,Oakland,Heather Lake,42.7713007579433,-83.3292561888178
MI,26125,Oakland,Coulter Lake,42.7873649416972,-83.3562461891007
MI,26125,Oakland,Seymour Lake,42.8063373650372,-83.3791912396576
MI,26125,Oakland,Hadsells Pond,42.6107979361054,-83.2720186525207
MI,26125,Oakland,Osmun Lake,42.6613954492518,-83.3138652969749
MI,26125,Oakland,Terry Lake,42.6588190255134,-83.3063964958107
MI,26125,Oakland,Galloway Lake,42.6647923195852,-83.2513906222877
MI,26125,Oakland,Lantern Lake,42.694917890042,-83.3050772025779
MI,26125,Oakland,Olden Oak Lake,42.6850942998154,-83.2342957099794
MI,26125,Oakland,Lake Norcenta,42.6673311845427,-83.1469253961102
MI,26125,Oakland,Bear Lake,42.6762185950499,-83.2163937650003
MI,26125,Oakland,Emerald Lake,42.6155713278747,-83.1154886187831
MI,26125,Oakland,Lake Andale,42.6130641519764,-83.1144155413148
MI,26125,Oakland,Sandshores Lake,42.6203984255416,-83.114903856773
MI,26099,Macomb,Lake Apollo,42.6942369242102,-83.0560602795487
MI,26099,Macomb,Celestial Lake,42.6918588252283,-83.05590490744
MI,26099,Macomb,Comet Lake,42.6930310697428,-83.0585589610304
MI,26099,Macomb,Lake Tara,42.6933650091029,-83.0661376809525
MI,26099,Macomb,Twilight Lake,42.6928776806284,-83.0614855929167
MI,26099,Macomb,Double Lake,42.6929510074817,-83.072390400316
MI,26099,Macomb,Lake Royale,42.6930720056525,-83.0681131908659
MI,26099,Macomb,Chestnut Lake,42.6795047066149,-83.0809943011781
MI,26099,Macomb,Belle Lake,42.6799471004652,-83.0860360534157
MI,26099,Macomb,Moonlight Lake,42.6910195400485,-83.0620368562197
MI,26099,Macomb,Tanglewood Lake,42.6884840998671,-83.065585421371
MI,26099,Macomb,Starlite Lake,42.6868861290709,-83.0618153009066
MI,26125,Oakland,Winkler Pond,42.7104913654723,-83.0968953316641
MI,26099,Macomb,Skyline Lake,42.6961346963454,-83.0619094799323
MI,26099,Macomb,Vista Lake,42.694842434729,-83.0706954153917
MI,26099,Macomb,Gemini Lake,42.6964026468364,-83.0589828954959
MI,26099,Macomb,Banister Lake,42.6390953534329,-83.0112073076095
MI,26099,Macomb,Hawkins Lake,42.6351231235715,-83.0111204930877
MI,26099,Macomb,Cedar Lake,42.638708998293,-83.0055070755332
MI,26099,Macomb,Watkins Lake,42.6358881660119,-83.0000657142036
MI,26099,Macomb,Pine Lake,42.6389186424666,-83.0002021192476
MI,26099,Macomb,Cone Lake,42.6363133168876,-83.0053591046345
MI,26099,Macomb,Iroquois Lake,42.6930064222505,-83.0124470550103
MI,26099,Macomb,Arrowhead Lake,42.6951668595958,-83.0083906814077
MI,26099,Macomb,Heritage Lake,42.6826254809129,-83.0296450834785
MI,26125,Oakland,Judah Lake,42.7191132555572,-83.2922734809349
MI,26125,Oakland,Mill Lake,42.7451404535686,-83.3104620957736
MI,26125,Oakland,Voorheis Lake,42.7448787826449,-83.2950391331256
MI,26125,Oakland,Lake Sixteen,42.7556373849753,-83.2871452943436
MI,26125,Oakland,Tommys Lake,42.7618042428032,-83.2738218144629
MI,26125,Oakland,Pungs Lake,42.7918763326003,-83.3206783348116
MI,26125,Oakland,Lonesome Lake,42.7822593576575,-83.2844265361507
MI,26125,Oakland,Elkhorn Lake,42.7685678242593,-83.2696397613061
MI,26125,Oakland,Manito Lake,42.7960689430408,-83.2573510040289
MI,26125,Oakland,Indianwood Lake,42.7946752533279,-83.2684417968036
MI,26125,Oakland,Howell Lake,42.8017514026501,-83.2519660158642
MI,26125,Oakland,Lower Trout Lake,42.7398008010923,-83.2249521864653
MI,26125,Oakland,Duck Pond,42.7956904991131,-83.1899821893924
MI,26125,Oakland,East Graham Lake,42.7874346474066,-83.1884447427011
MI,26125,Oakland,Bellis Lake,42.7918304976146,-83.1881293299162
MI,26125,Oakland,Bunny Run Lake,42.7897082609804,-83.2197295536999
MI,26125,Oakland,Chamberlain Lake,42.7836499761202,-83.2152681624516
MI,26125,Oakland,West Graham Lake,42.7897725603659,-83.193602287977
MI,26125,Oakland,Shoe Lake,42.7864529150941,-83.1989093497075
MI,26125,Oakland,Heart Lake,42.7826893295664,-83.1989631984972
MI,26125,Oakland,Prince Lake,42.7972938373321,-83.1976571063046
MI,26125,Oakland,Indian Lake,42.7987318177484,-83.2060827166854
MI,26125,Oakland,Dorn Lake,42.7870870863961,-83.1840250667979
MI,26125,Oakland,Shadow Lake,42.8462205456011,-83.153985162785
MI,26125,Oakland,Parker Lake,42.8228947190751,-83.2328476344227
MI,26125,Oakland,Handsome Lake,42.811991256222,-83.2320052705463
MI,26125,Oakland,Whisper Lake,42.8277143870367,-83.3084811425378
MI,26125,Oakland,Oxford Lake,42.8217919419784,-83.243744694266
MI,26125,Oakland,Powell Lake,42.8128744968641,-83.2731061820078
MI,26125,Oakland,Davis Lake,42.8183385198992,-83.2843372376006
MI,26125,Oakland,Lake Mickelson,42.8206710887591,-83.3013572562759
MI,26125,Oakland,Waterstone Lake,42.8336144207403,-83.2914873239739
MI,26125,Oakland,Stony Lake,42.841770741994,-83.2804577500532
MI,26125,Oakland,Lake Erin,42.8126694677661,-83.2397668366419
MI,26125,Oakland,Bailey Lake,42.8050525056876,-83.2450958314342
MI,26125,Oakland,Ploss Lake,42.815170253521,-83.2468252015905
MI,26125,Oakland,Grampian Lake,42.8109458964272,-83.2264405424372
MI,26125,Oakland,Buhl Lake,42.8076875377804,-83.1659975641676
MI,26125,Oakland,Upper Lakeville Lake,42.8440684797816,-83.1508605281809
MI,26125,Oakland,Lake George,42.8661034082245,-83.1604027831498
MI,26125,Oakland,Wolf Lake,42.8754316228926,-83.1551978772557
MI,26099,Macomb,Inwood Lake,42.7800678647611,-83.0774119048437
MI,26125,Oakland,Twin Lakes,42.768176010152,-83.1216435972164
MI,26099,Macomb,Crooked Lake,42.7899550548898,-83.070416634884
MI,26099,Macomb,Dollar Lake,42.7854869393801,-83.074309647325
MI,26099,Macomb,Fisher Lake,42.8469773887462,-83.0806851625781
MI,26099,Macomb,East Mill Lake,42.8071638110294,-83.0591000535668
MI,26099,Macomb,Nowlan Lake,42.8259952466838,-83.0649451804965
MI,26125,Oakland,Secord Lake,42.8768874019602,-83.1166176903056
MI,26099,Macomb,Hidden Lake,42.8339303562525,-83.0511180960214
MI,26099,Macomb,Streeter Lake,42.8529111347639,-83.0243108407091
MI,26087,Lapeer,Peters Lake,42.8960886663933,-83.1569531007483
MI,26163,Wayne,Stormwater Management Pond,42.1799866942023,-83.2775096682538
MI,26163,Wayne,Stormwater Management Area,42.1466091220577,-83.2408478439937
MI,26163,Wayne,Lake Muskoday,42.3480305164978,-82.969779385015
MI,26163,Wayne,Stormwater Retention,42.2134742402245,-83.3289552357274
MI,26163,Wayne,Spring Hill Lake,42.4179309159296,-83.522600184655
MI,26163,Wayne,Crystal Lake,42.4294781447162,-83.4665967104895
MI,26163,Wayne,Swan Harbour Lake,42.4269467229756,-83.4645053397
MI,26163,Wayne,Lake Success,42.4341765382799,-83.4729247756173
MI,26163,Wayne,Curtis Lake,42.4334584264379,-83.4613631984313
MI,26125,Oakland,Jatco Pond,42.4953155214146,-83.4288479027679
MI,26125,Oakland,Meadowbrook Lake,42.4583148051971,-83.4527541000356
MI,26125,Oakland,Frankie Muniz Lake,42.4900326994587,-83.463249830487
MI,26125,Oakland,Village Oaks Lake,42.4591819535438,-83.4469860887791
MI,26125,Oakland,Walled Lake,42.5205964604872,-83.481663029699
MI,26125,Oakland,Coventry Lake,42.5256590651592,-83.3240762018829
MI,26163,Wayne,Fair Lane Lake,42.3174654406971,-83.2386095822968
MI,26163,Wayne,Henry Ford Pond,42.3060320292584,-83.2358142215787
MI,26125,Oakland,Mud Pond,42.5086652177003,-83.4813536621615
MI,26163,Wayne,Suwanee Lagoon,42.3070953675637,-83.2243215042213
MI,26163,Wayne,Model Yacht Basin,42.3367769372587,-82.9769271060635
MI,26163,Wayne,Lake Tacoma,42.3344702309679,-82.9899798888011
MI,26125,Oakland,Pierson Lake,42.4761846426917,-83.1614100680653
MI,26163,Wayne,Willow Lake,42.443396537385,-83.1279179584327
MI,26125,Oakland,Shorewood Lake,42.5884748138019,-83.3229954346185
MI,26125,Oakland,West Bloomfield Lake,42.5619902896521,-83.3818819481896
MI,26125,Oakland,Walnut Lake,42.5615072657227,-83.3312644841157
MI,26125,Oakland,Woodpecker Lake,42.5660455879338,-83.3987558312339
MI,26125,Oakland,Doughnut Lake,42.5619932211147,-83.3775937814005
MI,26125,Oakland,Bloomfield Lake,42.5726475377346,-83.348251998983
MI,26125,Oakland,Moon Lake,42.579470935571,-83.3420674712229
MI,26125,Oakland,Cameo Lake,42.5797872505316,-83.3294497403061
MI,26125,Oakland,Mud Fox Lake,42.5813973067884,-83.3247611919187
MI,26125,Oakland,Hammond Lake,42.6068277384505,-83.3249518598778
MI,26125,Oakland,Cloister Lake,42.585049895562,-83.3265320901187
MI,26125,Oakland,Vhay Lake,42.5878724295829,-83.2322481161402
MI,26125,Oakland,Meadow Lake,42.540290983702,-83.3135622400481
MI,26125,Oakland,Kirkwood Lake,42.5533709218446,-83.3127895213551
MI,26125,Oakland,Wing Lake,42.5518725441348,-83.297991763925
MI,26125,Oakland,Gilbert Lake,42.5585138876664,-83.2778170164919
MI,26125,Oakland,Chalmers Lake,42.5629048719222,-83.2981156345678
MI,26125,Oakland,Sodon Lake,42.5729616164222,-83.2971215680844
MI,26125,Oakland,Minnow Lake,42.5696500264974,-83.2883149183683
MI,26125,Oakland,Wabeek Lake,42.5858360743972,-83.3156967598872
MI,26125,Oakland,Turtle Lake,42.6017066357449,-83.3105318055664
MI,26125,Oakland,Orange Lake,42.5915767821016,-83.272334561628
MI,26125,Oakland,Crest Lake,42.586955660205,-83.2244655380416
MI,26125,Oakland,Wood Lake,42.5895105862273,-83.225242143365
MI,26125,Oakland,Lake Charnwood,42.6158093048347,-83.2016135260425
MI,26093,Livingston,Clifford Lake,42.5390837001506,-83.8495347431366
MI,26093,Livingston,Nichwagh Lake,42.4487709532514,-83.6792880213504
MI,26125,Oakland,Gallager Lake,42.5388671732722,-83.5426440315709
MI,26161,Washtenaw,Twamley Lake,42.3869257378697,-84.0229096287279
MI,26161,Washtenaw,Blind Lake,42.4154999693954,-84.0195906118995
MI,26161,Washtenaw,Halfmoon Lake,42.4191502937619,-84.0116278826744
MI,26161,Washtenaw,West Lake,42.3624145258851,-84.0075281179981
MI,26161,Washtenaw,Gorman Lake,42.3621547396605,-84.0449139255705
MI,26161,Washtenaw,Goose Lake,42.2535417542572,-84.121007442196
MI,26161,Washtenaw,Tisch Lake,42.2362717487989,-84.1198564665619
MI,26161,Washtenaw,Fisk Lake,42.2665556214971,-84.0706629571165
MI,26161,Washtenaw,Cavanaugh Lake,42.3174955077081,-84.1002529323087
MI,26161,Washtenaw,Doyle Lake,42.3153618640249,-84.089482820735
MI,26161,Washtenaw,Mclaughlin Lake,42.341908647102,-84.0471219913424
MI,26161,Washtenaw,Mill Lake,42.3289992842241,-84.090070567498
MI,26161,Washtenaw,Walsh Lake,42.3376340264579,-84.079714856969
MI,26161,Washtenaw,Spring Lake,42.3257957325472,-84.100188244501
MI,26161,Washtenaw,Cassidy Lake,42.3477978368127,-84.0794940117821
MI,26161,Washtenaw,Mirror Lake,42.347267758036,-84.07198475554
MI,26161,Washtenaw,Clarks Lake,42.3528722883527,-84.0501789164346
MI,26161,Washtenaw,Long Lake,42.3507478060706,-84.0625240965139
MI,26161,Washtenaw,Boyce Lake,42.4060518764704,-84.1047614136934
MI,26093,Livingston,Mcintyre Lake,42.4288920482935,-84.1202440204226
MI,26065,Ingham,Fink Lake,42.4251665513636,-84.1937461127857
MI,26161,Washtenaw,Avery Lake,42.4163890266319,-84.1235663811409
MI,26093,Livingston,Sharp Lake,42.43915791737,-84.120952299766
MI,26093,Livingston,Mcconachie Lake,42.4340575396154,-84.1314918922413
MI,26161,Washtenaw,Green Lake,42.3679614209322,-84.0720984314557
MI,26161,Washtenaw,South Lake,42.3985976777502,-84.0677048811565
MI,26161,Washtenaw,Snyder Lake,42.390768639678,-84.0675403405304
MI,26161,Washtenaw,Clark Lake,42.3832585964045,-84.088266437017
MI,26161,Washtenaw,Lake Genevieve,42.376215961801,-84.0617367889298
MI,26161,Washtenaw,Island Lake,42.3748877408202,-84.0458005453636
MI,26161,Washtenaw,Sullivan Lake,42.3987339239787,-84.0568336680962
MI,26161,Washtenaw,Eagle Lake,42.3946451080967,-84.0644952207982
MI,26161,Washtenaw,Sullivan Lakes,42.3941053332181,-84.0402961926688
MI,26161,Washtenaw,Burkhart Lake,42.3871346210321,-84.0293646790763
MI,26161,Washtenaw,Ellsworth Lake,42.4159143164933,-84.0986979047803
MI,26093,Livingston,Williamsville Lake,42.4379112229585,-84.1042350219942
MI,26161,Washtenaw,Bruin Lake,42.4192993731965,-84.0384080366013
MI,26093,Livingston,Sayles Lake,42.442717379502,-84.0270488376906
MI,26065,Ingham,Lowe Lake,42.4986583852047,-84.1721389542834
MI,26093,Livingston,Sheets Lake,42.4956828254819,-84.06815518994
MI,26065,Ingham,Nichols Lake,42.4624756156987,-84.167210498299
MI,26161,Washtenaw,Sutton Lake,42.2565011562596,-83.9396756227066
MI,26161,Washtenaw,Nordman Lake,42.3194743051755,-83.9307412508095
MI,26161,Washtenaw,Pierce Lake,42.3027929250823,-84.0145352362964
MI,26161,Washtenaw,Fourmile Lake,42.3370065590559,-83.9703553437859
MI,26161,Washtenaw,Daley Pond,42.3502974317532,-83.8663408409004
MI,26161,Washtenaw,Lans Pond,42.2554417115991,-83.7621896556088
MI,26161,Washtenaw,Turtle Rock Pond,42.2247799830051,-83.6919718470778
MI,26161,Washtenaw,Haven Lake,42.2287575540591,-83.6970176254292
MI,26161,Washtenaw,Barton Pond,42.314783282729,-83.7677680558426
MI,26161,Washtenaw,First Sister Lake,42.2821349045263,-83.7942772154076
MI,26161,Washtenaw,Water Treatment Plant Settling Pond,42.2992881607398,-83.7736725705699
MI,26093,Livingston,Sandy Bottom Lake,42.4519173504025,-83.7148902569491
MI,26093,Livingston,Limekiln Lake,42.4534535543516,-83.7064412328248
MI,26093,Livingston,Oneida Lake,42.4672185376255,-83.8482169837686
MI,26161,Washtenaw,Dead Lake,42.4058488266118,-84.0014661252484
MI,26161,Washtenaw,Riker Lake,42.3726768905896,-83.9929271123392
MI,26093,Livingston,Beaver Lake,42.4353964382497,-83.9961602324083
MI,26161,Washtenaw,Losee Lake,42.4103975137807,-83.9603623523591
MI,26093,Livingston,Portage River,42.4395148462741,-83.9696406758702
MI,26161,Washtenaw,Parks Lake,42.3983197689004,-83.8814965539776
MI,26093,Livingston,Tioga Lake,42.4484419888918,-83.8931380356158
MI,26161,Washtenaw,Little Portage Lake,42.4144672896235,-83.9309026948556
MI,26093,Livingston,Portage Lake,42.4251085639073,-83.9139232111865
MI,26093,Livingston,Cordley Lake,42.4488293839808,-83.8723019944845
MI,26093,Livingston,Tamarack Lake,42.4329294695565,-83.8871226265744
MI,26093,Livingston,Bently Lake,42.493655670066,-83.9513407227588
MI,26093,Livingston,Caroga Lake,42.4941428439992,-83.8523114973668
MI,26093,Livingston,Duck Lake,42.4833655479146,-83.9788923475388
MI,26093,Livingston,Roepcke Pond,42.4767489894575,-83.9769047850923
MI,26093,Livingston,Mill Pond,42.4555485488697,-83.9518647731671
MI,26093,Livingston,Barber Lakes,42.4766858052642,-83.9523679315121
MI,26093,Livingston,Lake Mohican,42.4572601940688,-83.8741873557337
MI,26093,Livingston,Rush Lake,42.4722614461036,-83.8828429435518
MI,26093,Livingston,Chilson Impoundment,42.5142988285277,-83.8616115428699
MI,26093,Livingston,Chenango Lake,42.5042331065779,-83.8942352650865
MI,26093,Livingston,Bishop Lake,42.5000847381513,-83.8455181508959
MI,26161,Washtenaw,Independence Lake,42.4066068462747,-83.8027016085708
MI,26161,Washtenaw,Wildwood Lake,42.4172961899583,-83.7742414562363
MI,26093,Livingston,Hamburg Lake,42.4370080239065,-83.7960459573323
MI,26161,Washtenaw,Lawton Lake,42.4283955424859,-83.7335246107083
MI,26161,Washtenaw,Tobin Lake,42.4142041861094,-83.7074400073879
MI,26093,Livingston,Winans Lake,42.4761426624562,-83.8280799747296
MI,26093,Livingston,Gut Lake,42.4708239549671,-83.825651589703
MI,26093,Livingston,Wolf Lake,42.479466160493,-83.809946251223
MI,26093,Livingston,Huron Meadow Metropark Pond,42.4763226620482,-83.7753383293384
MI,26093,Livingston,Maltby Lake,42.488327533987,-83.7758309182993
MI,26093,Livingston,Brighton Lake,42.518802544475,-83.7967933047825
MI,26093,Livingston,Little Appleton Lake,42.5066180804148,-83.8385889692184
MI,26093,Livingston,Murray Lake,42.5094698399303,-83.8216146338749
MI,26093,Livingston,Reed Lake,42.5046618143302,-83.8292869424671
MI,26093,Livingston,Appleton Lake,42.5100015527373,-83.833874939383
MI,26093,Livingston,Baetcke Lake,42.5345798823413,-83.828664589605
MI,26093,Livingston,Lime Lake,42.5283119700833,-83.8089345932065
MI,26093,Livingston,Cunningham Lake,42.5180376319558,-83.8178954358182
MI,26093,Livingston,Dibrova Lake,42.4958821574498,-83.786074978623
MI,26093,Livingston,Leith Lake,42.5243622838421,-83.7960888329382
MI,26093,Livingston,Worden Lake,42.5352274748739,-83.7967367459585
MI,26093,Livingston,Ten Mile Lake,42.4605201947762,-83.7109366080421
MI,26093,Livingston,Green Oak Lake,42.4661909658709,-83.7222637176922
MI,26093,Livingston,Viking Lake,42.4606552110731,-83.7358546569966
MI,26093,Livingston,Fish Lake,42.455041134262,-83.7237165254355
MI,26093,Livingston,Frog Lake,42.4607454878766,-83.7501229802412
MI,26093,Livingston,Silver Fox Lake,42.4780733567624,-83.7229799715545
MI,26093,Livingston,Spring Mill Pond,42.4893676570763,-83.724172415901
MI,26093,Livingston,Mallard Lake,42.4826244332027,-83.7110858623327
MI,26093,Livingston,Fonda Lake,42.514841802529,-83.7515022952034
MI,26093,Livingston,Briggs Lake,42.5127182152167,-83.7312389794193
MI,26093,Livingston,Lake Of The Pines,42.5267709406304,-83.7358416671769
MI,26093,Livingston,Trout Lake,42.5048296998338,-83.6849455517679
MI,26093,Livingston,Wildwing Lake,42.5258801826522,-83.6762522014674
MI,26093,Livingston,Lake Serenity,42.5210506845121,-83.6932576659461
MI,26093,Livingston,East Crooked Lake,42.5476956249148,-83.8460960281953
MI,26093,Livingston,Maxfield Lake,42.6253510404877,-83.7257583686326
MI,26093,Livingston,Durfee Lake,42.5568334375474,-83.7570965165
MI,26093,Livingston,Osborn Lake,42.5845800569147,-83.7670272922565
MI,26093,Livingston,Euler Lake,42.58322692544,-83.8149315978466
MI,26093,Livingston,Blaine Lake,42.6049080418648,-83.7583547074106
MI,26093,Livingston,Ackerman Lake,42.5767650009171,-83.8040551757141
MI,26093,Livingston,Morse Lake,42.5627141630253,-83.802736845693
MI,26093,Livingston,Pete Lake,42.5651315039825,-83.8208611411489
MI,26093,Livingston,Noble Lake,42.544953405382,-83.7762545010372
MI,26093,Livingston,Clark Lake,42.579316820577,-83.7926875397919
MI,26093,Livingston,Grubb Lake,42.6031012074074,-83.7756230071412
MI,26093,Livingston,Divine Lake,42.6069552058485,-83.7703413397289
MI,26093,Livingston,Beach Lake,42.5579940953996,-83.7088750594754
MI,26093,Livingston,School Lake,42.5609176123435,-83.7490663918083
MI,26093,Livingston,Lyons Lake,42.5460830025739,-83.7559699282459
MI,26093,Livingston,Sloan Lake,42.5805326965064,-83.6771547391823
MI,26093,Livingston,Mott Lake,42.5715042342329,-83.6910295512387
MI,26093,Livingston,Bitten Lake,42.603098899541,-83.7451073982832
MI,26093,Livingston,Long Lake,42.6188760392978,-83.7376192503164
MI,26093,Livingston,Silver Lake,42.6287448625538,-83.719063494322
MI,26161,Washtenaw,Golfside Lake,42.2542139111415,-83.6695998570534
MI,26163,Wayne,Susterka Lake,42.2010423380144,-83.5353339017786
MI,26161,Washtenaw,Fleming Lake,42.3089925314466,-83.6542113244382
MI,26161,Washtenaw,Murray Lake,42.328183896946,-83.6048728424236
MI,26161,Washtenaw,Frain Lake,42.3285847697538,-83.6133552154058
MI,26093,Livingston,Lyon Lake,42.4685055597698,-83.6684605915411
MI,26125,Oakland,Kingfisher Lagoon,42.5293465332764,-83.6691636781064
MI,26125,Oakland,Childs Lake,42.5340205754358,-83.5708287621994
MI,26125,Oakland,Sugden Lake,42.6175216720986,-83.4974049090618
MI,26125,Oakland,Teeple Lake,42.6276880158992,-83.5509667198401
MI,26125,Oakland,Pickett Lake,42.5804440800828,-83.6661931831056
MI,26125,Oakland,Sears Lake,42.5918079380525,-83.6524178517337
MI,26125,Oakland,Hunters Lake,42.6009390952929,-83.6401231924081
MI,26125,Oakland,Rowe Lake,42.6145351763119,-83.6449288752506
MI,26125,Oakland,Honeywell Lake,42.6068242854221,-83.6403088513308
MI,26125,Oakland,Phillip Lake,42.5863858384583,-83.6251440156442
MI,26125,Oakland,Hubbell Pond,42.5860828370496,-83.6126158844499
MI,26125,Oakland,Tray Lake,42.6063563437582,-83.5340386244976
MI,26125,Oakland,Lake Ona,42.6146151488008,-83.5427841697923
MI,26125,Oakland,Bogie Lake,42.6191763341559,-83.5056227845541
MI,26125,Oakland,Pickerel Lake,42.6344323614046,-83.6109965492733
MI,26125,Oakland,Downey Lake,42.6442108168758,-83.608114181808
MI,26125,Oakland,Waterbury Lake,42.6449228930277,-83.591710889804
MI,26125,Oakland,Leonard Lake,42.6607232840971,-83.6045429028852
MI,26125,Oakland,Harvey Lake,42.6528348770262,-83.6092973582298
MI,26125,Oakland,Upper Pettibone Lake,42.6661797755553,-83.6125437483691
MI,26125,Oakland,Alderman Lake,42.6535401195449,-83.599736002722
MI,26125,Oakland,Beaty Lake,42.6376415805323,-83.539638006544
MI,26125,Oakland,Haven Hill Lake,42.6442763925993,-83.5559769255401
MI,26125,Oakland,Stison Lake,42.6587383848197,-83.5550365130604
MI,26125,Oakland,Lake Neva,42.6389356312543,-83.5181821368053
MI,26125,Oakland,Brendel Lake,42.6409494119454,-83.5084357500773
MI,26125,Oakland,Mcwithy Lake,42.6543330481128,-83.5017288748786
MI,26125,Oakland,Schmitt Lake,42.7041488105388,-83.5196710460864
MI,26125,Oakland,North Commerce Lake,42.5830253833308,-83.4920343818874
MI,26125,Oakland,Hawk Lake,42.5573119369836,-83.4689102410217
MI,26125,Oakland,Reed Lake,42.5741176060351,-83.4754115043423
MI,26125,Oakland,Stuart Lake,42.5673772585915,-83.4797957235923
MI,26125,Oakland,Woodbridge Lake,42.5733847063708,-83.4837859581204
MI,26125,Oakland,Westwind Lake,42.5663986736631,-83.4358921129819
MI,26125,Oakland,Carus Lake,42.5620471456969,-83.4472778500892
MI,26125,Oakland,Pelletier Lake,42.594157222776,-83.4764548516148
MI,26125,Oakland,Lower Straits Lake,42.5848191176486,-83.4596827696485
MI,26125,Oakland,Mandon Lake,42.6240255870761,-83.4705937889442
MI,26125,Oakland,Carroll Lake,42.6096209785779,-83.4786451699154
MI,26125,Oakland,Little Carroll Lake,42.6073019097685,-83.4768091429882
MI,26125,Oakland,Pitch Haven Lake,42.6196561251306,-83.4797333003812
MI,26125,Oakland,Union Lake,42.6064935338575,-83.4344994000102
MI,26125,Oakland,Flanders Lake,42.5963374379845,-83.4131051150842
MI,26125,Oakland,Cooley Lake,42.6166551192935,-83.455048035563
MI,26125,Oakland,Cross Lake,42.6075715477778,-83.4196884521004
MI,26125,Oakland,Scotch Lake,42.6102194156945,-83.4222587362599
MI,26125,Oakland,Mercedes Lake,42.6135716129759,-83.4225386050416
MI,26125,Oakland,Mirror Lake,42.5707341646557,-83.3852791957119
MI,26125,Oakland,Cedar Island Lake,42.630489652856,-83.4796451859041
MI,26125,Oakland,Oxbow Lake,42.6455986130351,-83.4814416497526
MI,26125,Oakland,Mead Lake,42.6593251527857,-83.4877581798286
MI,26125,Oakland,Tull Lake,42.6508041132265,-83.4666720552282
MI,26125,Oakland,Foxdale Lake,42.6473415510632,-83.4453198580907
MI,26125,Oakland,Fair Lake,42.6871265502384,-83.4930647938695
MI,26125,Oakland,Crosby Lake,42.700683267955,-83.4685128963498
MI,26125,Oakland,Robinson Lake,42.6955353971173,-83.4695658333374
MI,26125,Oakland,Foley Lake,42.6998796516496,-83.464313720512
MI,26125,Oakland,Big Lake,42.7219391033409,-83.5193681797977
MI,26145,Saginaw,Lake Linton,43.4160933250393,-83.9541869326082
MI,26145,Saginaw,Lake Linton Resevoir,43.4124558150631,-83.9578218360883
MI,26161,Washtenaw,Spring Pond,42.1743036682913,-83.650185394836
MI,26139,Ottawa,Lake Macatawa,42.7822219652454,-86.1640957008118
MI,26045,Eaton,Lake Delta,42.6856658688594,-84.6583440352481
MI,26125,Oakland,Pebble Lake,42.6116159854246,-83.1179634882566
MI,26059,Hillsdale,Marsh Lake,41.7197094908898,-84.7848138939826
MI,26077,Kalamazoo,Little Sugarloaf Lake,42.1548763997997,-85.6379108815382
MI,26077,Kalamazoo,Sugarloaf Lake,42.159499207626,-85.6279954931362
MI,26137,Otsego,Pencil Lake,44.944757590181,-84.8348941083529
MI,26137,Otsego,Lake Little Bear,44.953736591062,-84.8092766790445
MI,26077,Kalamazoo,Austin Lake,42.176047059517,-85.5512334811945
MI,26077,Kalamazoo,West Lake,42.1863803258143,-85.5743448746358
MI,26077,Kalamazoo,Hampton Lake,42.1911666921831,-85.6320730170397
MI,26077,Kalamazoo,Long Lake,42.1942902572544,-85.5221590502327
MI,26137,Otsego,Little Fawn Lake,44.954063841928,-84.818903428547
MI,26163,Wayne,Grace Lake,42.2394089677237,-83.4331819702002
MI,26043,Dickinson,West Pond,45.9677020991788,-88.0142247337967
MI,26043,Dickinson,Groveland Mine,45.9932649441385,-87.9821422178278
MI,26043,Dickinson,Toby Lake,45.9646753001532,-87.9456700581835
MI,26099,Macomb,Burlington Lake,42.698528994752,-82.9801079463062
MI,26099,Macomb,Diegel Pond,42.6962222048979,-82.9982609381053
MI,26063,Huron,Rush Lake,43.9692566288252,-83.1703491435646
MI,26043,Dickinson,Rock Lake,45.9103848001593,-87.9317390641653
MI,26043,Dickinson,Toms Lake,45.8991531168579,-87.9419589484451
MI,26043,Dickinson,Petes Lake,45.9036233672349,-87.816417473697
MI,26043,Dickinson,Lost Lake,45.8924564865278,-87.8175313320661
MI,26029,Charlevoix,Susan Lake,45.3248756027227,-85.1819605053521
MI,26047,Emmet,Walloon Lake,45.2877344338942,-84.9941199407976
MI,26123,Newaygo,Little Robinson Lake,43.5255175517913,-85.8311419343354
MI,26123,Newaygo,Robinson Lake,43.5318010371435,-85.8542775203169
MI,26139,Ottawa,Crockery Lake,43.1679952541178,-85.8525099134926
MI,26139,Ottawa,Cranberry Lake,43.1052936785155,-85.7902209804218
MI,26083,Keweenaw,Perch Lake,47.4142180663597,-87.61238790942
MI,26075,Jackson,Vandercook Lake,42.1904920351226,-84.4033842719987
MI,26077,Kalamazoo,Woods Lake,42.2620963399376,-85.6154229027808
MI,26111,Midland,Pentagonal Pond,43.5902066434953,-84.2359057247059
MI,26111,Midland,Tertiary Pond,43.5875777821115,-84.2346804995125
MI,26111,Midland,Rectangular Pond,43.5904867023331,-84.2411772710828
MI,26111,Midland,Midland Cogeneration Venture Cooling Pond,43.5762419345257,-84.2221283263361
MI,26111,Midland,Number 6 Brine Pond,43.5938514199907,-84.2422971085448
MI,26005,Allegan,Lower Scott Lake,42.4886716651253,-86.0741079028922
MI,26161,Washtenaw,Willow Pond,42.3006004164663,-83.6624445347584
MI,26161,Washtenaw,Rash Pond,42.305708797154,-83.6568200764578
MI,26161,Washtenaw,Dix Pond,42.304458545239,-83.656626355502
MI,26163,Wayne,Ackley Pond,42.3042875571639,-83.2243054351108
MI,26125,Oakland,Stewart Lake,42.8188330673187,-83.544742382065
MI,26077,Kalamazoo,Whites Lake,42.2521111911879,-85.6065626077632
MI,26067,Ionia,Morrison Lake,42.861147719512,-85.2114035108371
MI,26037,Clinton,Muskrat Lake,42.911110942505,-84.5892071115973
MI,26121,Muskegon,Sauger Lake,43.4339267996014,-86.2158494495356
MI,26121,Muskegon,Mona Lake,43.1792652571795,-86.2531029396523
MI,26121,Muskegon,Bear Lake,43.2562985373535,-86.2812528834369
MI,26121,Muskegon,Wolf Lake,43.2573364228861,-86.1016857926675
MI,26089,Leelanau,Lake Manitou,45.1274605575057,-86.0241156330457
MI,26105,Mason,Ludington Pumped Storage Reservoir,43.8906829373092,-86.42814257772
MI,26127,Oceana,Silver Lake,43.6678951273549,-86.5029060260732
MI,26127,Oceana,Stony Lake,43.5597624296037,-86.4812043943173
MI,26077,Kalamazoo,Spring Valley Lake,42.3139680220542,-85.5561519121129
MI,26161,Washtenaw,Luna Lake,42.2463327386398,-83.6020063066724
MI,26145,Saginaw,Sweet Berry Creek,43.5221765260429,-83.9249550047292
MI,26015,Barry,Jordan Lake,42.7688946138532,-85.1410005504807
MI,26067,Ionia,Tupper Lake,42.7841393606864,-85.1156215952319
MI,26139,Ottawa,Rushmore Lake,42.8925776838821,-85.8056554224081
MI,26139,Ottawa,Kenowa Lake,42.8954937019316,-85.7846469769893
MI,26139,Ottawa,Georgetown Park Lake,42.8967952222781,-85.798943631132
MI,26097,Mackinac,Lake Mary,45.7740339705803,-84.3975224549124
MI,26097,Mackinac,Duncan Lake,45.7481641338198,-84.4554413176064
MI,26121,Muskegon,Big Britton Lake,43.4428936220369,-86.1958466291259
MI,26121,Muskegon,Grass Lake,43.4354035375869,-86.1978200559189
MI,26055,Grand Traverse,Prescott Lake,44.9648608191731,-85.4957698002956
MI,26121,Muskegon,Little Britton Lake,43.444235574008,-86.2012552366439
MI,26077,Kalamazoo,Axtell Creek,42.2795067078318,-85.5859858079962
MI,26077,Kalamazoo,Pikes Pond,42.2636561261881,-85.6055806128878
MI,26001,Alcona,Cedar Lake,44.5234657733765,-83.3319869554845
MI,26009,Antrim,Torch Lake,44.9673527314425,-85.3111729474756
MI,26055,Grand Traverse,Cox Pond,44.6667268542474,-85.6780377032048
MI,26055,Grand Traverse,Hidden Lake,44.7129196416538,-85.6812947912637
MI,26055,Grand Traverse,Coon Lake,44.7011828584761,-85.5378884790234
MI,26055,Grand Traverse,Denzer Lake,44.6801197025562,-85.4764247035328
MI,26055,Grand Traverse,George Lake,44.6745096293181,-85.5032933506031
MI,26055,Grand Traverse,High Lake,44.687816579786,-85.5158241616947
MI,26055,Grand Traverse,Muncie Lake,44.6800507190957,-85.4445339874858
MI,26055,Grand Traverse,Tibbets Lake,44.690912441162,-85.5102282547051
MI,26055,Grand Traverse,Vandervoight Lake,44.6930093417058,-85.4906830001041
MI,26055,Grand Traverse,Wethea Lake,44.6683432649406,-85.511275866593
MI,26055,Grand Traverse,Rennie Lake,44.669651333016,-85.4640302772952
MI,26055,Grand Traverse,Island Lake,44.6886389845311,-85.4396376258347
MI,26055,Grand Traverse,Spider Lake,44.6782260415937,-85.4916188328079
MI,26121,Muskegon,Brown's Pond,43.4633147051249,-86.2573703257522
MI,26121,Muskegon,Austin Lake,43.3908426799614,-86.2720044439836
MI,26121,Muskegon,Owasippe Lake,43.3965921911209,-86.2768796059662
MI,26121,Muskegon,Mill Pond,43.3878108698971,-86.3509503480296
MI,26153,Schoolcraft,Island Lake,46.1178202247312,-86.2804401683633
MI,26127,Oceana,Gillan Lake,43.5138360125379,-86.2311842532931
MI,26127,Oceana,Blackmer Lake,43.5101634525331,-86.2346524149506
MI,26121,Muskegon,Middle Lake,43.3718094603578,-86.1819683000806
MI,26121,Muskegon,North Lake,43.3764709400409,-86.1812244422345
MI,26121,Muskegon,Crystal Lake,43.3981138758871,-86.2318785025985
MI,26121,Muskegon,Twin Lake,43.3681540199894,-86.1722788155432
MI,26121,Muskegon,Twin Lakes,43.3681540199894,-86.1722788155432
MI,26121,Muskegon,West Lake,43.3694895233854,-86.1906176312416
MI,26121,Muskegon,Dalton Lake,43.3994071613705,-86.2728299781216
MI,26121,Muskegon,Goose Egg Lake,43.378179594301,-86.2135390118064
MI,26089,Leelanau,Duck Lake,44.9923837116087,-85.7725460917745
MI,26077,Kalamazoo,Asylum Lake,42.2668508495733,-85.6408103874576
MI,26105,Mason,Hopkins Lake,43.892067723846,-86.4105937147405
MI,26107,Mecosta,School Section Lake,43.5982421638988,-85.2738009185603
MI,26049,Genesee,Kelly Lake,43.0151644312305,-83.618938745833
MI,26121,Muskegon,Little Goose Egg Lake,43.3812368993634,-86.2128175220236
MI,26139,Ottawa,Savannah Lake,42.7957576370992,-86.0308147077276
MI,26121,Muskegon,Schneider Lake,43.4239510714834,-86.2818286833013
MI,26107,Mecosta,Blue Lake,43.6190218918424,-85.2830760172904
MI,26107,Mecosta,Lake Mecosta,43.6097330594279,-85.2964959835056
MI,26107,Mecosta,Kilkenny Lake,43.5590751228055,-85.3054903627009
MI,26107,Mecosta,Dye Lake,43.6672825556351,-85.1840353186963
MI,26121,Muskegon,Silver Creek Pond,43.4284886094203,-86.2924783572149
MI,26055,Grand Traverse,Ruth Lake,44.6967694263386,-85.7614435698642
MI,26033,Chippewa,Dry Lake,45.9845310067191,-83.6143319172171
MI,26033,Chippewa,Gravel Lake,45.9462181955019,-83.7830857438764
MI,26033,Chippewa,Nasi Lake,45.9855215005457,-83.6843206885812
MI,26033,Chippewa,Pats Lake,45.9596705261639,-83.7243837956652
MI,26033,Chippewa,Squeaky Lake,45.9926141356547,-83.7641889773122
MI,26033,Chippewa,Bass Lake,45.9298010872597,-83.5579662815862
MI,26033,Chippewa,Kempaien Lake,45.9644529679926,-83.7988163120511
MI,26033,Chippewa,Isaacson Lake,45.9506566526887,-83.8010375797694
MI,26033,Chippewa,Jackson Lake,45.9854056153018,-83.8328645922378
MI,26033,Chippewa,Helen Lake,45.9524231611929,-83.7538409261968
MI,26033,Chippewa,Jones Lake,45.9877326690135,-83.8408612777646
MI,26033,Chippewa,Maki Lake,45.9819049744993,-83.7037890127645
MI,26033,Chippewa,Seaman Lake,45.9636591281946,-83.8281934300883
MI,26033,Chippewa,Stringham Lake,46.0005632094694,-83.8431237701687
MI,26033,Chippewa,Toivola Lake,45.9523394409678,-83.6506247618354
MI,26033,Chippewa,Pine Lake,45.926745839655,-83.5889699608504
MI,26033,Chippewa,Boot Lake,45.9752362073007,-83.7644344740613
MI,26033,Chippewa,Parish Lake,45.9802822985928,-83.8498154610975
MI,26033,Chippewa,Second Lake,46.0525471062313,-83.5957619124273
MI,26033,Chippewa,Beaver Dam Pond,45.9591261098661,-83.6862546052022
MI,26033,Chippewa,Beaver Pond,45.9503720537826,-83.5572916063954
MI,26033,Chippewa,Stevens Lake,46.0188201029231,-83.58390090667
MI,26033,Chippewa,Jarvinen Marsh Lake,45.9292096038772,-83.5804790719942
MI,26033,Chippewa,Fourth Lake,46.0109909875282,-83.5600681395598
MI,26033,Chippewa,Dickenson Lake,45.9526050784646,-83.571675834027
MI,26033,Chippewa,Clear Lake,45.9696885979479,-83.5388020771682
MI,26033,Chippewa,Miller Lake,45.981495810534,-83.6940268182402
MI,26033,Chippewa,Loyal Lake,46.0017883187954,-83.6539831467118
MI,26033,Chippewa,First Lake,46.0391402675572,-83.6220805182348
MI,26033,Chippewa,Baileys Lake,45.9671209965579,-83.7533722718977
MI,26033,Chippewa,Third Lake,46.0303941887746,-83.5701348569824
MI,26049,Genesee,Murray Lake,42.7885802677085,-83.8594277073188
MI,26103,Marquette,Autio Lake,46.4696368160099,-87.9186959103751
MI,26013,Baraga,Bass Lake,46.5288382308178,-88.142526013655
MI,26103,Marquette,Beaver Lake,46.3744741815841,-87.9346900155387
MI,26103,Marquette,Bed Spring Lake,46.282887464745,-88.0680980097343
MI,26103,Marquette,Berch Lake,46.333166965336,-88.0588267826292
MI,26103,Marquette,Bertraud Lake,46.2657433947919,-87.4113455275119
MI,26103,Marquette,Big Bear Lake,46.6314411512785,-88.0823949268316
MI,26103,Marquette,Big Lick Lake,46.2994020011849,-87.9551398801569
MI,26103,Marquette,Big Trout Lake,46.3453731375252,-87.3433247281074
MI,26103,Marquette,Bilsky Lake,46.2385773539175,-87.4791879800553
MI,26103,Marquette,Birch Lake,46.4003622551981,-87.8948952831132
MI,26103,Marquette,Bobs Lake,46.2098118570161,-87.4967095691174
MI,26103,Marquette,Boot Lake,46.2944992683111,-87.6350355318949
MI,26103,Marquette,Boys Lake,46.3092576765671,-88.0448374484002
MI,26103,Marquette,Brocky Lake,46.5786070987712,-87.8515260504366
MI,26103,Marquette,Bush Lake,46.5796482859531,-87.9812871695285
MI,26071,Iron,Butler Lake,46.1560656702136,-88.1735406860318
MI,26103,Marquette,Buto Lake,46.4425614649019,-87.996919148484
MI,26043,Dickinson,Cady Lake,46.2018876741795,-87.6934607120971
MI,26103,Marquette,Cameron Lake,46.3095512191387,-87.3407551599149
MI,26043,Dickinson,Cameron Lake,46.2383701802378,-88.0323352717
MI,26071,Iron,Camp Eight Ponds,46.283235175428,-88.3372671925451
MI,26103,Marquette,Camp Eleven Lake,46.6650836016844,-88.0186193810485
MI,26103,Marquette,Camp Fifteen Lake,46.2959943395805,-88.0464653239936
MI,26013,Baraga,Camp Ten Lake,46.6815596946968,-88.1579769164654
MI,26013,Baraga,Cedar Lake,46.6955105553234,-88.0731104786067
MI,26103,Marquette,Chain Lakes,46.2881671629776,-87.6398886314764
MI,26103,Marquette,Chain Of Lakes,46.2680648136261,-87.9308800669814
MI,26013,Baraga,Coon Lake,46.5486441620461,-88.1588915231954
MI,26013,Baraga,Corner Lake,46.6800864142384,-88.0741610135245
MI,26043,Dickinson,Coy Lake,46.23846852922,-88.0922402326075
MI,26103,Marquette,Cranberry Lake,46.3163608428454,-88.0376809560643
MI,26071,Iron,Crotch Lake,46.1855956127058,-88.1600213881172
MI,26103,Marquette,Dashwa Lake,46.4714225477423,-88.0554968002186
MI,26071,Iron,Deer Lake,46.3264917224883,-88.3267712442441
MI,26071,Iron,Diana Pond,46.3407749971981,-88.3274491444659
MI,26103,Marquette,Donaldson Lake,46.3681489421611,-87.9367604570856
MI,26043,Dickinson,Edey Lake,46.1979325356959,-88.0566041379153
MI,26043,Dickinson,Edgar Lake,46.2050003983118,-88.0527435555903
MI,26103,Marquette,Erickson Lake,46.3105423960632,-87.7240836124387
MI,26103,Marquette,Farquar Lake,46.2473982307025,-87.4838193210704
MI,26103,Marquette,Fence Lake,46.2662563244512,-88.1159833485693
MI,26013,Baraga,Fire Lake,46.4999162921872,-88.191450565283
MI,26103,Marquette,Fish Lake,46.4970101492305,-87.9631304412844
MI,26071,Iron,Forty Nine Pond,46.3607273548514,-88.3183384460856
MI,26043,Dickinson,Fox Lake,46.1029392640151,-88.0489716693456
MI,26103,Marquette,Frenchy Lake,46.2984970429092,-87.830679599836
MI,26013,Baraga,George Lake,46.5490936340531,-88.2036757997768
MI,26103,Marquette,Gibson Lake,46.5053682102987,-88.0981909627742
MI,26103,Marquette,Gimse Lake,46.2104563490435,-87.48648463454
MI,26103,Marquette,Glass Lake,46.552644853978,-87.9662407172991
MI,26103,Marquette,Grace Lake,46.4674433319335,-87.4912580396867
MI,26103,Marquette,Granite Lake,46.4464722051991,-87.9665505870876
MI,26103,Marquette,Grant Lake,46.3584747632097,-88.0697648995236
MI,26103,Marquette,Gravel Lake,46.5340385346491,-88.0226706313566
MI,26103,Marquette,Greenier Lake,46.2254316307323,-87.4713642420559
MI,26071,Iron,Hardwood Lake,46.300694244052,-88.2542068142434
MI,26103,Marquette,Harris Lake,46.2594561047763,-88.0561427053008
MI,26103,Marquette,Harvey Lake,46.4330964699017,-87.4833119436516
MI,26103,Marquette,Hasscib Lake,46.6321706026569,-88.0234400786692
MI,26103,Marquette,Hebert Lake,46.6487798447889,-88.1073215376199
MI,26103,Marquette,Helen Lake,46.323322439539,-87.9249241464073
MI,26103,Marquette,Hermit Lake,46.2678758519696,-87.9117249020021
MI,26013,Baraga,High Lake,46.7191547329798,-88.1014508232463
MI,26103,Marquette,Hilltop Lake,46.5772759227188,-88.010921023952
MI,26071,Iron,Hope Lake,46.1170548874187,-88.2746961264453
MI,26103,Marquette,Hot Jack Lake,46.3671138250097,-87.9964318972325
MI,26103,Marquette,Irene Lake,46.2782846891735,-87.3856591448791
MI,26103,Marquette,Juncob Lake,46.4241212446959,-88.0125394727732
MI,26103,Marquette,Just Lake,46.266477286453,-87.9928748272846
MI,26043,Dickinson,Kates Lake,46.2447574434641,-87.6516553726878
MI,26103,Marquette,Kidney Lake,46.2562067531755,-87.6856570427282
MI,26103,Marquette,Kirk Lake,46.4377930624619,-87.9908091705983
MI,26013,Baraga,Knight Lake,46.5927629496205,-88.2384262567499
MI,26013,Baraga,Kortio Lake,46.6278340786864,-88.3441289957031
MI,26013,Baraga,Lake Alice,46.6973481277462,-88.0819270100149
MI,26103,Marquette,Lake Angeline,46.4796527781869,-87.6634587548267
MI,26103,Marquette,Lake Arfelin,46.6288471612027,-88.0601432281355
MI,26103,Marquette,Lake Elizabeth,46.2816775219873,-88.1165516600004
MI,26071,Iron,Lake Ellen,46.1736409656927,-88.1505105583042
MI,26103,Marquette,Lake Gribben,46.4227506558933,-87.5364535325579
MI,26103,Marquette,Lake Lory,46.4742919066919,-87.8772142700594
MI,26103,Marquette,Lake Of The Plains,46.253101504315,-87.9752365894152
MI,26103,Marquette,Lake Sally,46.4709616820894,-87.644621184803
MI,26103,Marquette,Lake Sally Lou,46.6703283121077,-88.084697556139
MI,26103,Marquette,Lake Sixteen,46.5506067373649,-88.0745348093925
MI,26071,Iron,Lake Thirty Two,46.2548503251116,-88.2019186824706
MI,26043,Dickinson,Lake Thirtysix,46.1637727941279,-87.6312317226004
MI,26103,Marquette,Lake Vedder,46.6425103613677,-88.0835252907109
MI,26103,Marquette,Landon Lake,46.2150146489647,-87.5540422134722
MI,26071,Iron,Light Lake,46.205895307846,-88.3310081860598
MI,26103,Marquette,Lily Lake,46.31486818709,-88.0435042569922
MI,26103,Marquette,Little Bear Lake,46.6377957050368,-88.0733305614698
MI,26043,Dickinson,Little Kates Lake,46.243071216883,-87.6719823785076
MI,26071,Iron,Little Lake Ellen,46.1713630491599,-88.1591871765147
MI,26103,Marquette,Little Michigamme Lake,46.509068811974,-88.1148295230676
MI,26103,Marquette,Little Perch Lake,46.3306344007533,-87.7863490416696
MI,26103,Marquette,Little Shag Lake,46.2585010976464,-87.4957510839962
MI,26071,Iron,Little Spring Lake,46.2972942010906,-88.1785227182488
MI,26071,Iron,Little Sundog Lake,46.2869532365771,-88.1184013354529
MI,26103,Marquette,Little Trout Lake,46.3256789635441,-87.3825816156512
MI,26103,Marquette,Little White Goat Lake,46.5996063143884,-88.0715830690659
MI,26071,Iron,Liver Lake,46.2131687493832,-88.3132444983026
MI,26013,Baraga,Long Lake,46.6116398377591,-88.2348682856843
MI,26043,Dickinson,Long Lake,46.1909026437879,-88.0658482548479
MI,26103,Marquette,Loon Lake,46.3006315852053,-87.9356840399625
MI,26103,Marquette,Lotto Lake,46.2552248664823,-88.0890492918663
MI,26103,Marquette,Lower Baraga Lake,46.6687347601649,-88.0443955584309
MI,26103,Marquette,Lowmoor Lake,46.4839017651016,-87.8273792260745
MI,26103,Marquette,Martin Lake,46.3192187390965,-87.3511915856847
MI,26013,Baraga,Middle Lake,46.5514435383891,-88.1728813453824
MI,26103,Marquette,Miller Lake,46.2569914246993,-87.5134928871948
MI,26103,Marquette,Milwaukee Lake,46.396415214869,-87.9624939439894
MI,26071,Iron,Mitchell Lake,46.0943383571469,-88.1374740485672
MI,26013,Baraga,Nelligan Lake,46.5639335418685,-88.135058923883
MI,26013,Baraga,Nelson Lake,46.4949119144559,-88.1773624112276
MI,26103,Marquette,Nirish Lake,46.4489605611977,-88.0144941044645
MI,26103,Marquette,Noren Lake,46.2880420342908,-87.3796528219497
MI,26071,Iron,North Deerskin Lake,46.1842147557788,-88.24756058518
MI,26043,Dickinson,"O""Neil Lake",46.2254093630309,-87.8558132632745
MI,26071,Iron,Otter Lake,46.2529078517411,-88.345322014581
MI,26043,Dickinson,Parlemee Lake,46.2276454463174,-88.0129585306225
MI,26013,Baraga,Pea Soup Lake,46.5312329396712,-88.2270964475359
MI,26103,Marquette,Petcuson Lake,46.3744476661082,-87.9252912198589
MI,26013,Baraga,Petticoat Lake,46.5194419291023,-88.1951990733523
MI,26103,Marquette,Porterfield Lake,46.2650312912826,-87.9494932014916
MI,26043,Dickinson,Railroad Lake,46.1936107079658,-88.0492702467739
MI,26043,Dickinson,Round Lake,46.2117714577322,-88.0748476726704
MI,26013,Baraga,Round Lake,46.6210580280676,-88.2622445077959
MI,26013,Baraga,Ruth Lake,46.5592666035018,-88.2159864713986
MI,26103,Marquette,Sagola Lakes,46.3236510516679,-87.8463303241305
MI,26043,Dickinson,Sawyer Lake,46.1818030077947,-88.0608895403787
MI,26103,Marquette,Section Twenty-Eight Lake,46.619871475687,-88.0585748144832
MI,26103,Marquette,Shag Lake,46.2674540228051,-87.5065234958375
MI,26071,Iron,Shiner Lake,46.2137124385948,-88.159330584146
MI,26103,Marquette,Simons Lake,46.331847453037,-88.0944516859529
MI,26103,Marquette,Skinnies Lake,46.3479420442134,-87.8691761528662
MI,26103,Marquette,Slough Lake,46.2918429013781,-87.4012736541889
MI,26013,Baraga,Smith Lake,46.6572856934416,-88.2142615199073
MI,26103,Marquette,Sporley Lake,46.3337134469163,-87.3399511735072
MI,26071,Iron,Spot Lake,46.2406899347478,-88.1489582174598
MI,26013,Baraga,Spruce Lake,46.5068235695418,-88.1761446924438
MI,26071,Iron,Square Lake,46.3019291820392,-88.3346798566419
MI,26103,Marquette,Strawberry Lake,46.4275871525848,-87.431922572935
MI,26103,Marquette,Stump Lake,46.315646395172,-87.3933290955031
MI,26071,Iron,Sullivan Lake,46.3374330183778,-88.3521776119071
MI,26103,Marquette,Sundog Lake,46.2881998494227,-88.0994483347158
MI,26103,Marquette,Sunson Lake,46.3394556725031,-87.8921281682301
MI,26103,Marquette,Tanglefoot Lake,46.3671800965761,-87.8259566238355
MI,26013,Baraga,Teddy Lake,46.601149290779,-88.2041962647728
MI,26103,Marquette,Third Lake,46.3678419907705,-87.9276423277219
MI,26103,Marquette,Tower Lake,46.4269813053891,-87.9539691123601
MI,26103,Marquette,Trembath Lake,46.5484093921839,-87.8726518194023
MI,26103,Marquette,Twin Lake,46.4638053010885,-87.9981961246601
MI,26043,Dickinson,Van Derlin Lake,46.2146201458541,-87.8474341054251
MI,26103,Marquette,Van Riper Lakes,46.6005313457844,-87.9949220310508
MI,26103,Marquette,Voelker Lake,46.3727920812096,-87.6720544430581
MI,26103,Marquette,Wahlstrom Lake,46.3749091273699,-87.9988656655244
MI,26103,Marquette,Wilson Lake,46.3289609512759,-87.3426544741015
MI,26103,Marquette,Wolf Lake,46.5912218358773,-87.8949130889014
MI,26013,Baraga,Deer Lake,46.5838318317664,-88.2123541559037
MI,26103,Marquette,Bullhead Lake,46.3431719058116,-88.1053006074681
MI,26103,Marquette,Section Thirteen Lake,46.6492490445861,-87.994848854613
MI,26103,Marquette,Saint Clair Lake,46.3285576837204,-87.9976216980683
MI,26103,Marquette,Lake Elinor,46.6325695560827,-88.0939817699364
MI,26013,Baraga,Lake Gordon,46.6969496494659,-88.0367816627403
MI,26013,Baraga,High Life Lake,46.6280393432408,-88.2077750501443
MI,26103,Marquette,Dewey Lake,46.3009534607995,-87.780147863545
MI,26103,Marquette,Swanzy Lake,46.2998950711423,-87.363610526182
MI,26103,Marquette,Boston Lake,46.5091713468969,-87.8249105873276
MI,26013,Baraga,Saint Johns Lake,46.4271666093341,-88.1236545881766
MI,26103,Marquette,Rice Lake,46.2529096615359,-87.3984154122811
MI,26103,Marquette,Lake Miller,46.4735298930021,-87.630754374272
MI,26103,Marquette,Mehl Lake,46.2762054638891,-87.3748815046486
MI,26043,Dickinson,Silver Lake,46.2039155300227,-88.0186441320726
MI,26103,Marquette,Dishno Lake,46.6242066118267,-87.9306874430866
MI,26103,Marquette,Drake Lake,46.3093219808994,-87.7382814627215
MI,26013,Baraga,Clair Lake,46.6252561943653,-88.1893795053139
MI,26103,Marquette,Grass Lake,46.4684020448076,-87.6591798633245
MI,26071,Iron,Polliwog Lake,46.1700346180543,-88.2862411647569
MI,26103,Marquette,Egg Lake,46.4920308635156,-87.9897715826232
MI,26103,Marquette,Chief Lake,46.3166288353535,-88.0849770266877
MI,26103,Marquette,Bengston Lake,46.3508821924644,-87.9618813056502
MI,26103,Marquette,Lake Unky,46.3809215566989,-87.7998806624701
MI,26043,Dickinson,Cassagranda Lake,46.2294222904176,-88.094560573606
MI,26103,Marquette,Duck Lake,46.2530425742445,-87.360667291369
MI,26103,Marquette,Little Bass Lake,46.3162169509653,-87.697221809078
MI,26103,Marquette,Pine Lake,46.2597971406693,-87.4802406440776
MI,26103,Marquette,Koski Lake,46.2666371450475,-87.8697648858942
MI,26043,Dickinson,Floodwood Lakes,46.2203343261251,-88.0255635357118
MI,26103,Marquette,Pickerel Lake,46.253140303677,-88.0729929979562
MI,26071,Iron,Crescent Pond,46.219464302758,-88.1178965763758
MI,26103,Marquette,Moccasin Lake,46.3078307133074,-87.3520291756986
MI,26013,Baraga,Norr Lake,46.593813669874,-88.2642266654437
MI,26103,Marquette,Hay Wire Lake,46.2723775433859,-87.531716063154
MI,26103,Marquette,Haywire Lake,46.306950010283,-88.0211569724884
MI,26103,Marquette,Charley Lake,46.26897325047,-87.6227037388251
MI,26103,Marquette,Arsenault Lake,46.5859403088323,-88.0144482031734
MI,26103,Marquette,Little Chabeneau Lake,46.3140284379061,-87.7553882736332
MI,26103,Marquette,Blairs Lake,46.101501725902,-87.5991977885071
MI,26103,Marquette,Hemmins Lake,46.3334850126151,-87.6817028612204
MI,26013,Baraga,Little Fisher Lake,46.6551068802807,-88.2328505901469
MI,26103,Marquette,Martells Lake,46.2791622776049,-87.9254312940793
MI,26043,Dickinson,Lake Charles,46.2371473581086,-88.0729123207833
MI,26043,Dickinson,Doan Lakes,46.2117323775162,-88.0411968957488
MI,26103,Marquette,Beaver Pond,46.636735611993,-87.9375732591698
MI,26043,Dickinson,Hintz Lake,46.099007784195,-87.7480693378396
MI,26103,Marquette,Twin Lakes,46.2725500755823,-88.0340368708021
MI,26103,Marquette,Little Drake Lake,46.3137989008473,-87.737503635005
MI,26103,Marquette,Lustig Lake,46.3038960800083,-87.9487533494982
MI,26013,Baraga,LeMays Lake,46.5819777131381,-88.2518956665533
MI,26013,Baraga,Perry Lake,46.4436634332394,-88.2458885109612
MI,26103,Marquette,Uncle Tom Lake,46.3807018596942,-87.4546163030489
MI,26103,Marquette,Lone Pine Lake,46.2755072729777,-87.629271591558
MI,26013,Baraga,Tower Lake,46.48236616264,-88.2367005041575
MI,26071,Iron,Bullhead Lake,46.3298949601378,-88.1275708337614
MI,26103,Marquette,Charley Lakes,46.2611877336549,-87.6305177825846
MI,26071,Iron,Hickman Lake,46.2831134368087,-88.1374301242159
MI,26071,Iron,Lake Wallace,46.1719949600107,-88.1374465838263
MI,26013,Baraga,Crooked Lake,46.6040415910622,-88.1571309623224
MI,26013,Baraga,Van Lake,46.5982112144355,-88.2266310207294
MI,26103,Marquette,Four Island Lake,46.6465283296934,-88.0630744344327
MI,26071,Iron,Dishaw Lake,46.2960007070021,-88.1331663081391
MI,26103,Marquette,Springhole Lake,46.3328827645957,-88.0863217252813
MI,26103,Marquette,Hawkins Ponds,46.3551847914082,-87.6488942242733
MI,26013,Baraga,Diana Lake,46.6606891642224,-88.1997618143643
MI,26071,Iron,Crane Lake,46.3343462213045,-88.1909756877423
MI,26103,Marquette,Little Dishno Lake,46.6324339703205,-87.9480192528687
MI,26103,Marquette,Hurt Lake,46.2768133174807,-87.7442947611527
MI,26103,Marquette,Little Chief Lake,46.3143733461675,-88.0962485718865
MI,26103,Marquette,Crooked Lake,46.2662885553465,-87.6002085566137
