st2,GEOID,NAME,lakename,lat,lon
AL,01001,Autauga,Bridge Creek Lake,32.54679619,-86.5104465
AL,01001,Autauga,Camp Tukabatchee Lake,32.5743577,-86.51795219
AL,01001,Autauga,Circle A Ranch Lake,32.58951796,-86.47307057
AL,01001,Autauga,Crane Lake,32.5863918289021,-86.5126059270909
AL,01001,Autauga,Crystal Lake,32.43755865,-86.6405426
AL,01001,Autauga,Eco Pond,32.582888199669,-86.5091505464043
AL,01001,Autauga,Grahamhaven Lake,32.46807355,-86.43413477
AL,01001,Autauga,Idlewild Lake,32.46859532,-86.57337125
AL,01001,Autauga,Jacobs Swamp,32.38207234,-86.49078354
AL,01001,Autauga,Jim Adams Lake,32.39860581,-86.81403294
AL,01001,Autauga,Lake Pearl,32.66088387,-86.84517804
AL,01001,Autauga,O'Dell Lake,32.5318252407386,-86.5013400246171
AL,01001,Autauga,Pickering Lake,32.66111675,-86.90248865
AL,01001,Autauga,Prattville Industrial Board Waste Pond,32.4049794,-86.48443197
AL,01001,Autauga,R E 'Bob' Woodruff Reservoir,32.40307979,-86.50385682
AL,01001,Autauga,Richard Lake,32.34779337,-86.79410855
AL,01001,Autauga,Underwood Lake,32.47138923,-86.76511449
AL,01001,Autauga,Wadsworth Ponds,32.37873939,-86.53770046
AL,01001,Autauga,Walkers Lake,32.57162423,-86.86608008
AL,01001,Autauga,Whirleys Pond,32.55354714,-86.58521141
AL,01003,Baldwin,Alligator Bayou,30.47358364,-87.4386087
AL,01003,Baldwin,Alligator Lake,30.98339266,-87.94620994
AL,01003,Baldwin,Bay Grass,30.72791755,-88.00948827
AL,01003,Baldwin,Bertolli Lake,30.64618886,-87.73579224
AL,01003,Baldwin,Boatyard Lake,31.17174654,-87.85257082
AL,01003,Baldwin,Brickyard Lake,31.27444691,-87.775034
AL,01003,Baldwin,Calvin Childress Number One Lake,30.50583317,-87.73709301
AL,01003,Baldwin,Calvin Childress Number Two Lake,30.50275902,-87.73439588
AL,01003,Baldwin,Clearwater Lake,31.12395396,-87.91838891
AL,01003,Baldwin,Cook Lake,30.51701141,-87.51712378
AL,01003,Baldwin,Coopers Lake,30.62319286,-87.68097764
AL,01003,Baldwin,Dead Lake,30.93473535,-87.88286809
AL,01003,Baldwin,Dead River,31.31113812,-87.80359447
AL,01003,Baldwin,Devils Hole,30.54294779,-87.90112316
AL,01003,Baldwin,Dunn Lake,31.21661474,-87.82059352
AL,01003,Baldwin,Foxfire Lake,30.70834137,-87.90858371
AL,01003,Baldwin,Gator Lake,30.23731787,-87.82125412
AL,01003,Baldwin,Gibson Pond,30.7063123218759,-87.898305896722
AL,01003,Baldwin,Ingram Bayou,30.3178285072205,-87.5551726669173
AL,01003,Baldwin,Justins Bay,30.68101989,-87.93951774
AL,01003,Baldwin,Lake Crosby,30.9284886,-87.72406655
AL,01003,Baldwin,Lake Forest,30.65084912,-87.90060919
AL,01003,Baldwin,Lake Kendrick,30.66589684,-87.68719922
AL,01003,Baldwin,Lake Raynagua,30.59579917,-87.74535806
AL,01003,Baldwin,Lauperouse Lake,30.73307763,-87.8832521
AL,01003,Baldwin,Lily Lake,30.49075765,-87.91025429
AL,01003,Baldwin,Little Bateau Bay,30.72588925,-87.95503805
AL,01003,Baldwin,Little Lagoon,30.24461297,-87.75598542
AL,01003,Baldwin,Lower Fisher Lake,30.96161032,-87.93073027
AL,01003,Baldwin,MacCartees Lake,30.5149705888395,-87.7986414216363
AL,01003,Baldwin,Middle Lake,30.2629698596912,-87.637106311935
AL,01003,Baldwin,Middle River,30.2689897822313,-87.6222711511838
AL,01003,Baldwin,Mimms Lake,31.19327039,-87.85942697
AL,01003,Baldwin,Muiel Lake,30.3603747062858,-87.6335460389927
AL,01003,Baldwin,Oyster Bay,30.27260579,-87.73090743
AL,01003,Baldwin,Pace Lake,30.52141265,-87.5095787
AL,01003,Baldwin,Patterson Lake,31.1614271,-87.70538078
AL,01003,Baldwin,Paul Childress Junior Lake,30.66852864,-87.75705564
AL,01003,Baldwin,Paul Childress Lake,30.60974194,-87.70812134
AL,01003,Baldwin,Reeder Lake,30.48263124,-87.4422309
AL,01003,Baldwin,Roberts Bayou,30.3254085794185,-87.5359532702426
AL,01003,Baldwin,Shelby Lakes,30.26053458,-87.6634453
AL,01003,Baldwin,Sibley Lake,31.26845117,-87.81216382
AL,01003,Baldwin,Silver Lake,31.22074466,-87.85104381
AL,01003,Baldwin,Southfield Lake,31.20014224,-87.85721891
AL,01003,Baldwin,Steelwood Lake,30.70030245,-87.73343201
AL,01003,Baldwin,The T,30.95797351,-87.91034128
AL,01005,Barbour,Adams Millpond,31.75816253,-85.43730432
AL,01005,Barbour,Beaver Pond,31.71220998,-85.53752828
AL,01005,Barbour,Bentons Pond,31.86945629,-85.2822225
AL,01005,Barbour,Burke Ponds,31.66793845,-85.70869825
AL,01005,Barbour,County Lake,31.9669708,-85.4453925
AL,01005,Barbour,Dismukes Pond,32.02617399,-85.34907135
AL,01005,Barbour,Doziers Pond,31.94200244,-85.16371183
AL,01005,Barbour,Duncan Pond,31.62679695,-85.47174327
AL,01005,Barbour,Easterling Pond,31.7132653,-85.60328332
AL,01005,Barbour,Easterlings Pond,31.66026845,-85.62799929
AL,01005,Barbour,Espy Pond,31.74749912,-85.24192844
AL,01005,Barbour,Foys Pond,31.9696058,-85.14110613
AL,01005,Barbour,Garrisons Lake,31.91178349,-85.19049667
AL,01005,Barbour,Grants Duck Pond,32.03290468,-85.40280953
AL,01005,Barbour,Haglers Millpond,31.76258106,-85.5116594
AL,01005,Barbour,Ham Ponds,31.74957049,-85.50890436
AL,01005,Barbour,Hartzog Pond,31.71078019,-85.36257824
AL,01005,Barbour,Jacksons Pond,31.74751747,-85.64827795
AL,01005,Barbour,Kellys Pond,31.67010644,-85.57494278
AL,01005,Barbour,Logue's Pond,31.9591643209973,-85.1295402727627
AL,01005,Barbour,Logues Pond,31.95968317,-85.12819246
AL,01005,Barbour,Louisville Club Pond,31.76737339,-85.4805836
AL,01005,Barbour,Lugo Pond,31.96679284,-85.21349444
AL,01005,Barbour,Martin Pond,31.86960446,-85.36401946
AL,01005,Barbour,McCalls Pond,32.0925503,-85.40169678
AL,01005,Barbour,Prices Ponds,31.71360192,-85.61357619
AL,01005,Barbour,Roberts Pond,31.95298193,-85.12117185
AL,01005,Barbour,Robertson Millpond,31.85676293,-85.52303479
AL,01005,Barbour,Spencers Pond,31.71145159,-85.42278042
AL,01005,Barbour,Spivey Pond,31.66224703,-85.47565654
AL,01005,Barbour,Tews Ponds,31.72382573,-85.5169029
AL,01005,Barbour,Tillmans Pond,31.63216657,-85.58472369
AL,01005,Barbour,Ventress Pond,31.91035,-85.48541592
AL,01005,Barbour,Walter F George Reservoir,31.8251476523207,-85.1656215470885
AL,01005,Barbour,Weston Lake,31.76378781,-85.58791091
AL,01005,Barbour,White Pond,31.73436766,-85.31837248
AL,01005,Barbour,Wilkinson Pond,31.63300086,-85.46031821
AL,01005,Barbour,Wyecott Lake,31.97846232,-85.32717858
AL,01007,Bibb,Beaver Pond,33.2208439891082,-87.1392677843958
AL,01007,Bibb,Bibb County Lake,33.0377874755868,-87.1589505194109
AL,01007,Bibb,Blue Hole,32.91554477,-87.10195532
AL,01007,Bibb,Brimwood Lakes,33.21149532,-87.09734433
AL,01007,Bibb,Crystal Lake,33.06823129,-87.22355015
AL,01007,Bibb,Giles Lake,33.2269400227013,-87.1551623065423
AL,01007,Bibb,Jones Lake,33.09394992,-87.16967439
AL,01007,Bibb,Kimberly Clark Paper Company Lake,33.08111962,-87.04050349
AL,01007,Bibb,Lake Ponderosa,32.91701264,-87.32580432
AL,01007,Bibb,Miller Lake,33.23116243,-87.14605125
AL,01007,Bibb,Pine Lake,33.1805863937392,-87.1537840707988
AL,01007,Bibb,Rockyview Lake,33.07488258,-87.21344311
AL,01007,Bibb,Shady Grove Lakes,33.02729991,-87.16086857
AL,01009,Blount,Adams Lake,33.8496594487114,-86.6120080726893
AL,01009,Blount,Camps Lake,34.06326511,-86.5698514
AL,01009,Blount,Curtis Williams Lake,34.18914074,-86.49494911
AL,01009,Blount,Curtis Williams Upper Lake,34.19224643429,-86.4977792141174
AL,01009,Blount,Doctor Pattons Lower Lake,33.94621361,-86.49934093
AL,01009,Blount,Doctor Pattons Upper Lake,33.94273505,-86.50158189
AL,01009,Blount,Donald Smith Lake,34.103976,-86.60409601
AL,01009,Blount,Forest Ingram Lake,34.08829009,-86.54878516
AL,01009,Blount,Hanna Pond,34.01822207,-86.35446062
AL,01009,Blount,Hazerig Farm Lake,33.98500495,-86.5933101
AL,01009,Blount,Hazerig Lake,33.98178144,-86.58647912
AL,01009,Blount,Hazerig Small Pond,33.98000388,-86.59207727
AL,01009,Blount,Hazerig Upper Pond,33.98580684,-86.58543089
AL,01009,Blount,Highland Lake,33.88724655,-86.42368011
AL,01009,Blount,Ingram Lake,33.9065336964903,-86.4877039886213
AL,01009,Blount,Inland Lake,33.84139236,-86.51634587
AL,01009,Blount,Jay Lake,33.8988764,-86.59261218
AL,01009,Blount,Johnson Farm Lake,33.9099979069699,-86.634408877721
AL,01009,Blount,Lake Pittman,33.76672819,-86.60781147
AL,01009,Blount,Luther Pond,34.00220266,-86.59274478
AL,01009,Blount,Marsh Lake,33.91649339,-86.61481027
AL,01009,Blount,Marsh Pond,33.97066649,-86.62522888
AL,01009,Blount,McCay Lake,33.85475805,-86.77385456
AL,01009,Blount,McKay Lake,33.90546906,-86.40718789
AL,01009,Blount,Moman Lake,34.1624845,-86.41208269
AL,01009,Blount,Mountain Lake,33.78009185,-86.61303211
AL,01009,Blount,Murphree Lake,34.06376904,-86.63808928
AL,01009,Blount,Osborne Lake,34.10099384,-86.53610756
AL,01009,Blount,Reeves Lake,33.93937027,-86.37072624
AL,01009,Blount,Robbins Lake,33.96198828,-86.3892412
AL,01009,Blount,Snead Lake One,34.11328129,-86.32746016
AL,01009,Blount,Snead Lake Two,34.10979341,-86.32167021
AL,01009,Blount,Spradlin Pond,34.12170423,-86.43575424
AL,01009,Blount,Spring Valley Farms Ponds,34.05346809,-86.57860037
AL,01009,Blount,Spring Valley Lakes,33.77340168,-86.64055826
AL,01009,Blount,Spring Valley Pond,34.0517072147219,-86.5777666607769
AL,01009,Blount,Sugarland Lake,33.8976799686739,-86.4075086255564
AL,01009,Blount,Summers Lake,33.92095336,-86.5280127
AL,01009,Blount,Tidwell Lake,33.90866609,-86.61106674
AL,01009,Blount,Vandegrift Pond,33.9850108517804,-86.410809120672
AL,01009,Blount,Wadsworth Lake,33.92149254,-86.35876656
AL,01009,Blount,Whited Lake,33.97053369,-86.48547964
AL,01009,Blount,Wilder Lake,33.90126102,-86.62047862
AL,01009,Blount,Will Engle Lake,33.91805654,-86.41444366
AL,01009,Blount,Woods Lake,33.8812259,-86.75215803
AL,01009,Blount,Youngblood Lake,33.9188668639886,-86.6501856848233
AL,01011,Bullock,Allen Lake,32.06788636,-85.77105404
AL,01011,Bullock,Barnett Lake,32.22234706,-85.87587195
AL,01011,Bullock,Bear Lake,32.05511527,-85.98216472
AL,01011,Bullock,Beckhams Lake,32.14841254,-85.81463275
AL,01011,Bullock,Bentons Lake,32.16973883,-85.70889179
AL,01011,Bullock,Cochrans Lake,32.16821315,-85.68498574
AL,01011,Bullock,Colley Lake,32.09731283,-85.71641635
AL,01011,Bullock,Enon Lake Number One,32.1471476,-85.48734502
AL,01011,Bullock,Enon Lake Number Two,32.15585533,-85.48754286
AL,01011,Bullock,Fishers Lake,32.05650735,-85.61234167
AL,01011,Bullock,Gibson Lake,32.06844089,-85.72827543
AL,01011,Bullock,Goodman Lake,32.06832691,-85.7663565
AL,01011,Bullock,Green Acres Lake,31.91110001,-85.78630358
AL,01011,Bullock,Greens Pond,31.96481346,-85.764957
AL,01011,Bullock,Henderson Lake,32.00110332,-85.79209296
AL,01011,Bullock,Hobbie Lee Lake,32.04313511,-85.67352043
AL,01011,Bullock,Hoff Pond,32.1289037,-85.63613412
AL,01011,Bullock,Lake Forrer Number One,32.20233036,-85.90857416
AL,01011,Bullock,Lake Forrer Number Two,32.19814737,-85.9153659
AL,01011,Bullock,Lake Louise,32.19856716,-85.80810822
AL,01011,Bullock,Martin Lake,32.08614256,-85.76452796
AL,01011,Bullock,Maytags Lake,32.18060729,-85.70047812
AL,01011,Bullock,McCains Lake,32.05626255,-85.48757321
AL,01011,Bullock,Mcclean Lake,32.2171407,-85.56183482
AL,01011,Bullock,McGhee Lake Number Two,32.126233,-85.96381536
AL,01011,Bullock,Mitchell Lake,32.19456164,-85.97184438
AL,01011,Bullock,O H Williams Lake,32.09898562,-85.68012232
AL,01011,Bullock,Old Town Creek Watershed Lake Number 25,32.05326633,-85.80668672
AL,01011,Bullock,Old Town Creek Watershed Lake Number 26,32.05451316,-85.79502538
AL,01011,Bullock,Old Town Creek Watershed Lake Number Thirty-two,32.19390311,-85.7315872
AL,01011,Bullock,Paulk Lake,32.0954112,-85.78852004
AL,01011,Bullock,Pinkston Lake,32.24833651,-85.92732316
AL,01011,Bullock,Rutland Lake,32.24642766,-85.9590934
AL,01011,Bullock,Schorr Lake,32.20919778,-85.66681704
AL,01011,Bullock,Smuteye Lake,32.01180731,-85.64918784
AL,01011,Bullock,Spains Lake,32.29043437,-85.89707656
AL,01011,Bullock,Thad Greens Lake,31.91393026,-85.7626323
AL,01011,Bullock,Tompkins Lake,32.13640561,-85.90378489
AL,01011,Bullock,Varner Lake,32.08193456,-85.67489951
AL,01011,Bullock,White Oak Lake Number One,32.05051167,-85.67356725
AL,01011,Bullock,White Oak Lake Number Two,32.05452335,-85.67360979
AL,01013,Butler,Beaver Pond,31.7965401636892,-86.4589398074087
AL,01013,Butler,Bennett Pond,31.62850368,-86.88362323
AL,01013,Butler,Boucher Lake,31.83174798,-86.5479162
AL,01013,Butler,Bush Pond,31.78615879,-86.74286008
AL,01013,Butler,Casey Pond,31.72287959,-86.83334642
AL,01013,Butler,Container Corporation Lake,31.61702082,-86.73631817
AL,01013,Butler,Cumbies Pond,31.80324515,-86.46136616
AL,01013,Butler,Davenport Pond,31.61322429,-86.59617657
AL,01013,Butler,English Pond,31.77058169,-86.86112826
AL,01013,Butler,Eula B Autrey Lake,31.93543542,-86.63199845
AL,01013,Butler,Golson Lake,31.96076359,-86.56172595
AL,01013,Butler,Greenville Sewage Lagoon,31.7855213,-86.61164104
AL,01013,Butler,Jones Lake,31.848807,-86.51886874
AL,01013,Butler,Lake Alexander,31.59071142,-86.76397891
AL,01013,Butler,Lake Charold,31.76853286,-86.66018145
AL,01013,Butler,Lake Greenville,31.79650144,-86.6242509
AL,01013,Butler,Lake Tanner,31.81320013,-86.54803947
AL,01013,Butler,Luckie Pond,31.82100022,-86.56480429
AL,01013,Butler,Majors Lake,31.52696393,-86.7271896
AL,01013,Butler,McGowin Lake,31.68351854,-86.68602477
AL,01013,Butler,Nall Pond,31.61957744,-86.60444271
AL,01013,Butler,Newton Pond,31.78184768,-86.585514
AL,01013,Butler,Pyror Pond,31.77538384,-86.57706583
AL,01013,Butler,Sherling Lake,31.89700095,-86.68111933
AL,01013,Butler,Skippers Pond,31.63865295,-86.68665374
AL,01013,Butler,Speirs Pond,31.86647586,-86.64074788
AL,01013,Butler,Sportsmen Club Lake,31.85041431,-86.62426819
AL,01013,Butler,Stallworth Pond,31.6670495,-86.65482158
AL,01013,Butler,Stirling Hamilton Lake,31.81330023,-86.59508728
AL,01013,Butler,Thigpens Pond,31.9247641404617,-86.7005739970806
AL,01013,Butler,Thompson Pond,31.88631098,-86.49255344
AL,01013,Butler,Tills Pond,31.76916814,-86.73877185
AL,01013,Butler,Upper Lake,31.89492499,-86.67547823
AL,01013,Butler,Williams Pond,31.78927113,-86.59078658
AL,01013,Butler,Wise Pond,31.63448725,-86.79723134
AL,01013,Butler,Wyrosdick Pond,31.61778684,-86.60178656
AL,01015,Calhoun,Aderholts Lake,33.77868318,-85.76380152
AL,01015,Calhoun,Bells Lake,33.87281212,-85.98057705
AL,01015,Calhoun,Berts Lake,33.72379116,-85.66006819
AL,01015,Calhoun,Big Oak Lake,33.87401752,-85.97981101
AL,01015,Calhoun,Big Pond,33.7701933779002,-85.8569945731945
AL,01015,Calhoun,Blue Pond,33.61023903,-85.80515282
AL,01015,Calhoun,Bonners Lake,33.94623414,-85.83195737
AL,01015,Calhoun,Boozer Lake,33.91699051,-85.71331612
AL,01015,Calhoun,Boozers Lake,33.83294405,-85.80185217
AL,01015,Calhoun,Choccolocco Lake,33.61352369,-85.99399657
AL,01015,Calhoun,Choccolocco Number 11 Lake,33.56859678,-85.74812181
AL,01015,Calhoun,Church Lake,33.90757894,-85.87852665
AL,01015,Calhoun,Coley Lake,33.80959106,-85.9054919
AL,01015,Calhoun,Cone Reservoir,33.63149182,-86.00173202
AL,01015,Calhoun,Crystal Springs Lake,33.85539351,-85.90933656
AL,01015,Calhoun,Darbys Lake,33.75004043,-85.76146553
AL,01015,Calhoun,Doss Lake,33.72116846,-85.86628968
AL,01015,Calhoun,Edwards Lake,33.80027888,-85.85825357
AL,01015,Calhoun,Finks Lake,33.7434035,-85.84281907
AL,01015,Calhoun,Goodwin Lake,33.89968427,-85.76925491
AL,01015,Calhoun,Hamiltons Lake,33.76498277,-85.77509995
AL,01015,Calhoun,Kellys Lake,33.82196083,-85.91528687
AL,01015,Calhoun,Lake Contreras,33.7158467,-85.93347688
AL,01015,Calhoun,Lake Cottaquilla,33.76198187,-85.71446708
AL,01015,Calhoun,Lake Haven,33.89477378,-85.65682113
AL,01015,Calhoun,Lake Hollis,33.89387793,-85.70501245
AL,01015,Calhoun,Lake Watson,33.92895913,-85.67192245
AL,01015,Calhoun,Lees Lake,33.88313501,-85.93029951
AL,01015,Calhoun,Lyles Lake,33.83521721,-86.0409814
AL,01015,Calhoun,McCullars Lake Number 1,33.77687489,-85.93922028
AL,01015,Calhoun,McCullars Lake Number Two,33.78628276,-85.93656999
AL,01015,Calhoun,McGouirk Lake,33.74468871,-86.03716739
AL,01015,Calhoun,Nesbitt Lake,33.85976925,-85.78214135
AL,01015,Calhoun,Overton Lake,33.93015488,-85.75667383
AL,01015,Calhoun,Oxford Lake,33.60895944,-85.81555944
AL,01015,Calhoun,Patterson Lake,33.82958507,-85.86285336
AL,01015,Calhoun,Policemen Lake,33.7733426,-85.81925322
AL,01015,Calhoun,Reilly Lake,33.74762218,-85.78107116
AL,01015,Calhoun,Robertsons Lake,33.60143024,-85.77503487
AL,01015,Calhoun,Rushs Lake,33.59668089,-85.75256111
AL,01015,Calhoun,Samplers Lake,33.84532804,-85.91707592
AL,01015,Calhoun,Saxons Lake,33.80891155,-85.90125658
AL,01015,Calhoun,Shelton Lakes,33.80060161,-85.70106334
AL,01015,Calhoun,Thompson Lake,33.9317516,-85.76686213
AL,01015,Calhoun,Thrift Pond,33.65873953,-85.6426281
AL,01015,Calhoun,Welikee Lake,33.84420237,-85.97707015
AL,01015,Calhoun,Whitesides Mill Lake,33.74198868,-85.65296219
AL,01015,Calhoun,Yahou Lake,33.68627923,-85.80000316
AL,01015,Calhoun,Yarbroughs Lake,33.71058697,-86.07172825
AL,01017,Chambers,Allens Lake,32.99529669,-85.50162621
AL,01017,Chambers,Baker Lake,33.0915705,-85.27176143
AL,01017,Chambers,Browne Lake,32.73206378,-85.47993635
AL,01017,Chambers,Chambers County Public Lake,32.8272276,-85.35286001
AL,01017,Chambers,Cunningham Lake,33.04011777,-85.22807527
AL,01017,Chambers,Edgar Lake,32.76057614,-85.45840322
AL,01017,Chambers,Edge Lake,33.00025534,-85.4992537
AL,01017,Chambers,Flint Hill Lake,32.75374462,-85.34626032
AL,01017,Chambers,Floyds Lake,32.7489899,-85.44016421
AL,01017,Chambers,Grady Lake,33.05192133,-85.3411333
AL,01017,Chambers,High Pine Lake Number 11,33.09819397,-85.439501
AL,01017,Chambers,Hill Lake,32.91893977,-85.23828522
AL,01017,Chambers,Hills Lake,32.87713639,-85.25168571
AL,01017,Chambers,Hudson Lake,33.07646442,-85.23278723
AL,01017,Chambers,J H Hines Lake,32.87227529,-85.42635631
AL,01017,Chambers,Jeff Beards Lake,32.76331755,-85.46634038
AL,01017,Chambers,Jones Lake,32.93128044,-85.22544527
AL,01017,Chambers,Kilpatrick Lake,32.76732167,-85.28266577
AL,01017,Chambers,Kilpatricks Lake,32.73802255,-85.39758958
AL,01017,Chambers,Lafayette Reservoir,32.89002727,-85.45828783
AL,01017,Chambers,Langley Lake,33.0637479,-85.27652856
AL,01017,Chambers,Lanier Lake,32.89285721,-85.20725635
AL,01017,Chambers,Philips Lake,32.85189285,-85.22001062
AL,01017,Chambers,Riverside Number One Lake,32.87159053,-85.21464149
AL,01017,Chambers,Robinson Lake,32.95709774,-85.38639163
AL,01017,Chambers,Royston Lake,33.084165932701,-85.3908501323037
AL,01017,Chambers,Sharpe Lake Number 2,32.99388278,-85.41873846
AL,01017,Chambers,Sharpes Lake,32.99766564,-85.41941675
AL,01017,Chambers,Simmons Lake,32.88918842,-85.22058175
AL,01017,Chambers,Smith and Norred Lake,33.10076079,-85.3985599
AL,01017,Chambers,Stephens Mill Pond,32.74793592,-85.55790352
AL,01017,Chambers,Stricklands Lake,33.09857772,-85.27743462
AL,01017,Chambers,Taunton Lake,32.77971837,-85.20892707
AL,01017,Chambers,Thompson Lake,32.98505187,-85.25843583
AL,01017,Chambers,W C Hines Lake,32.8824496,-85.42638689
AL,01017,Chambers,Watson Lake,32.81983138,-85.25770416
AL,01017,Chambers,Wheeler Lake,32.92223209,-85.3879005
AL,01017,Chambers,White Lake,32.92134165,-85.53065507
AL,01019,Cherokee,Arrington Lake Number 1,33.96415346,-85.43826747
AL,01019,Cherokee,Helms Lake,34.16684792,-85.8095992
AL,01019,Cherokee,La Garde Lake,33.96295742,-85.55108984
AL,01019,Cherokee,Lake Weisner,34.06865705,-85.6751082
AL,01019,Cherokee,McGee Lake,33.97723496,-85.45407953
AL,01019,Cherokee,Norton Lake,34.0167639,-85.5122542
AL,01019,Cherokee,Terrapin Creek Lake Number 17,33.99999272,-85.44662759
AL,01019,Cherokee,Terrapin Creek Lake Number 8,33.99739617,-85.56180153
AL,01019,Cherokee,Weiss Lake,34.1976954,-85.62005835
AL,01019,Cherokee,Woods Lake,34.00325229,-85.62666392
AL,01021,Chilton,Bentleys Lake,32.90460554,-86.73097917
AL,01021,Chilton,Brantley Lake,32.98763337,-86.79799884
AL,01021,Chilton,Fountainhead Lake,32.96262427,-86.69692257
AL,01021,Chilton,Gilberts Lake,33.04421431,-86.74402567
AL,01021,Chilton,Gulf States Columbiana SW Lake,33.02132185,-86.73393564
AL,01021,Chilton,J H Oliver Lake,33.01967402,-86.87065323
AL,01021,Chilton,Jim Oliver Pond,33.02139947,-86.82790928
AL,01021,Chilton,Lay Lake,33.05603178,-86.62580553
AL,01021,Chilton,Lightfoot Lake,32.71396067,-86.45400973
AL,01021,Chilton,Livingston Lake,32.81539568,-86.47159473
AL,01021,Chilton,Nix Lake,32.79066002,-86.88137099
AL,01021,Chilton,Shechi Lakes,33.01352372,-86.82747476
AL,01021,Chilton,Shelton Barkley Lake,32.78899012,-86.58457955
AL,01021,Chilton,T J Stewart Lake,32.80962181,-86.58105768
AL,01023,Choctaw,City of Butler Sewage Lagoon,32.06495555,-88.21381626
AL,01023,Choctaw,Coffeeville Lake,32.1029637,-88.05611384
AL,01023,Choctaw,Coker Bend Lake,31.82731938,-88.21181244
AL,01023,Choctaw,Cowans Pond,31.92786881,-88.09757372
AL,01023,Choctaw,Donald Hesselman Lake,32.1917018,-88.23119565
AL,01023,Choctaw,Final Mill Effluent Treatment Pon,32.2189218,-88.01198329
AL,01023,Choctaw,Hannah Lake,32.13575785,-88.24011058
AL,01023,Choctaw,John Green Pond,31.8531121,-88.43097707
AL,01023,Choctaw,Judys Slough,31.83654588,-88.1740714
AL,01023,Choctaw,Lake Meadow,32.06911274,-88.29452731
AL,01023,Choctaw,Mosleys Lake,31.98686848,-88.21629332
AL,01023,Choctaw,Norwood Pond,32.15162097,-88.08955149
AL,01023,Choctaw,Watters Lake,32.14494892,-88.08422495
AL,01025,Clarke,Alligator Slide,31.23274422,-87.92197858
AL,01025,Clarke,Bear Lake,31.30274053,-87.94154551
AL,01025,Clarke,Big Duck Roost,31.30264401,-87.94957036
AL,01025,Clarke,Bunny Lake,31.98425743,-88.05893933
AL,01025,Clarke,Burge Lake,31.70799349,-87.83500922
AL,01025,Clarke,City of Jackson Sewage Lagoon,31.49101826,-87.88203491
AL,01025,Clarke,Doctor Lake,31.20203997,-87.92490948
AL,01025,Clarke,Driesbach Lake,31.28897698,-87.80733726
AL,01025,Clarke,Dunlap Lake,31.3413862,-87.88738196
AL,01025,Clarke,Fishing Lake,31.25959148,-87.9476067
AL,01025,Clarke,Gander Lake,31.29237096,-87.9263044
AL,01025,Clarke,Gillis Lake,31.69795202,-87.78819286
AL,01025,Clarke,Ginhouse Lake,31.3269262,-87.9017096
AL,01025,Clarke,Hodges Pond,31.72016563,-88.03900513
AL,01025,Clarke,Horsepen Creek,31.22867596,-87.90645919
AL,01025,Clarke,J D Phillips Lake,31.87989759,-87.78580924
AL,01025,Clarke,Lake Crow,31.88758108,-87.70923258
AL,01025,Clarke,Lake Daddy Jim Spring,31.5744527,-87.84266204
AL,01025,Clarke,Lake Harringan,31.73435234,-87.73885671
AL,01025,Clarke,Lower Duck Pond,31.30743091,-87.92190303
AL,01025,Clarke,Maubila Boy Scout Lake,31.61389944,-87.81560778
AL,01025,Clarke,N S Haltam Lake,31.98035567,-87.94171108
AL,01025,Clarke,Opine Lake,31.90391543,-87.96088705
AL,01025,Clarke,Pugh Lake,31.73031373,-87.84254332
AL,01025,Clarke,Round Pond,31.66000809,-88.05238447
AL,01025,Clarke,S C M Waste Treatment Pond,31.48527454,-87.90200478
AL,01025,Clarke,Scotch Club Lake,31.79463298,-87.76434219
AL,01025,Clarke,Singleton Lake,31.24988907,-87.87977158
AL,01025,Clarke,Solomons Lake,31.80266958,-87.80333048
AL,01025,Clarke,South Lake,31.26965195,-87.90388439
AL,01025,Clarke,Thomasville Sewer Lagoon,31.88463555,-87.74032869
AL,01025,Clarke,W D Harrigan and Eunice Woods Lake,31.62340544,-87.62599388
AL,01027,Clay,Bolton Lake,33.22689171,-85.96829842
AL,01027,Clay,Bonner Lake,33.38447614,-85.81077645
AL,01027,Clay,Burchfield Lake,33.39716042,-85.79726731
AL,01027,Clay,Center Hill Lake,33.39826828,-85.70573568
AL,01027,Clay,Clarks Lake,33.36114138,-85.76578
AL,01027,Clay,Clay County Lake,33.43054854,-85.70306096
AL,01027,Clay,Jacksons Lake,33.21425925,-85.9193016
AL,01027,Clay,Lake Chinnabee,33.46304585,-85.87579652
AL,01027,Clay,Lake David,33.38663291,-85.74737398
AL,01027,Clay,Lake Gerald,33.43317352,-85.67436472
AL,01027,Clay,Lake Henry,33.47291018,-85.76862334
AL,01027,Clay,Lake Pruitt,33.24116756,-85.94579455
AL,01027,Clay,Lake Virginia,33.43462889,-85.69710989
AL,01027,Clay,Letts Lakes,33.3648175,-85.80631245
AL,01027,Clay,Martins Lake,33.18823888,-85.89363129
AL,01027,Clay,Newburys Pond,33.31623038,-85.92479979
AL,01027,Clay,Upper State Lake,33.4360302,-85.70924776
AL,01029,Cleburne,Abel Lake,33.54283513,-85.68645465
AL,01029,Cleburne,Beecham Lake,33.93904495,-85.47305259
AL,01029,Cleburne,Bonner Lake,33.62822987,-85.6324219
AL,01029,Cleburne,Boy Scout Lake,33.51972023,-85.6670128
AL,01029,Cleburne,Cheaha Lake,33.47298607,-85.82195116
AL,01029,Cleburne,Choccolocco Creek Lake Number 7,33.74638402,-85.57853373
AL,01029,Cleburne,Coleman Lake,33.78193072,-85.5604717
AL,01029,Cleburne,Creighton Number 2 Lake,33.54604387,-85.65647485
AL,01029,Cleburne,Esterlings Lake,33.605028,-85.71304879
AL,01029,Cleburne,Gold Mine Lakes,33.54142537,-85.63932174
AL,01029,Cleburne,Highrock Lake,33.71653327,-85.62306458
AL,01029,Cleburne,Lake Charles,33.67552444,-85.55699697
AL,01029,Cleburne,Lake Cleburne,33.60674578,-85.53738493
AL,01029,Cleburne,Lake Edmond,33.54946647,-85.67539807
AL,01029,Cleburne,Lake Heflin,33.64053926,-85.580027
AL,01029,Cleburne,Laminack Lake,33.7391014,-85.3940309
AL,01029,Cleburne,Lost Creek Lake Number 1,33.57562281,-85.33670276
AL,01029,Cleburne,Lost Creek Lake Number 2,33.5710344,-85.34684717
AL,01029,Cleburne,Lost Creek Lake Number 3,33.5552631,-85.35724579
AL,01029,Cleburne,Lost Creek Lake Number 4,33.54111146,-85.36923834
AL,01029,Cleburne,Mineral Spring Pond,33.95913287,-85.42073763
AL,01029,Cleburne,Morgan Lake,33.5594066,-85.72498885
AL,01029,Cleburne,Mountain Brook Lake,33.74488919,-85.51129686
AL,01029,Cleburne,Nelsons Lake,33.74596702,-85.43659705
AL,01029,Cleburne,Old CCC Reservoir,33.4842061371904,-85.8132328526471
AL,01029,Cleburne,Owens Lake,33.69634153,-85.55753291
AL,01029,Cleburne,Robinson Lake,33.60134678,-85.63676296
AL,01029,Cleburne,Robinson Lake Number 2,33.51047913,-85.37254425
AL,01029,Cleburne,Snows Lake,33.94021183,-85.39809804
AL,01029,Cleburne,Terrapin Creek Lake Number 15,33.88559933,-85.48161604
AL,01029,Cleburne,Terrapin Creek Lake Number 22,33.8773066,-85.43008719
AL,01029,Cleburne,Thomas Lake,33.64659358,-85.61642393
AL,01029,Cleburne,Trudy Lake,33.57998526,-85.72783046
AL,01029,Cleburne,Twin Lakes,33.57874951,-85.65371713
AL,01029,Cleburne,White Lake Number 1,33.57535917,-85.68308505
AL,01029,Cleburne,White Lake Number 2,33.57337875,-85.68331191
AL,01031,Coffee,Babes Pond,31.44150437,-86.05090118
AL,01031,Coffee,Carpenters Pond,31.49383201,-86.16219956
AL,01031,Coffee,Club Pond,31.5072699,-86.14504887
AL,01031,Coffee,County Lake,31.47316005,-86.14986192
AL,01031,Coffee,Devaughn Lake,31.3948016483826,-86.0068200055884
AL,01031,Coffee,Donaldson Pond,31.42279168,-86.19534916
AL,01031,Coffee,Elba Country Club Lake,31.4384232,-86.09824709
AL,01031,Coffee,Ellis Wise Lake,31.26824754,-86.0245898
AL,01031,Coffee,Enterprise Country Club Lake,31.3576035,-85.82134948
AL,01031,Coffee,Essayons Lake,31.42137872,-85.85827648
AL,01031,Coffee,Gateway Lake,31.38126606,-85.86229721
AL,01031,Coffee,Griffith Lake,31.30606214,-85.87409909
AL,01031,Coffee,Hollis Pond,31.40906808,-85.88692348
AL,01031,Coffee,Jackson Pond,31.52867194,-86.01132072
AL,01031,Coffee,James Wise Pond,31.2107244210388,-86.0646951553882
AL,01031,Coffee,Jimmy Henderson Pond,31.24428686,-85.84669262
AL,01031,Coffee,Lake Baker,31.3724216216085,-85.8518026589463
AL,01031,Coffee,Lake Charles,31.33833215,-85.83567031
AL,01031,Coffee,Lake Fox,31.1972039,-85.85625292
AL,01031,Coffee,Lake Lorene,31.4175092,-86.10406455
AL,01031,Coffee,Lake Zion,31.56542415,-86.00867787
AL,01031,Coffee,Mallory Lake,31.26632816,-86.1914067
AL,01031,Coffee,National Security Lake,31.3858428719986,-86.1251796611758
AL,01031,Coffee,Nolin Lake,31.48103815,-85.90494922
AL,01031,Coffee,Paschal Pond,31.26877195,-85.85045332
AL,01031,Coffee,Pittman Brothers Lake,31.42505859,-85.86946182
AL,01031,Coffee,Porters Lake,31.34508529,-85.82865668
AL,01031,Coffee,Prestwood Millpond,31.60013519,-85.84657229
AL,01031,Coffee,Ridgeway Lake,31.39053857,-86.00658018
AL,01031,Coffee,Sawyer Lake,31.43468525,-85.91237921
AL,01031,Coffee,Sessions Pond,31.24297127,-86.02245949
AL,01031,Coffee,Shiloh Lake,31.3748877,-86.08772782
AL,01031,Coffee,Smith Brothers Pond,31.26514937,-85.87184876
AL,01031,Coffee,Stump Pond,31.23537733,-86.12636693
AL,01031,Coffee,Whitman Pond,31.45677189,-86.15618434
AL,01033,Colbert,Alcock Pond,34.6993246,-87.60252718
AL,01033,Colbert,Asphalt Lake,34.68461211,-88.01840096
AL,01033,Colbert,Blue Pond,34.68698056,-87.4810098
AL,01033,Colbert,Burney Pond,34.70818282,-87.4714924
AL,01033,Colbert,Crutch Pond,34.71801552,-87.45052539
AL,01033,Colbert,Garrets Lake,34.65089916,-87.80769915
AL,01033,Colbert,Haw Pond,34.7370047,-87.58884818
AL,01033,Colbert,Horselot Pond,34.67258197,-87.48863599
AL,01033,Colbert,Hyde Lake,34.57156116,-87.68191603
AL,01033,Colbert,Johnson Lake,34.71970095,-87.47206993
AL,01033,Colbert,Nichols Pond,34.70120761,-87.48356799
AL,01033,Colbert,Pickwick Lake,34.90227715,-88.03874328
AL,01033,Colbert,Poplar Pond (historical),34.73305159,-87.5266592
AL,01033,Colbert,Riley Pond,34.68877697,-87.54676677
AL,01033,Colbert,Sink Pond,34.68006853,-87.54217071
AL,01033,Colbert,White Lake (historical),34.88819263,-88.04621563
AL,01033,Colbert,Williams Pond,34.76266761,-87.91330282
AL,01033,Colbert,Wilson Lake,34.81679228,-87.50592911
AL,01033,Colbert,Winston Quarters Pond,34.70160488,-87.45095151
AL,01035,Conecuh,Alvin Mixon Lake,31.69680113,-86.95298708
AL,01035,Conecuh,Baggett Pond,31.48033692,-87.08737881
AL,01035,Conecuh,Blackmons Pond,31.58469272,-87.09005494
AL,01035,Conecuh,Brantley Pond,31.43565149,-87.13265144
AL,01035,Conecuh,Carter Lake,31.29210003,-87.04519772
AL,01035,Conecuh,Ed Pond,31.27906361,-86.95182534
AL,01035,Conecuh,Freeman Lake,31.36383286,-87.16372873
AL,01035,Conecuh,L Pond,31.26859239,-86.9477809
AL,01035,Conecuh,Lake Shirley,31.50417754,-86.95865239
AL,01035,Conecuh,McMillan Pond,31.36110208,-86.96165311
AL,01035,Conecuh,Moody Lake,31.43170153,-86.93309698
AL,01035,Conecuh,Morgans Pond,31.44172009,-86.96424647
AL,01035,Conecuh,Old Country Club Pond,31.36500274,-86.93026252
AL,01035,Conecuh,Pate Pond,31.30417353,-86.72106478
AL,01035,Conecuh,Shipps Pond,31.28499838,-86.94665845
AL,01035,Conecuh,Stowers Number Two Lake,31.41944843,-87.02208579
AL,01035,Conecuh,Stowers Pond,31.42652321,-87.02391349
AL,01035,Conecuh,Stump lake,31.3552852073126,-87.1802684611624
AL,01035,Conecuh,Thurmond Pond,31.34122053,-87.05273375
AL,01035,Conecuh,W J Ellis Lake,31.2613941,-87.03002117
AL,01035,Conecuh,Weaver Pond,31.26458806,-86.95108385
AL,01035,Conecuh,Wingard Pond,31.51136035,-86.71164133
AL,01035,Conecuh,Witheringtons Pond,31.52521668,-87.00280446
AL,01037,Coosa,Baker Creek Lagoon,33.0421929,-86.04589583
AL,01037,Coosa,Browning Pond,32.78387594,-86.30526978
AL,01037,Coosa,Dunlaps Lake,32.89798108,-86.16651879
AL,01037,Coosa,Dunnings Pond,32.88703093,-86.03596454
AL,01037,Coosa,Griffin Harris Lake,33.08845051,-86.03964159
AL,01037,Coosa,Holdridge Pond,32.95250372,-86.021245
AL,01037,Coosa,Howards Pond,32.89688632,-86.1771444
AL,01037,Coosa,Jordan Lake,32.93204722,-86.04930585
AL,01037,Coosa,Kauls Lake,33.09348246,-86.31408757
AL,01037,Coosa,Lay Lake,32.94626871,-86.4434272
AL,01037,Coosa,Mitchell Lake,32.86811761,-86.45520716
AL,01037,Coosa,Newberrys Pond,32.86957299,-86.0273863
AL,01037,Coosa,Nibletts Pond,32.97388594,-86.01328551
AL,01037,Coosa,Peoples Lake Number 2,33.05484074,-86.08896333
AL,01037,Coosa,Swan Lake,32.96967334,-86.0108092
AL,01037,Coosa,Thomas Lake,33.0669203,-86.28307531
AL,01037,Coosa,Walls Lake,32.99847234,-86.06146354
AL,01039,Covington,Adams Pond,31.22216942,-86.29805738
AL,01039,Covington,Alligator Pond,31.08480674,-86.55085789
AL,01039,Covington,Aughtman Pond,31.30588447,-86.58184694
AL,01039,Covington,Barkers Pond,31.25866075,-86.24842653
AL,01039,Covington,Barrow Pond,31.27640782,-86.54902353
AL,01039,Covington,Bear Bay,31.1033149,-86.63947755
AL,01039,Covington,Blackmon Pond,31.30808924,-86.58343245
AL,01039,Covington,Blue Lake,31.11305929,-86.55299729
AL,01039,Covington,Brantwood Pond,31.22844927,-86.53391373
AL,01039,Covington,Browns Pond,31.09898153,-86.56966751
AL,01039,Covington,Bryant Pond,31.47979004,-86.56817862
AL,01039,Covington,Buck Pond,31.08960468,-86.54276237
AL,01039,Covington,Cravey Ponds,31.13057375,-86.37512297
AL,01039,Covington,Craw Pond,31.14503216,-86.34569689
AL,01039,Covington,Danley Park Lake,31.2157315,-86.29042505
AL,01039,Covington,Day Pond,31.2176301912352,-86.2970333720757
AL,01039,Covington,Ditch Pond,31.09079169,-86.54059031
AL,01039,Covington,Dogwood Lake,31.21015909,-86.55517363
AL,01039,Covington,Donaldson Pond,31.34607379,-86.27443
AL,01039,Covington,Dowdy Pond,31.08319731,-86.5621579
AL,01039,Covington,Finks Millpond,31.00077988,-86.1883059
AL,01039,Covington,Franklin Lake,31.375781,-86.38704705
AL,01039,Covington,Franklin Pond,31.49694622,-86.4332746
AL,01039,Covington,Fuqua Pond,31.27161511,-86.56749977
AL,01039,Covington,Gantt Millpond,31.41618167,-86.42129109
AL,01039,Covington,Gibeaut Lake,31.29607983,-86.19895382
AL,01039,Covington,Gum Pond,31.15222929,-86.57234144
AL,01039,Covington,Gunters Pond,31.16586165,-86.5043344
AL,01039,Covington,Harrelson Pond,31.22489754,-86.50582611
AL,01039,Covington,Helms Pond,31.16638024,-86.5086722
AL,01039,Covington,Hendley Lake,31.02407099,-86.6136629
AL,01039,Covington,Hillcrest Pond,31.19883338,-86.40958352
AL,01039,Covington,Hillcrest Ponds,31.19576961,-86.41024022
AL,01039,Covington,Holley Pond,31.01046457,-86.24823197
AL,01039,Covington,Huckabaa Pond,31.08438922,-86.41613698
AL,01039,Covington,Hudgens Pond,31.21489999,-86.27871676
AL,01039,Covington,Indigo Ponds,31.19447078,-86.59074268
AL,01039,Covington,Ingram Pond,31.47581801,-86.56334286
AL,01039,Covington,Kelley Pond,31.23759487,-86.5485335
AL,01039,Covington,Kilpatrick Pond,31.40593928,-86.57071843
AL,01039,Covington,Lake Frank Jackson,31.3176084697839,-86.2699631257133
AL,01039,Covington,Lake Jackson,30.99435293,-86.3253441
AL,01039,Covington,Lee Pond,31.46686788,-86.67680414
AL,01039,Covington,Little Okeechobee Pond,31.22707062,-86.45714958
AL,01039,Covington,Little Pond,31.41281999,-86.575691
AL,01039,Covington,Maddox Ponds,31.17856172,-86.4489649
AL,01039,Covington,Martin Pond,31.31559813,-86.56676026
AL,01039,Covington,Mossy Ponds,31.13990523,-86.6009583
AL,01039,Covington,Nall Pond,31.47923163,-86.5703906
AL,01039,Covington,Nellie Ponds,31.15708298,-86.55570217
AL,01039,Covington,Norris Pond,31.08587388,-86.24161109
AL,01039,Covington,Open Pond,31.09151482,-86.54839503
AL,01039,Covington,Opp Fishing Club Lake,31.29105264,-86.2335768
AL,01039,Covington,Otter Pond,31.11382295,-86.62906393
AL,01039,Covington,Pineview Lake,31.30246509,-86.46070372
AL,01039,Covington,Point A Reservoir,31.373890591065,-86.5076317860494
AL,01039,Covington,Posey Pond,31.35757782,-86.59099608
AL,01039,Covington,Radford Ponds,31.37296257,-86.39797378
AL,01039,Covington,Rome Pond,31.14377388,-86.67456514
AL,01039,Covington,Roy Cook Ponds,31.00618736,-86.69733264
AL,01039,Covington,Salt Pond,31.17048975,-86.5381342
AL,01039,Covington,Sims Pond,31.4600834,-86.4284606
AL,01039,Covington,Taylor Pond,31.23278666,-86.36082472
AL,01039,Covington,Thomas Pond,31.02494096,-86.30553602
AL,01039,Covington,Williams Pond,31.25391264,-86.24506566
AL,01039,Covington,Willow Wood Pond,31.37893706,-86.5581121
AL,01039,Covington,Wise Pond,31.18674392,-86.20322282
AL,01039,Covington,Woodham Pond,31.17148438,-86.40133222
AL,01041,Crenshaw,Bailey Lakes,31.56799395,-86.22219118
AL,01041,Crenshaw,Bealls Pond,31.61563942,-86.25270686
AL,01041,Crenshaw,Bodifords Lake,31.85153247,-86.28278152
AL,01041,Crenshaw,Bozeman Pond,31.69052669,-86.19831157
AL,01041,Crenshaw,Bryans Pond,31.57227554,-86.15040846
AL,01041,Crenshaw,Byrds Pond,31.77857344,-86.17794107
AL,01041,Crenshaw,Clark Lake,31.5147521,-86.34193625
AL,01041,Crenshaw,Crenshaw County Public Lake,31.65163946,-86.27273554
AL,01041,Crenshaw,Firemen Lake,31.7167133,-86.2327437
AL,01041,Crenshaw,Folmars Pond,31.61010091,-86.2177403
AL,01041,Crenshaw,Folmer Ponds,31.72671864,-86.17184608
AL,01041,Crenshaw,Halls Pond,31.64255093,-86.29062251
AL,01041,Crenshaw,Hudson Pond,31.9211348572054,-86.421144322524
AL,01041,Crenshaw,Keelough Pond,31.68513571,-86.38944143
AL,01041,Crenshaw,Lake Bradleyton,31.92948543,-86.25399141
AL,01041,Crenshaw,Lake Jane,31.86541003,-86.44121934
AL,01041,Crenshaw,Lake Norman,31.57133716,-86.22407365
AL,01041,Crenshaw,Limesink Pond,31.68826691,-86.24061666
AL,01041,Crenshaw,Masseys Pond,31.83529272,-86.42035
AL,01041,Crenshaw,Mays Pond,31.92321414,-86.21100384
AL,01041,Crenshaw,McGough Pond,31.90530583,-86.4347478
AL,01041,Crenshaw,Moodys Lake,31.73334481,-86.3782346
AL,01041,Crenshaw,Morgan Pond,31.96509179,-86.25788152
AL,01041,Crenshaw,Morris Pond,31.68953826,-86.31341565
AL,01041,Crenshaw,Paynes Pond,31.9568827,-86.28935151
AL,01041,Crenshaw,Petrey Pond,31.88283285,-86.21619157
AL,01041,Crenshaw,Rays Pond,31.71574611,-86.23810323
AL,01041,Crenshaw,Ropers Pond,31.85610527,-86.435111
AL,01041,Crenshaw,Russells Pond,31.75788275,-86.43749317
AL,01041,Crenshaw,Rutledge Lake,31.77563073,-86.25034006
AL,01041,Crenshaw,Sluggs Lake,31.72831264,-86.20930835
AL,01041,Crenshaw,Smiths Lake,31.59535133,-86.26881113
AL,01041,Crenshaw,Thagard Pond,31.60166236,-86.25837284
AL,01041,Crenshaw,The Beaver Pond,31.82625564,-86.19532038
AL,01041,Crenshaw,Thomas Pond,31.8678138526788,-86.3339519933453
AL,01041,Crenshaw,Trotter Pond,31.89966721,-86.24002012
AL,01041,Crenshaw,Tuckers Pond,31.87159352,-86.39478912
AL,01041,Crenshaw,Wallaces Pond,31.59229524,-86.23156354
AL,01041,Crenshaw,Weed Pond,31.51398004,-86.22313438
AL,01043,Cullman,Browns Pond,34.19386618,-86.96660887
AL,01043,Cullman,Clover Valley Pond,34.08213776,-86.93649179
AL,01043,Cullman,Darrell Parker Pond,34.25503989,-86.92314032
AL,01043,Cullman,Davis Lake,34.18250783,-86.83508418
AL,01043,Cullman,Duck Pond,34.0562878595937,-86.7624165849684
AL,01043,Cullman,Eva Road Lake,34.1989652,-86.83798921
AL,01043,Cullman,Forest Ingram Lake,34.15959239,-86.7658614
AL,01043,Cullman,Harbisons Pond,34.20264464,-87.07312716
AL,01043,Cullman,Hart Lake,34.1511634,-86.8198919
AL,01043,Cullman,Hayes Lake,34.20904539,-86.86611405
AL,01043,Cullman,Hollis Pond,34.00672565,-86.94351135
AL,01043,Cullman,Ingram Arkadelphia Lake,33.92201555,-86.91211003
AL,01043,Cullman,Lake Ege,34.19643397,-86.66196962
AL,01043,Cullman,Lewis Smith Lake,34.03541923,-86.95709738
AL,01043,Cullman,Lick Creek Pond,34.13534189,-87.03457255
AL,01043,Cullman,Shaw Lake,34.14282253,-86.65723475
AL,01043,Cullman,Sportman Lake,34.19067676,-86.86130009
AL,01043,Cullman,Twin Fork Lake,34.18497241,-86.73094029
AL,01043,Cullman,Wallace Hathcock Lake,34.11555083,-86.87468247
AL,01043,Cullman,Whites Pond,34.20044196,-86.98075149
AL,01045,Dale,Acherman Pond,31.36667886,-85.476713
AL,01045,Dale,Ammons Pond,31.44442379,-85.47336123
AL,01045,Dale,Barfield Lake,31.47773209,-85.43339391
AL,01045,Dale,Beaver Lake,31.34029511,-85.69858149
AL,01045,Dale,Buckhorn Lake,31.332510924966,-85.6759861458659
AL,01045,Dale,D A Deloney Lake Number Two,31.45954698,-85.67463516
AL,01045,Dale,Dale County Public Lake,31.47918369,-85.63195179
AL,01045,Dale,Ech Lake,31.4034291599071,-85.7559224585616
AL,01045,Dale,Harris Pond,31.43481283,-85.49655045
AL,01045,Dale,Howell Pond,31.30969397,-85.45594108
AL,01045,Dale,James Crooks Lake,31.37671029,-85.57364441
AL,01045,Dale,Jernegans Pond,31.49896346,-85.64977836
AL,01045,Dale,Johnsons Pond,31.47032167,-85.59539322
AL,01045,Dale,Lake Arthur,31.4080283,-85.47693239
AL,01045,Dale,Lake Tholocco,31.40116934,-85.71468533
AL,01045,Dale,Newton Pond,31.43545907,-85.51952734
AL,01045,Dale,Parker Lakes,31.43899843,-85.63521363
AL,01045,Dale,Roy Parker Lake,31.43400031,-85.64214471
AL,01045,Dale,W G Barnes Lake,31.5342722,-85.67643925
AL,01045,Dale,Williams Lake,31.43896791,-85.6619214
AL,01047,Dallas,Big B Ranch Lake,32.45289156,-87.32114891
AL,01047,Dallas,Bon Aire Lake,32.29720123,-87.4290607
AL,01047,Dallas,Craig Field Lake,32.3553911943406,-86.9860233147131
AL,01047,Dallas,Cypress Pond,32.29333993,-87.1084035
AL,01047,Dallas,D C Beville Lake,32.51132242,-87.07716734
AL,01047,Dallas,Dallas County Lake,32.21787864,-87.02617112
AL,01047,Dallas,E Ables Lake,32.2760517,-87.36501713
AL,01047,Dallas,E F Randell Lake,32.42120787,-87.25503446
AL,01047,Dallas,Frances K Caine Lake,32.49303795,-87.06387466
AL,01047,Dallas,Hammermill Waste Treatment Pond,32.42179001,-86.85887594
AL,01047,Dallas,Harper Pond,32.49070785,-86.99050501
AL,01047,Dallas,Hawthorne Lake,32.33511757,-86.97529698
AL,01047,Dallas,J M Gaston Number Two Lake,32.43129322,-87.21381684
AL,01047,Dallas,Kenan Ponds,32.45507718,-87.03363832
AL,01047,Dallas,Lake Lanier,32.43723944,-87.16230494
AL,01047,Dallas,Lake Walnutta,32.42863067,-87.33072056
AL,01047,Dallas,Lawrence Lake,32.50466141,-86.97711677
AL,01047,Dallas,McHugh Lake,32.29071491,-87.25537226
AL,01047,Dallas,Moore's Pond,32.34574086697,-86.956212985097
AL,01047,Dallas,Plummer Lake,32.31864015,-86.91918299
AL,01047,Dallas,R Cullpepper Lake,32.12520483,-86.92039599
AL,01047,Dallas,Rex Waldrop Lake,32.5887956,-86.96043312
AL,01047,Dallas,Sand Creek Lake Number One,32.27700783,-87.46961643
AL,01047,Dallas,Sedgefield Lake,32.22935985,-87.32970653
AL,01047,Dallas,Selma Hunting Club Lake,32.41780544,-86.98309062
AL,01047,Dallas,Sherman Pond,32.428473,-87.1699159
AL,01047,Dallas,Valley Creek Lake,32.60123165,-86.98863148
AL,01047,Dallas,W W Weissinger Lake Number 1,32.38271888,-87.35191227
AL,01047,Dallas,W W Weissinger Number 2 Lake,32.38751045,-87.35637255
AL,01047,Dallas,W W Weissinger Number 4 Lake,32.3960911,-87.37277457
AL,01047,Dallas,Weissinger Lakes,32.38597557,-87.35073668
AL,01047,Dallas,"William ""Bill"" Dannelly Reservoir",32.146151520007,-87.264885755387
AL,01047,Dallas,Yates Lake,32.44337396,-87.09992827
AL,01049,DeKalb,Achunachi Lake,34.52821703,-85.62156961
AL,01049,DeKalb,Cashs Lake,34.31726709,-85.73600943
AL,01049,DeKalb,Chitwoods Lake,34.4515713,-85.88194792
AL,01049,DeKalb,DeKalb County Public Lake,34.57690995,-85.79888156
AL,01049,DeKalb,Desoto State Park Lake,34.54941141,-85.58923536
AL,01049,DeKalb,Dry Pond,34.3660527,-85.84899447
AL,01049,DeKalb,Fletcher Gilberts Lake,34.39545793,-85.89122132
AL,01049,DeKalb,Fort Payne City Lake,34.51832656,-85.66651134
AL,01049,DeKalb,Gilberts Lake,34.64739864,-85.75238735
AL,01049,DeKalb,J R Gilberts Lake,34.65444555,-85.72833523
AL,01049,DeKalb,Lake Bonnie,34.21657312,-86.03847488
AL,01049,DeKalb,Lake Lahusage,34.52847587,-85.52346197
AL,01049,DeKalb,Lake Storie,34.65160975,-85.72598158
AL,01049,DeKalb,Moon Lake,34.56695645,-85.57378363
AL,01049,DeKalb,Mountain View Lake,34.23473679,-85.87722895
AL,01049,DeKalb,Prestwood Lake,34.54548465,-85.67513507
AL,01049,DeKalb,Republic Lake,34.52477179,-85.61317689
AL,01049,DeKalb,Temples Lake,34.38612935,-85.73152385
AL,01049,DeKalb,Well Flat,34.75775068,-85.58689967
AL,01049,DeKalb,West Lake,34.30295533,-85.90941714
AL,01051,Elmore,Annie T Gregory Lake,32.59862792,-85.9473216
AL,01051,Elmore,B G Powell Lake,32.69898871,-86.22490988
AL,01051,Elmore,Black Well Lake,32.72847955,-86.11138412
AL,01051,Elmore,Blackwell Lake Number Two,32.72637455,-86.11051574
AL,01051,Elmore,Cobbs Lake,32.44308011,-86.37206735
AL,01051,Elmore,Crescent Lake,32.43811497,-86.36652137
AL,01051,Elmore,Crommelin Lake,32.5077175,-86.20189149
AL,01051,Elmore,Danny Davis Lake,32.65317651,-86.12638027
AL,01051,Elmore,Davis Lake,32.65552408,-86.12555889
AL,01051,Elmore,Davis Pond,32.65684912,-86.11808919
AL,01051,Elmore,Dorminey Pond,32.44961084,-86.35137959
AL,01051,Elmore,Fitzpatrick Lake,32.50788045,-86.18308799
AL,01051,Elmore,Greer Lake,32.51710107,-86.28539409
AL,01051,Elmore,Maier Lake,32.63739352,-86.11221091
AL,01051,Elmore,Milam Lake,32.64041375,-86.18854307
AL,01051,Elmore,Mitchell Lake,32.67056874,-86.31972349
AL,01051,Elmore,Nolen Davis Lake Number One,32.65599682,-86.11570857
AL,01051,Elmore,Nolen Davis Lake Number Two,32.65448572,-86.11235348
AL,01051,Elmore,Paraviginis Lake,32.45824463,-86.37100847
AL,01051,Elmore,Poundstone Lake,32.43702644,-86.1153775
AL,01051,Elmore,R H Lamb Lake,32.58926975,-86.03101797
AL,01051,Elmore,Speigner Lake,32.5735416,-86.34665647
AL,01051,Elmore,Tallassee Sewage Disposal Pond,32.51689136,-85.89368703
AL,01051,Elmore,Whits Lake,32.71065336,-86.17920998
AL,01051,Elmore,Williamsons Lake,32.51380522,-86.3713866
AL,01051,Elmore,Wingard Lake,32.6084016,-86.0327359
AL,01053,Escambia,Brantley Lake,31.06686759,-87.08992034
AL,01053,Escambia,Brewton Sewage Lagoon,31.0834084235065,-87.0867220037926
AL,01053,Escambia,Container Corporation Treatment P,31.06865749,-87.11180885
AL,01053,Escambia,Foshee Lake,31.05552412,-87.11161941
AL,01053,Escambia,Hines Lake,31.09674164,-87.09255318
AL,01053,Escambia,Kellys Lake,31.20924138,-87.26688314
AL,01053,Escambia,Lake George White,31.22004546,-87.58763737
AL,01053,Escambia,Lake Huxford,31.13825588,-87.10826706
AL,01053,Escambia,Lake Keego,31.05906367,-87.12477287
AL,01053,Escambia,Lake McMillan,31.23271185,-87.07024456
AL,01053,Escambia,Lake Weaver,31.0059116,-87.29015319
AL,01053,Escambia,Leo Williams Dam,31.25487105,-87.48455828
AL,01053,Escambia,Leon Brooks Hines Lake,31.03074627,-86.83169739
AL,01053,Escambia,Moran Lake One,31.1611556,-87.04436841
AL,01053,Escambia,Moran Lake Two,31.16201393,-87.03993954
AL,01053,Escambia,Patterson Lake,31.03081069,-87.52457261
AL,01053,Escambia,Perrys Lake,31.18747375,-87.05456615
AL,01053,Escambia,Robinsons Lake,31.13774033,-87.09408029
AL,01053,Escambia,Sherrer Lake,31.11005281,-87.10519333
AL,01053,Escambia,W R Sherrer Lake,31.1282812,-87.10911654
AL,01055,Etowah,Ash Disposal Pond,34.02046834,-85.97494145
AL,01055,Etowah,Bennetts Lake,33.97620268,-85.78757936
AL,01055,Etowah,Camp Sequoyah Lake,34.12387725,-85.94830349
AL,01055,Etowah,Chateau Charolais Lake,33.96432564,-86.07261812
AL,01055,Etowah,Chums Lake,33.99178788,-85.90885023
AL,01055,Etowah,Clayton Fish Pond,34.03825188,-86.04274469
AL,01055,Etowah,Coopers Lake,33.88344104,-86.0783972
AL,01055,Etowah,Dive Land Park,33.9227951464712,-85.9059424792425
AL,01055,Etowah,Doctor Jenkins Lake,34.05241656,-86.32012107
AL,01055,Etowah,Estess Lake,34.05735822,-85.94167556
AL,01055,Etowah,Glassco Lake,34.05419618,-86.17070528
AL,01055,Etowah,Goodyear Lake,34.01665023,-85.98293212
AL,01055,Etowah,H Neely Henry Lake,33.88890092,-86.04757855
AL,01055,Etowah,Hooks Lake,34.04964186,-85.97384632
AL,01055,Etowah,Jenkins Number One Lake,34.03346472,-86.27200772
AL,01055,Etowah,Kimball Lake,33.93533308,-86.054724
AL,01055,Etowah,Lake Mary Louise,34.09858661,-85.9317956
AL,01055,Etowah,Lake Rhea,34.02119576,-86.11893566
AL,01055,Etowah,Littles Lake,33.9713587,-86.1510505
AL,01055,Etowah,Mount Eba Lake,34.08526704,-85.94741382
AL,01055,Etowah,Permans Lake,33.94057822,-86.10247905
AL,01055,Etowah,Stephens Lake,34.13846775,-86.00355685
AL,01055,Etowah,Thornton Number 1 Lake,34.02892837,-85.8066888
AL,01055,Etowah,Thornton Number 2 Lake,34.03183176,-85.80233402
AL,01055,Etowah,Thornton Number 3 Lake,34.03155304,-85.80667962
AL,01055,Etowah,Thornton Number 4 Lake,34.03395732,-85.80611202
AL,01055,Etowah,Thornton Number 6 Lake,34.03682519,-85.81075666
AL,01055,Etowah,Thorval Lake,34.04553858,-85.86443531
AL,01055,Etowah,Wessons Lake,33.9635359,-86.13738643
AL,01057,Fayette,Bagwell Lake,33.71974632,-87.77379303
AL,01057,Fayette,Baptist Lake,33.65882697,-87.87871169
AL,01057,Fayette,Barnett Lake,33.55478755,-87.74375519
AL,01057,Fayette,Bugs Lake,33.70013407,-87.6569036
AL,01057,Fayette,Cains Ridge Lake,33.65160432,-87.84908925
AL,01057,Fayette,Fayette County Lake,33.65235272,-87.74498323
AL,01057,Fayette,Freeman Lake,33.52463574,-87.82068958
AL,01057,Fayette,Harkins Lake,33.70765545,-87.76005407
AL,01057,Fayette,Mitchum Lake,33.52877594,-87.75501765
AL,01057,Fayette,Poe Lakes,33.52772587,-87.7322099
AL,01057,Fayette,Watkins Lake,33.78764055,-87.83231828
AL,01059,Franklin,Bates Lake,34.42814542,-88.14915659
AL,01059,Franklin,Bear Creek Reservoir,34.3820981,-87.95399702
AL,01059,Franklin,Berry Lake,34.44120921,-88.12633193
AL,01059,Franklin,Cedar Creek Reservoir,34.52914768,-87.92530204
AL,01059,Franklin,City Lake,34.52142149,-87.73868094
AL,01059,Franklin,Lake Leola,34.535022,-87.74911898
AL,01059,Franklin,Number Six Lake,34.50069781,-87.66477063
AL,01059,Franklin,Rockwood Lake,34.46171529,-87.79386604
AL,01059,Franklin,Russellville Reservoir,34.51697191,-87.79901987
AL,01059,Franklin,Sand Pit New Hope Church Lake,34.39303743,-87.60669113
AL,01059,Franklin,Sloss Lake,34.48638711,-87.70995588
AL,01059,Franklin,Vinson Lake,34.44435391,-88.09023983
AL,01061,Geneva,Bobby Jones Lake,31.11824563,-85.90467122
AL,01061,Geneva,Burch Pond,31.0852250236896,-85.7045273054448
AL,01061,Geneva,Burgess Pond,30.99725186,-86.05795994
AL,01061,Geneva,Daughtry Pond,31.08906132,-85.69466431
AL,01061,Geneva,Faulk Millpond,31.13753817,-86.10902328
AL,01061,Geneva,Frank Davis Lake,31.1820771105246,-86.0088986430177
AL,01061,Geneva,Fred Denman Lake,31.16239118,-86.00098347
AL,01061,Geneva,Geneva County Lake,31.17473531,-85.96284933
AL,01061,Geneva,Hartford Lake,31.0602168850729,-85.669777026312
AL,01061,Geneva,Hughes Lake,31.132262,-85.76394115
AL,01061,Geneva,Lake Frankie,31.14396612,-86.04785035
AL,01061,Geneva,Lake Geneva,31.02711658,-85.84966586
AL,01061,Geneva,Lake Jeanette,31.19099692,-85.85278859
AL,01061,Geneva,Lake Patti Sue,31.1882072562057,-85.5670997321044
AL,01061,Geneva,Lake Victoria,31.06798074,-86.08948237
AL,01061,Geneva,Lakeside Estates Lake,31.0080202243235,-85.8880514913399
AL,01061,Geneva,Lime Springs Lake,31.07577315,-86.10544918
AL,01061,Geneva,Mack Snell Lake,31.0118658329349,-85.611498647565
AL,01061,Geneva,McNeil Pond,31.09184118,-85.73906817
AL,01061,Geneva,Murdock Pond,31.16916627,-85.91799534
AL,01061,Geneva,Neal Spears Lake,31.0685872,-86.10512555
AL,01061,Geneva,Pasco Davis Lake,31.1513111778223,-85.5728547396084
AL,01061,Geneva,Pigeon Pond,31.09804352,-86.14435339
AL,01061,Geneva,Ponderosa Pond,31.08930183,-85.84499472
AL,01061,Geneva,Registers Pond,31.06565475,-85.4974312
AL,01061,Geneva,Sellers Fishpond,31.1228698,-86.01009794
AL,01061,Geneva,Ted Averett Lake,31.17117904,-86.04263964
AL,01061,Geneva,Tom Davison Lake,31.06796904,-86.00226239
AL,01061,Geneva,Weeks Fishpond,31.17267253,-86.14606862
AL,01063,Greene,Baker Lake,32.70291233,-87.9682709
AL,01063,Greene,Bend Lake,32.94409686,-88.16404426
AL,01063,Greene,C N Drennen Lake Number 2,32.7233297679355,-88.0306304084452
AL,01063,Greene,Carpenters Lake,32.9997153,-88.04768392
AL,01063,Greene,Doc Hollingsworth Lake,32.76531991,-87.9034717
AL,01063,Greene,Dollarhide Camp Lake,32.74170903,-87.85699724
AL,01063,Greene,Dollarhide Hunting Lake,32.74122779,-87.81440548
AL,01063,Greene,Drennen Lake Number 1,32.73117866,-88.01967028
AL,01063,Greene,Drennen Lake Number 2,32.73436189,-88.02432777
AL,01063,Greene,Drennen Lake Number 3,32.7340483108005,-88.0296401629322
AL,01063,Greene,Duck Pond,32.9044765,-87.98630965
AL,01063,Greene,Hardy Lake Number 1,32.76907886,-87.89568815
AL,01063,Greene,Johnstons Lake Number Three,32.6397905,-87.99135256
AL,01063,Greene,King Lake,32.86456705,-88.03313235
AL,01063,Greene,Lake Mark Hanna,32.74166181,-87.8353183
AL,01063,Greene,McLean Lake Number 1,32.87767852,-87.98609682
AL,01063,Greene,McMillan Pond,32.8838766,-87.97955847
AL,01063,Greene,Moon Lake,33.01581697,-88.16029053
AL,01063,Greene,Nab Drennen Lake Number 1,32.63597397,-88.07196292
AL,01063,Greene,Nab Drennen Lake Number 2,32.63711565,-88.0700865
AL,01063,Greene,Odum Lake Number 1,32.82716401,-87.91513745
AL,01063,Greene,Reed Lake,32.64815909,-87.98686801
AL,01063,Greene,Sprees Twenty Acre Lake,32.7469489,-88.05036739
AL,01063,Greene,Taylor Lake,32.75797231,-87.87946607
AL,01063,Greene,Trice Lake,32.76947571,-88.03321443
AL,01063,Greene,W D Johnston Lake Number 1,32.64634402,-88.01216322
AL,01063,Greene,W D Johnston Lake Number 2,32.63829022,-88.00832651
AL,01065,Hale,Bailey Lake,32.70282275,-87.67044021
AL,01065,Hale,Bryars Junior Lake,32.62949502,-87.71685103
AL,01065,Hale,Bryars Junior Lake Number 1,32.6310837033734,-87.7202147651257
AL,01065,Hale,Bryars Junior Lakes,32.63913205,-87.71771758
AL,01065,Hale,Carey Tidmore Lake,32.70372947,-87.63155726
AL,01065,Hale,Carmichael Lake,32.64401592,-87.6090596
AL,01065,Hale,Charlie Moseley Lake Number One,32.74488876,-87.7574739
AL,01065,Hale,Coleman Farm Ponds,32.59867748,-87.5982455
AL,01065,Hale,Coleman Pond,32.87087227,-87.79602112
AL,01065,Hale,Cypress Cutoff Lake,32.97196356,-87.7266587
AL,01065,Hale,Duck Pond,32.65800009,-87.76208315
AL,01065,Hale,Gross Lake,32.67639052,-87.58679782
AL,01065,Hale,J B Thomas Lake,32.7892758,-87.4780138
AL,01065,Hale,J L Morrison Lake Number Two,32.70329261,-87.55117423
AL,01065,Hale,Jimmy Seale Lake,32.67857674,-87.67970474
AL,01065,Hale,Joe Glover Lake,32.81459214,-87.4873147
AL,01065,Hale,John Jays Lake,32.7115862,-87.62437112
AL,01065,Hale,Kyser Lake Number 2,32.6310676774781,-87.5746161300915
AL,01065,Hale,Lake Demopolis,32.5708897465196,-87.7371233269707
AL,01065,Hale,Lake View Country Club Lake,32.69671826,-87.63203654
AL,01065,Hale,Lenson Montgomery Lake Number 1,32.76380024,-87.51124547
AL,01065,Hale,Lenson Montgomery Lake Number 2,32.75940642,-87.51223955
AL,01065,Hale,Lenson Montz Lake Number One,32.7494387650273,-87.5197166741781
AL,01065,Hale,Lewis Lawson Lake Number Four,32.66543467,-87.61206485
AL,01065,Hale,Limestone Lake Number 1,32.6847514393132,-87.7336915917773
AL,01065,Hale,Limestone Lake Number 2,32.6888800143536,-87.7348454684849
AL,01065,Hale,Limestone Lakes,32.67978797,-87.7316529
AL,01065,Hale,Little Keaton Lake,32.98527864,-87.68984396
AL,01065,Hale,Manette Pond,32.79362941,-87.80230089
AL,01065,Hale,Martin Slough,32.90709401,-87.75109878
AL,01065,Hale,Massey Lake,32.73224184,-87.69023849
AL,01065,Hale,Millwood Pond,32.6670930500242,-87.747043911322
AL,01065,Hale,Montz Lake Number Four,32.74591789,-87.51947897
AL,01065,Hale,Murphy Averette Lake,32.75480876,-87.51090208
AL,01065,Hale,Orneys Place Pond,32.69012084,-87.7901511
AL,01065,Hale,Payne Lake,32.8867261,-87.44242303
AL,01065,Hale,Phillips Lake,32.73438113,-87.7215988
AL,01065,Hale,Richards Lake,32.6599812374919,-87.6822048743622
AL,01065,Hale,Roy Alexander Lake,32.62885972,-87.66196348
AL,01065,Hale,Stovers Lake,32.92536366,-87.75064244
AL,01065,Hale,Thomas Lake,32.7892935,-87.48411951
AL,01065,Hale,Walthall Lake,32.56895466,-87.53814332
AL,01065,Hale,Warrior Lake,32.95766468,-87.7338342
AL,01065,Hale,Wiggins Lake,33.0027053,-87.63997184
AL,01065,Hale,William Dale Lake,32.58783454,-87.58955463
AL,01067,Henry,Barfield Ponds,31.4437488,-85.41748198
AL,01067,Henry,Blankenship Pond,31.52367112,-85.40795968
AL,01067,Henry,Fincher Pond,31.51060264,-85.22930466
AL,01067,Henry,Griffin Pond,31.39498211,-85.35071329
AL,01067,Henry,Griggs Pond,31.50150509,-85.25327422
AL,01067,Henry,Hutto Pond,31.66240954,-85.31820253
AL,01067,Henry,Jennys Lake,31.52781607,-85.29837474
AL,01067,Henry,Lake Choctawhatchee,31.67086776,-85.35087931
AL,01067,Henry,Lake Espy,31.39749354,-85.37717531
AL,01067,Henry,Lake Mila,31.41086853,-85.36818676
AL,01067,Henry,Lingo Pond,31.65646304,-85.38170368
AL,01067,Henry,Mathison Lake,31.61829817,-85.23165776
AL,01067,Henry,Merritts Pond,31.54940478,-85.17057948
AL,01067,Henry,Messick Pond,31.55546653,-85.23254377
AL,01067,Henry,Moneys Pond,31.59664862,-85.12727077
AL,01067,Henry,Rivenbark Ponds,31.31293771,-85.13224859
AL,01067,Henry,Starlings Pond,31.53945246,-85.1648513
AL,01067,Henry,Tillis Pond,31.55855283,-85.19695148
AL,01067,Henry,Walden Pond,31.3374145681825,-85.3260307918329
AL,01067,Henry,Wilson Pond,31.7468049,-85.16101128
AL,01069,Houston,Adams Lake,31.14616158,-85.41239578
AL,01069,Houston,Bazemores Mill Lake,31.02669286,-85.20014178
AL,01069,Houston,Blakey Pond,31.18523341,-85.29174846
AL,01069,Houston,Bruce Blaum Lake,31.15499813,-85.1586527
AL,01069,Houston,Bruners Pond,31.19158673,-85.17526342
AL,01069,Houston,Brushy Pond,31.00002438,-85.46273922
AL,01069,Houston,Calhoun Pond,31.21330867,-85.11763331
AL,01069,Houston,Clark Pond,31.18276234,-85.47614753
AL,01069,Houston,Coleman Pond,31.21507854,-85.40258416
AL,01069,Houston,Cooks Pond,31.17487574,-85.44486998
AL,01069,Houston,Cooleys Pond,31.12342553,-85.39675597
AL,01069,Houston,Coopers Bay,31.03404642,-85.45857289
AL,01069,Houston,Creels Pond,31.17408602,-85.32902635
AL,01069,Houston,Dye Pond,31.18351116,-85.35216532
AL,01069,Houston,Eastgate lake,31.1635605232581,-85.3164014635403
AL,01069,Houston,Eastgate Pond,31.1637389226145,-85.3128311831566
AL,01069,Houston,Ellis Pond,31.12993403,-85.1115288
AL,01069,Houston,Emerald Lake,31.2551805887582,-85.4155006610757
AL,01069,Houston,Emmett Sellers Lake,31.20111651,-85.60636126
AL,01069,Houston,Florida Pond,31.00098899,-85.14809666
AL,01069,Houston,Fowlers Pond,31.1478796,-85.32656445
AL,01069,Houston,Gamble Pond,31.28465845,-85.24071661
AL,01069,Houston,Garners Pond,31.21510683,-85.22515763
AL,01069,Houston,Gerald Crowley Lake,31.0830140214166,-85.3259170479379
AL,01069,Houston,Glenn Lawrence Lake,31.22632175,-85.24169413
AL,01069,Houston,Good Hope Farm Pond,31.30389797,-85.12040312
AL,01069,Houston,Goodson Pond,31.24810256,-85.16139708
AL,01069,Houston,Indigo Pond,31.0073308,-85.18376898
AL,01069,Houston,Ingram Lake,31.21430372,-85.27488811
AL,01069,Houston,Jessie Forrester Lake,31.19847296,-85.34422402
AL,01069,Houston,Kelly Lake,31.27828878,-85.46161318
AL,01069,Houston,Lakewood Lake,31.17950687,-85.42480014
AL,01069,Houston,Lochenglen Lake,31.14358553,-85.45326823
AL,01069,Houston,Long Pond,31.00653984,-85.12536459
AL,01069,Houston,Moodys Pond,31.17886617,-85.30500407
AL,01069,Houston,Morris Lake,31.1580645,-85.41408555
AL,01069,Houston,Murphy Mill Pond,31.2681155113076,-85.4622684806578
AL,01069,Houston,Murphy Millpond,31.26735992,-85.46378353
AL,01069,Houston,Open Pond,31.00252327,-85.47297604
AL,01069,Houston,Pine Lake,31.15392096,-85.32436577
AL,01069,Houston,Porters Lake,31.20646882,-85.34619244
AL,01069,Houston,Singletarys Pond,31.01105572,-85.44006371
AL,01069,Houston,Smith Lake,31.28867809,-85.21380169
AL,01069,Houston,Smiths Pond,31.12117529,-85.32438382
AL,01069,Houston,Spann Ponds,31.23298248,-85.47514521
AL,01069,Houston,"Turnpike Swamp, The",31.11500267,-85.12019569
AL,01069,Houston,Wet Weather Pond,31.16723281,-85.30769942
AL,01069,Houston,Wheelless Lake,31.2295757,-85.49230831
AL,01069,Houston,Wilsons Lake,31.1577167,-85.33184783
AL,01069,Houston,Woodlands Pond,31.2593127809958,-85.4508588501784
AL,01071,Jackson,Beasley Pond,34.68597915,-86.13715521
AL,01071,Jackson,Big Lake,34.69762346,-86.31601349
AL,01071,Jackson,Bucker Pond,34.77898672,-86.02838564
AL,01071,Jackson,Dudley Pond,34.87394573,-85.91323894
AL,01071,Jackson,Guntersville Lake,34.54442078,-86.11538925
AL,01071,Jackson,Hill Pond,34.81977926,-86.10115903
AL,01071,Jackson,Horseshoe Pond,34.86438947,-85.94747971
AL,01071,Jackson,Indian Grave Pond,34.82689249,-86.17978798
AL,01071,Jackson,Mansel Wolf Lake,34.81974503,-85.74239146
AL,01071,Jackson,Reese Pond,34.67892978,-86.1368953
AL,01071,Jackson,Shelby Pond,34.70565257,-86.10291943
AL,01071,Jackson,Waites Lake,34.63931452,-85.94609063
AL,01073,Jefferson,Altadena Lake,33.41893361,-86.74302153
AL,01073,Jefferson,Alton Lake,33.57933462,-86.63416917
AL,01073,Jefferson,American Alligator,33.4867216555527,-86.7776027915011
AL,01073,Jefferson,Atchisons Lake,33.4264395,-87.00956233
AL,01073,Jefferson,B Mountain Lake,33.36631582,-86.87555896
AL,01073,Jefferson,Batson Lake,33.40299968,-86.79679913
AL,01073,Jefferson,Baylor Lake,33.29183691,-87.03368117
AL,01073,Jefferson,Bayview Lake,33.55835995,-86.96912852
AL,01073,Jefferson,Bentley Lake,33.66270833,-87.05580377
AL,01073,Jefferson,Blue Creek Mine Number 3 - Impoundment,33.37976531,-87.10506727
AL,01073,Jefferson,Boyles Gap Lake,33.58242776,-86.79073575
AL,01073,Jefferson,Cahaba Lake,33.40726736,-86.76056302
AL,01073,Jefferson,Canoe Creek Lake,33.74058289,-86.57884462
AL,01073,Jefferson,Center Point Lake,33.65518989,-86.6772627
AL,01073,Jefferson,Circle Three Lakes,33.68338952,-86.58831575
AL,01073,Jefferson,City of Birmingham - Roebuck Plaza Lake,33.60000817,-86.63213675
AL,01073,Jefferson,Coleman Lakes,33.27993758,-87.03422979
AL,01073,Jefferson,Concord Mine Lake,33.45450917,-87.04590073
AL,01073,Jefferson,Drummond Lake,33.51379523,-86.67858879
AL,01073,Jefferson,East Lake,33.57010065,-86.72597468
AL,01073,Jefferson,East Thomas Gardens Lake,33.52247935,-86.86098751
AL,01073,Jefferson,Echo Lake,33.72773273,-86.54220986
AL,01073,Jefferson,Ellis Lake,33.32785663,-87.06745251
AL,01073,Jefferson,Flamingo,33.4864815953147,-86.778346763606
AL,01073,Jefferson,Flat Creek Lake,33.72603904,-86.7762348
AL,01073,Jefferson,Flat Top Mine Number 1 Impoundment,33.66413557,-87.02961294
AL,01073,Jefferson,Grantham Lake,33.3317620779961,-87.0651707396237
AL,01073,Jefferson,Griffin Lakes,33.3180466,-87.06220969
AL,01073,Jefferson,Guytons Lake,33.33516441,-86.88510789
AL,01073,Jefferson,Hall Lake,33.56265525,-86.64186188
AL,01073,Jefferson,Hallmark Lake,33.77811825,-86.82944559
AL,01073,Jefferson,Hidden Valley Lake,33.69449355,-86.5855502
AL,01073,Jefferson,Higginbothams Lake,33.76415359,-86.67585518
AL,01073,Jefferson,Hilldale Farm Lake,33.72480326,-86.6234541
AL,01073,Jefferson,Holcomb Lake,33.65214957,-86.54510674
AL,01073,Jefferson,Howard Lake,33.3865544155331,-86.8044936172909
AL,01073,Jefferson,Hubbards Lake,33.67590048,-86.53954917
AL,01073,Jefferson,Indian Gap Lake,33.2825134,-87.02394691
AL,01073,Jefferson,Indian Valley Camp Lake,33.6599263,-86.74190126
AL,01073,Jefferson,J M Roberts Pond,33.67282517,-86.55863887
AL,01073,Jefferson,Johnsons Lake,33.32733691,-86.89264976
AL,01073,Jefferson,Jug Hollow Lake,33.39946382,-87.02147881
AL,01073,Jefferson,Ketona Lakes,33.59760565,-86.76346355
AL,01073,Jefferson,Lake George,33.57180106,-86.60907582
AL,01073,Jefferson,Lake in the Woods,33.71287992,-86.56214622
AL,01073,Jefferson,Lake Jules,33.51160446,-86.61409883
AL,01073,Jefferson,Lake Sueann,33.77348758,-86.67025619
AL,01073,Jefferson,Liles Lake,33.69947481,-86.54827752
AL,01073,Jefferson,Martin Lake,33.40663206,-87.02971636
AL,01073,Jefferson,McKelveys Lakes,33.33791624,-87.02154961
AL,01073,Jefferson,Miller Steam Plant Water Storage,33.63618931,-87.07001123
AL,01073,Jefferson,Mountain Lake,33.5841334,-86.62291629
AL,01073,Jefferson,Newfound Creek Lake,33.65580156,-86.88306761
AL,01073,Jefferson,North Lake,33.59378356,-86.7494309
AL,01073,Jefferson,Old Camp Cosby Lake,33.68496523,-86.62472042
AL,01073,Jefferson,Osborne Lake,33.5216983,-86.68725667
AL,01073,Jefferson,Overton Lake,33.50147375,-86.69199664
AL,01073,Jefferson,Owens Pond,33.50845097,-86.74464689
AL,01073,Jefferson,Palmers Lake,33.59771121,-86.56388401
AL,01073,Jefferson,Pawnee Reservoir,33.62508682,-86.75294305
AL,01073,Jefferson,Pine Ridge Lake,33.50880369,-86.62000227
AL,01073,Jefferson,Pine Tree Country Club Lake,33.52435191,-86.64607238
AL,01073,Jefferson,Pine View Lake,33.29554441,-87.06728918
AL,01073,Jefferson,Quarry Lake,33.3702695270196,-87.0164632440906
AL,01073,Jefferson,Queenstown Lake,33.58846893,-86.61407508
AL,01073,Jefferson,Quickhaven Lake,33.74216563,-86.56807747
AL,01073,Jefferson,Reflecting Pond,33.4867988059502,-86.7794225438325
AL,01073,Jefferson,Reflection Pool,33.4909972237358,-86.7755250198337
AL,01073,Jefferson,Retention Pond,33.4689750317544,-86.9510140407104
AL,01073,Jefferson,Rex Lake,33.5015777,-86.63105329
AL,01073,Jefferson,Riggins Pond,33.63370316,-86.58201873
AL,01073,Jefferson,Rock Lakes,33.33066129,-87.07011129
AL,01073,Jefferson,Sayre Impoundment Number 1,33.70635423,-86.96229198
AL,01073,Jefferson,Sea Lions,33.4873996907517,-86.7780374866451
AL,01073,Jefferson,Silver Lake,33.68659416,-86.67506158
AL,01073,Jefferson,Slurry Impoundment - Johns Washer,33.36092961,-87.10311962
AL,01073,Jefferson,Spring Lake,33.61817023,-86.67643674
AL,01073,Jefferson,Star Lake,33.4010413307259,-86.8141140841505
AL,01073,Jefferson,Tailings Pond Number 2,33.58630112,-87.15217969
AL,01073,Jefferson,Thornton Lake,33.67630482,-87.05522112
AL,01073,Jefferson,UABMW - M. F. Bell Memorial Pond,33.3308135993065,-86.9864249533038
AL,01073,Jefferson,Vestavia Lake,33.44428263,-86.78343991
AL,01073,Jefferson,Wanderland Lake,33.58586301,-86.58521741
AL,01073,Jefferson,West Jefferson Reservoir,33.64298182,-87.07969152
AL,01073,Jefferson,Wild Acres Lake,33.62807703,-86.55123801
AL,01073,Jefferson,Wilson Lake,33.400964,-86.77139479
AL,01073,Jefferson,Windsong Lake,33.63313649,-86.55712513
AL,01073,Jefferson,Woodhaven Lake,33.76328577,-86.61592175
AL,01073,Jefferson,Zamora Lake,33.75191811,-86.60593125
AL,01075,Lamar,County Lake,33.77833043,-88.2369775
AL,01075,Lamar,Faulkner Lake,33.77664898,-88.12600607
AL,01075,Lamar,Gault Lake,33.64928726,-88.13564649
AL,01075,Lamar,Hopson Lake,33.71948686,-87.95946224
AL,01075,Lamar,McGee Lake,33.63146091,-88.13871493
AL,01075,Lamar,Rogers Lake,33.74371124,-88.19499778
AL,01075,Lamar,Stuckey Lake,33.95735207,-88.07568976
AL,01077,Lauderdale,Abramson Lake,34.97763639,-87.78107272
AL,01077,Lauderdale,Bell Sink Pond,34.82242414,-87.84640027
AL,01077,Lauderdale,Big Hill Pond,34.81259277,-87.85526871
AL,01077,Lauderdale,Cunningham Pond,34.7815512,-87.83702485
AL,01077,Lauderdale,Darby Pond,34.75987334,-87.81705829
AL,01077,Lauderdale,Delahunty Pond,34.84164313,-87.85155004
AL,01077,Lauderdale,Dollison Pond,34.78200581,-87.78917069
AL,01077,Lauderdale,Florence Canal,34.7973512282069,-87.6504463477285
AL,01077,Lauderdale,Kasmeier Pond,34.86298922,-87.61786546
AL,01077,Lauderdale,Perry Pond,34.75572252,-87.80392857
AL,01077,Lauderdale,Pickens Pond,34.81359758,-87.75196303
AL,01077,Lauderdale,Smith Pond,34.77535544,-87.7637016
AL,01079,Lawrence,Blue Pond,34.66393545,-87.24162545
AL,01079,Lawrence,Boatwright Slough,34.66809365,-87.44502044
AL,01079,Lawrence,Cattail Pond,34.60782153,-87.24867314
AL,01079,Lawrence,Cottonwood Pond,34.69227385,-87.27218211
AL,01079,Lawrence,Double Ponds,34.5597287,-87.20650263
AL,01079,Lawrence,Fish Pond,34.64004571,-87.1399689
AL,01079,Lawrence,Goose Pond,34.65052473,-87.13127134
AL,01079,Lawrence,Harty Pond,34.69982104,-87.17020547
AL,01079,Lawrence,Irving Pond,34.47798147,-87.25764295
AL,01079,Lawrence,Moulton City Lake,34.54929306,-87.26491221
AL,01079,Lawrence,Oakville Pond,34.44601393,-87.17691019
AL,01079,Lawrence,Pooles Pond,34.59939673,-87.46655321
AL,01079,Lawrence,Prairie Lake,34.67341018,-87.29690472
AL,01079,Lawrence,Priest Pond,34.48102518,-87.25731603
AL,01079,Lawrence,Rock Pond,34.68479222,-87.34115556
AL,01079,Lawrence,Rocky Hill Pond,34.68998885,-87.35687189
AL,01079,Lawrence,Round Pond,34.69056551,-87.24398498
AL,01079,Lawrence,Sims Lake,34.55894143,-87.14753375
AL,01079,Lawrence,Stovall Pond,34.68723525,-87.33480264
AL,01079,Lawrence,Swoope Pond,34.68452512,-87.26004739
AL,01079,Lawrence,Sykes Pond,34.68248939,-87.29016851
AL,01079,Lawrence,Taylors Pond,34.6033542,-87.4628796
AL,01081,Lee,Allens Pond,32.60409009,-85.53943661
AL,01081,Lee,Alnoname One Dam,32.5668684327885,-85.4280663612827
AL,01081,Lee,Auburn City Lake,32.55413714,-85.44073442
AL,01081,Lee,Auburn Outing Club Lake,32.55170876,-85.49192573
AL,01081,Lee,Barksdale Lake,32.55136915,-85.49796504
AL,01081,Lee,Bartletts Ferry Lake,32.69563584,-85.12137883
AL,01081,Lee,Bonita Farms Lake,32.58139157,-85.17652899
AL,01081,Lee,Bruce Pond Number Four,32.4959274119928,-85.3509886268226
AL,01081,Lee,Bruce Pond Number One,32.49174356,-85.35071501
AL,01081,Lee,Bruce Pond Number Two,32.49206904,-85.35994685
AL,01081,Lee,Chewacla Lake,32.5511649178453,-85.478740071914
AL,01081,Lee,Clements Pond,32.66007402,-85.53745983
AL,01081,Lee,Colliers Pond,32.56369274,-85.56445795
AL,01081,Lee,Condy Lake,32.67855105,-85.36004787
AL,01081,Lee,Conway Fish Pond Number One,32.5815895,-85.52975199
AL,01081,Lee,Conways Lake,32.57585673,-85.5297884
AL,01081,Lee,Cress Outing Club Lake,32.5395975421964,-85.4368524963038
AL,01081,Lee,Davis Lake,32.5562730305511,-85.3831825760135
AL,01081,Lee,Dukes Pond,32.62449903,-85.39837108
AL,01081,Lee,Fullers Lakes,32.54103799,-85.12089246
AL,01081,Lee,Goat Rock Lake,32.63393219,-85.08981112
AL,01081,Lee,Greg Lake,32.55316051,-85.48591552
AL,01081,Lee,Hamilton Lake,32.60489536,-85.41875066
AL,01081,Lee,Heath Lake,32.48962141,-85.1576172
AL,01081,Lee,Hubbard Lake,32.52112357,-85.19307827
AL,01081,Lee,Jackson Lake,32.65578744,-85.39821434
AL,01081,Lee,Jones Lake,32.57318776,-85.42196481
AL,01081,Lee,Kimbrough Lake,32.58060129,-85.65773552
AL,01081,Lee,Kinnett Lake,32.47826393,-85.07221813
AL,01081,Lee,Kuderna Lake,32.57178634,-85.5386667
AL,01081,Lee,Lake Cherry,32.49553081,-85.31162745
AL,01081,Lee,Lake Clarmar,32.5307282,-85.08368161
AL,01081,Lee,Lake Thel,32.53935824,-85.11057788
AL,01081,Lee,Lake Wilmore,32.5664277,-85.46548743
AL,01081,Lee,Lazenby Lake,32.5023291853205,-85.4427710665328
AL,01081,Lee,Lee County Public Lake,32.55042148,-85.31518525
AL,01081,Lee,Lees Lake,32.58904946,-85.36026327
AL,01081,Lee,Little and Stuckys Lake,32.62006043,-85.55198439
AL,01081,Lee,Meadows Lake,32.53743782,-85.51243208
AL,01081,Lee,Mezicks Pond,32.62295877,-85.41885776
AL,01081,Lee,Murphy Lake,32.5223084226435,-85.3718204139024
AL,01081,Lee,Neals Pond,32.52364388,-85.48439873
AL,01081,Lee,Ogletree Outing Club Lake,32.63001301,-85.50722159
AL,01081,Lee,Orr Estates Lake,32.6124128,-85.41630426
AL,01081,Lee,Orr Estates Pond,32.61811797,-85.41850677
AL,01081,Lee,Osment Pond,32.69984041,-85.27860158
AL,01081,Lee,Pam Lake,32.55208502,-85.50212298
AL,01081,Lee,Plainsman Lake,32.60692158,-85.51973635
AL,01081,Lee,Pond Number S-1,32.68314786,-85.50999574
AL,01081,Lee,Pond Number S-14,32.6734107,-85.50547552
AL,01081,Lee,Pond Number S-3,32.6812113,-85.51590701
AL,01081,Lee,Pond Number S-6,32.6765426690307,-85.5128618016922
AL,01081,Lee,Pond Number S-8,32.67211005,-85.50964835
AL,01081,Lee,Pope Lake Number One,32.54324821,-85.2905127
AL,01081,Lee,Pope Lake Number Two,32.54450237,-85.29493841
AL,01081,Lee,Powell Lake,32.543157716984,-85.1221058283442
AL,01081,Lee,Prather Lake,32.60784649,-85.45523702
AL,01081,Lee,Richards Pond,32.59227657,-85.5205445
AL,01081,Lee,Sager Pond,32.6579112328454,-85.3789850286465
AL,01081,Lee,Samford Lake Number One,32.5609171,-85.27143256
AL,01081,Lee,Samford Lake Number Two,32.55345177,-85.27345779
AL,01081,Lee,Smiths Lake,32.55761358,-85.07492376
AL,01081,Lee,Storage Pond,32.65524839,-85.49172549
AL,01081,Lee,Wards Pond,32.52606315,-85.50269089
AL,01081,Lee,Webbs Pond,32.51468266,-85.05627664
AL,01081,Lee,Websters Pond,32.59926359,-85.52467244
AL,01081,Lee,Yeagers Pond,32.56861092,-85.50303591
AL,01083,Limestone,Alden Lake,34.7705781809568,-86.7900401988208
AL,01083,Limestone,Anderson Pond,34.75787489,-86.91309306
AL,01083,Limestone,Antiock Lake,34.93069902,-86.99635124
AL,01083,Limestone,Braly Lake,34.77375779,-86.94520559
AL,01083,Limestone,Burgreen Lake,34.72676759,-86.79782415
AL,01083,Limestone,Hatfield Lake,34.7607887,-86.9479677
AL,01083,Limestone,Lake Gary,34.69375906,-86.81354002
AL,01083,Limestone,Lake Ida,34.7960374457009,-86.9283142422951
AL,01083,Limestone,Lawson Lake Number 1,34.7158323363927,-87.0947885796815
AL,01083,Limestone,Montgomery Lake,34.78669305,-86.93522489
AL,01083,Limestone,Pickett Pond,34.61314507,-86.81891629
AL,01083,Limestone,Thomas Pond,34.79259684,-86.90681082
AL,01083,Limestone,Wheeler Lake,34.66948505,-87.04730578
AL,01083,Limestone,Wheeler Reservoir,34.82323596,-87.18915592
AL,01085,Lowndes,Berry Lake,32.30242313,-86.53499646
AL,01085,Lowndes,Bessie Beck Lake,32.1665885850876,-86.7367717789955
AL,01085,Lowndes,Browns Lake,31.99821682,-86.4199115
AL,01085,Lowndes,Cedar Lake,32.0866829,-86.47869585
AL,01085,Lowndes,Collins Lake,32.0809346,-86.60491246
AL,01085,Lowndes,Coopers Pond,32.20563912,-86.60823936
AL,01085,Lowndes,Crenshaw Pond,32.22747734,-86.54102607
AL,01085,Lowndes,Crenshaws Pond,32.20385413,-86.48858309
AL,01085,Lowndes,Crenshaws Pond Number Two,32.20534227,-86.55431137
AL,01085,Lowndes,Dan S Hagood Lake,32.11664927,-86.64536112
AL,01085,Lowndes,Dickens Pond,32.25969694,-86.61285123
AL,01085,Lowndes,E B and S L Payne Lake,32.10638658,-86.48745856
AL,01085,Lowndes,Ellis Pond,31.97853401,-86.45336059
AL,01085,Lowndes,Florence Cabiniss Lake,32.0948746,-86.83729997
AL,01085,Lowndes,Flowers Lake,32.28575681,-86.49113551
AL,01085,Lowndes,Gaston Lake,32.0771178,-86.47293681
AL,01085,Lowndes,Gaston Lake Two,32.07419352,-86.47850839
AL,01085,Lowndes,Grant Lake,32.18309586,-86.53889543
AL,01085,Lowndes,Guys Pond,32.11401087,-86.44723926
AL,01085,Lowndes,Hammond Lake,32.09587457,-86.52187563
AL,01085,Lowndes,Hammond Pond,32.10374836,-86.70078458
AL,01085,Lowndes,Harrell Lake,32.18666634,-86.50820048
AL,01085,Lowndes,Harrells Lake One,32.18919385,-86.51476023
AL,01085,Lowndes,Hartleys Pond,32.02308164,-86.58042265
AL,01085,Lowndes,Hollidays Pond,32.19276347,-86.73449344
AL,01085,Lowndes,Huffmans Pond,32.16819698,-86.45740958
AL,01085,Lowndes,J L Crenshaw Lake Number One,32.14241167,-86.47300142
AL,01085,Lowndes,J R Paul Lake,32.13595524,-86.78944159
AL,01085,Lowndes,Judges Pond,32.19497312,-86.46418062
AL,01085,Lowndes,Lanes Pond,32.06166954,-86.58004961
AL,01085,Lowndes,Lila Rebecca Webster Lake,32.22382012,-86.45507196
AL,01085,Lowndes,Martins Lake,32.21956708,-86.64912641
AL,01085,Lowndes,Means Lake,32.06430357,-86.46252842
AL,01085,Lowndes,Midfield Lake,32.11408507,-86.50185911
AL,01085,Lowndes,Milligans Pond,32.33260675,-86.64924614
AL,01085,Lowndes,Moore Pond,32.03571474,-86.62283561
AL,01085,Lowndes,Nichols Lake,32.36939625,-86.62423221
AL,01085,Lowndes,Olson Pond,32.00439689,-86.560965
AL,01085,Lowndes,Powers Pond,32.16849938,-86.64318935
AL,01085,Lowndes,Robinsons Lake,32.24461168,-86.55289791
AL,01085,Lowndes,Robinsons Pond,32.04876717,-86.45341406
AL,01085,Lowndes,Rogers Pond,32.15988784,-86.49311237
AL,01085,Lowndes,Russells Pond,32.13649206,-86.68062032
AL,01085,Lowndes,Ryals Lake,31.99641557,-86.46993217
AL,01085,Lowndes,Silvests Pond,32.20630858,-86.4265871
AL,01085,Lowndes,W D Farrior Junior Lake,32.12093449,-86.45893341
AL,01085,Lowndes,W E Pritchett Lake Number Two,32.01013094,-86.45443585
AL,01085,Lowndes,Wynn and Harrell Pond,32.18556827,-86.51280757
AL,01087,Macon,City Lake,32.42380299,-85.6768067
AL,01087,Macon,Conners Lake,32.37574694,-85.64824598
AL,01087,Macon,Fin and Feather Lake,32.38379651,-85.66338829
AL,01087,Macon,Groce Lake,32.39299104,-85.49255287
AL,01087,Macon,Halls Pond,32.36331551,-85.98040744
AL,01087,Macon,Kelly Pond Number Two,32.38938434,-85.48929439
AL,01087,Macon,Kellys Pond Number One,32.40679504,-85.48902329
AL,01087,Macon,Lacey Lake Number 2,32.37332107,-85.87710614
AL,01087,Macon,Laceys Lake Number One,32.37364177,-85.86889012
AL,01087,Macon,Lake Carrona Number One,32.41295831,-85.83187266
AL,01087,Macon,Lake Russell,32.30922873,-85.70399268
AL,01087,Macon,Lake Wadsworth,32.34453076,-85.74765535
AL,01087,Macon,Moorers Lake,32.30096107,-85.84606026
AL,01087,Macon,Notasulga City Lake,32.57502361,-85.6795958
AL,01087,Macon,Old Hog Wallow Lake,32.37252062,-85.63261215
AL,01087,Macon,Polecat Springs,32.39608344,-85.89691216
AL,01087,Macon,Tysons Lake,32.33414897,-85.62837562
AL,01087,Macon,Vaughans Mill Pond,32.51474108,-85.57751632
AL,01087,Macon,Weiss Lake,32.35578143,-85.94741834
AL,01089,Madison,Aviation Pond,34.7112820758269,-86.6412487019107
AL,01089,Madison,Big Pond,34.86685011,-86.63581654
AL,01089,Madison,Buckeye Pond,34.56023251,-86.78102444
AL,01089,Madison,Byrd Spring Lake,34.64655936,-86.58741868
AL,01089,Madison,Collier Lake,34.72440743,-86.42863854
AL,01089,Madison,Cress Well Spring,34.9272407423612,-86.3942240716056
AL,01089,Madison,Duck Pond,34.7217673909051,-86.6431787082889
AL,01089,Madison,Hays Lake,34.6339941868722,-86.5946298566292
AL,01089,Madison,Hurricane Creek Watershed Lake,34.7862717,-86.35445496
AL,01089,Madison,Intergraph Lake,34.6736597849305,-86.7442106382235
AL,01089,Madison,Jimmy Johnston Lake,34.8940977,-86.44543667
AL,01089,Madison,Lady Ann Lake,34.66723563,-86.72220592
AL,01089,Madison,Lake Clark,34.8507086,-86.64091916
AL,01089,Madison,Lake Lonnie,34.709089128805,-86.6327375730896
AL,01089,Madison,Lees Pond,34.5981925,-86.66726838
AL,01089,Madison,Legacy Lake,34.7809267605048,-86.5713206623122
AL,01089,Madison,Little Pond,34.86895058,-86.63177141
AL,01089,Madison,Madison County Lake,34.81050505,-86.39201944
AL,01089,Madison,Milner Pond,34.97960183,-86.39251164
AL,01089,Madison,Mouzon Lake,34.62672847,-86.51635514
AL,01089,Madison,Randall Mullins Lake,34.9366165876532,-86.7166870326993
AL,01089,Madison,Rock Pond,34.59662503,-86.6355412
AL,01089,Madison,Romine Lake,34.75336474,-86.77850009
AL,01089,Madison,Smith Lake,34.78007322,-86.35785385
AL,01089,Madison,"Smith, Walker and Johnson Lake",34.68649573,-86.37027077
AL,01089,Madison,Vaughn Lake,34.78159824,-86.72086514
AL,01089,Madison,Ware Pond,34.80589456,-86.54476786
AL,01089,Madison,Weyler Lake,34.7563573,-86.70740319
AL,01089,Madison,Williams Pond,34.64777191,-86.72046779
AL,01091,Marengo,Demopolis Country Club Lake,32.5003362966051,-87.8616937550613
AL,01091,Marengo,Doctor Max McCord Junior Lake,32.30945996,-87.84918044
AL,01091,Marengo,Fields Lake,32.40432487,-87.7484785
AL,01091,Marengo,Glass Lake Number One,32.2931264,-87.78017881
AL,01091,Marengo,Gulf States Paper Company Lake,32.44759678,-87.98145141
AL,01091,Marengo,Lake Henry,32.42219283,-87.74464099
AL,01091,Marengo,Lake Meadwood,32.4158027,-87.53916948
AL,01091,Marengo,Lake Miriam,32.41717456,-87.85354263
AL,01091,Marengo,Lake Roseland,32.44325254,-87.56848232
AL,01091,Marengo,Lewis Pond,32.07109345,-87.84821337
AL,01091,Marengo,Marengo Lake,32.21083821,-87.75048771
AL,01091,Marengo,Mitchell Lake,32.28474052,-87.69106941
AL,01091,Marengo,Moss Lake,32.44550399,-87.64059709
AL,01091,Marengo,Owensby Lake Number One,32.31085965,-87.80997074
AL,01091,Marengo,Paul S Owensby Lake Number Two,32.30794482,-87.81007353
AL,01091,Marengo,Prairie Lake Number One,32.35750083,-87.54737368
AL,01091,Marengo,Prairie Lakes,32.35424469,-87.5484109
AL,01091,Marengo,Prouts Lake,32.5146745,-87.89695907
AL,01091,Marengo,Spencer Lake Two,32.43906069,-87.72074872
AL,01091,Marengo,Stallworths Shadow Lake,32.31339229,-87.58257411
AL,01091,Marengo,Whitley Lake,32.25127341,-87.64798586
AL,01093,Marion,Brilliant Lake,34.01054018,-87.75450841
AL,01093,Marion,County Lake,34.04828919,-87.97735904
AL,01093,Marion,Lake Buttahatchee,34.11372365,-87.6995755
AL,01093,Marion,Langley Lake,33.96856533,-87.8128882
AL,01093,Marion,McRae Lake,34.2117639107235,-88.1765544679108
AL,01093,Marion,Railroad Pond,34.30662033,-87.9200065
AL,01093,Marion,Tyre Mill Pond,34.24301383,-87.85531368
AL,01095,Marshall,Horsley Lake,34.23657557,-86.16807675
AL,01095,Marshall,Lynn Mill Pond,34.42138955,-86.57266843
AL,01095,Marshall,Pine Lake,34.33695352,-86.54081744
AL,01095,Marshall,Smith Lake,34.36488932,-86.368304
AL,01095,Marshall,Spring Lake,34.29781061,-86.19322175
AL,01095,Marshall,Woodland Lake,34.5526963,-86.26681267
AL,01097,Mobile,Alligator Lake,30.24710729,-88.0877058
AL,01097,Mobile,Bahlman Lake,30.49225907,-88.16609392
AL,01097,Mobile,Bienville Reservoir,30.71937788,-88.15226332
AL,01097,Mobile,Big Chippewa Lake,31.03042751,-87.98360253
AL,01097,Mobile,Big Creek Lake,30.74880334,-88.33527472
AL,01097,Mobile,Citronelle Lake,31.06855937,-88.31809125
AL,01097,Mobile,Cochran Lake,30.75812785,-88.14350572
AL,01097,Mobile,Cole Lake,30.57703837,-88.24623048
AL,01097,Mobile,Constantines Pond,30.56446727,-88.29790184
AL,01097,Mobile,Crystal Lake,30.64115788,-88.20560236
AL,01097,Mobile,David Lake,31.10097836,-87.97056682
AL,01097,Mobile,Duboise Lake,30.96992483,-88.13447588
AL,01097,Mobile,Flowerwood Nursery Number Three Lake,30.53533231,-88.267841
AL,01097,Mobile,H G Quinnelly Lake,31.02513362,-88.23490903
AL,01097,Mobile,Hatters Pond,30.90969299,-88.06729886
AL,01097,Mobile,Howard E Smith Lake,31.01948996,-88.22896247
AL,01097,Mobile,J E Robinson Lake,30.49975703,-88.2268835
AL,01097,Mobile,Joy Springs Pond,30.6554598967176,-88.130129930538
AL,01097,Mobile,Louis Lake,31.07075119,-87.97576979
AL,01097,Mobile,Luther Hall Lake,30.49856324,-88.38059307
AL,01097,Mobile,McLean Lake,30.63594401,-88.14990879
AL,01097,Mobile,Mirror Lake,30.6912799740667,-88.1328598915294
AL,01097,Mobile,Oleander Pond,30.24752509,-88.08479302
AL,01097,Mobile,Optimist Lake,30.67858868,-88.21019254
AL,01097,Mobile,Red Nichols Number 2 Lake,31.08819591,-88.39338659
AL,01097,Mobile,Salco Lake,30.9735368308665,-88.0544267828964
AL,01097,Mobile,Saraland Reservoir,30.81295726,-88.06473784
AL,01097,Mobile,Shepard Lake,31.1105573581441,-87.9708931380401
AL,01097,Mobile,Sheppard Lake,31.10974964,-87.96943276
AL,01097,Mobile,Smith Pond,30.5697919677188,-88.2435637655188
AL,01097,Mobile,Willow Lake,30.50312846,-88.38570162
AL,01097,Mobile,Zedol Lake,30.99179174,-87.97280378
AL,01099,Monroe,Boroughs Pond,31.49059484,-87.45200039
AL,01099,Monroe,Broughton Lake,31.43074031,-87.55393498
AL,01099,Monroe,Doctor Walter Nicholas Lake,31.46901657,-87.25759985
AL,01099,Monroe,Fells Lake,31.33122552,-87.766605
AL,01099,Monroe,Finkleas Lake,31.7909361,-87.26025526
AL,01099,Monroe,Kelly Lake,31.44979034,-87.29460607
AL,01099,Monroe,Lake Jane,31.79802618,-87.03627556
AL,01099,Monroe,Lake Patrick,31.80012445,-87.01642712
AL,01099,Monroe,Mabel Bedsole Ward Trust Lake,31.52413854,-87.55297909
AL,01099,Monroe,Moores Pond,31.45263414,-87.48732152
AL,01099,Monroe,Natchez State Lake,31.7206575,-87.26332002
AL,01099,Monroe,Scott Lake,31.41521813,-87.66883825
AL,01099,Monroe,Shannon Lake,31.77623046,-87.29982055
AL,01099,Monroe,Smith Lake,31.31200456,-87.75713552
AL,01099,Monroe,Stallworths Black Pond,31.7316041,-87.2544683
AL,01099,Monroe,Steels Lake,31.74615473,-87.18999186
AL,01099,Monroe,Steels Lake Number One,31.74248179,-87.18246674
AL,01099,Monroe,Vanity Fair Lake,31.51399115,-87.3436164
AL,01099,Monroe,W Sam Carpenters Lake,31.55042635,-87.48296716
AL,01099,Monroe,Williams Lake,31.62857513,-87.54275414
AL,01101,Montgomery,A W Dale Lake,32.34137159,-86.1544491
AL,01101,Montgomery,Allison Lake,32.24618695,-86.10213332
AL,01101,Montgomery,Arrington Lake Number 1,32.16215794,-86.17922061
AL,01101,Montgomery,Baggett Lake,32.30903672,-86.43963036
AL,01101,Montgomery,Barkley Lake,32.31125232,-86.08788681
AL,01101,Montgomery,Bedsole Lake,32.09250101,-86.35311896
AL,01101,Montgomery,Belser Lake,32.34358826,-86.06096508
AL,01101,Montgomery,Bob Thompson Lake,32.1165363,-86.15730457
AL,01101,Montgomery,Brooks Lake Number Two,32.1729377,-86.08175195
AL,01101,Montgomery,Browns Ponds,32.1190183,-86.28648172
AL,01101,Montgomery,C E Sellers Lake,32.05160713,-86.18302179
AL,01101,Montgomery,Cauthen Lake Number Two,32.09661387,-86.28344249
AL,01101,Montgomery,Cauthen Pond,32.1020874,-86.28063085
AL,01101,Montgomery,Davis Lakes Number One,32.14442266,-86.34885244
AL,01101,Montgomery,Duncan Lake,32.12239368,-86.29236232
AL,01101,Montgomery,Edwards Ponds,32.12667864,-86.27947611
AL,01101,Montgomery,Elgin Lake,32.30625378,-86.42301359
AL,01101,Montgomery,Evans Lake,32.07918712,-86.16105171
AL,01101,Montgomery,Farm Bureau Lake,32.3030390394801,-86.352260536787
AL,01101,Montgomery,Faulkner Lake,32.19947287,-86.3003656
AL,01101,Montgomery,Fisher Lake,32.2632809188813,-86.35538528849
AL,01101,Montgomery,Flowers Lake,32.12966783,-86.29798752
AL,01101,Montgomery,Frank Davis Lake,32.25405793,-86.35392798
AL,01101,Montgomery,Frank Rutland Lake Number 1,32.33685527,-86.03837459
AL,01101,Montgomery,Freeman Lake,32.33116063,-86.0978046
AL,01101,Montgomery,Gerald Wallace Lake Number Two,32.35093317,-86.02468916
AL,01101,Montgomery,Grays Lake,32.18103509,-86.09395614
AL,01101,Montgomery,Hall Lake,32.21141683,-86.27580902
AL,01101,Montgomery,Herman Gibson Lake,32.26598463,-86.20690453
AL,01101,Montgomery,Hill and Hill Lake,32.13831984,-86.3005606
AL,01101,Montgomery,Hill Lake Number Two,32.18850361,-86.15809011
AL,01101,Montgomery,Hillake,32.31921468,-86.30859978
AL,01101,Montgomery,Kirksey Lake,32.23153325,-86.0994229
AL,01101,Montgomery,Lake Ben,32.10569093,-86.02057926
AL,01101,Montgomery,Lake Bowling,32.2672368,-86.41082151
AL,01101,Montgomery,Lake Edna,32.23096689,-86.34451483
AL,01101,Montgomery,Lake Lecroy,32.32289596,-86.23299113
AL,01101,Montgomery,Lake Linda,32.2566921,-86.39069449
AL,01101,Montgomery,Lake Pugh,32.12544591,-86.03650365
AL,01101,Montgomery,Lake Ta-lale,32.11534642,-86.27230535
AL,01101,Montgomery,Lake Wallock,32.17052508,-86.37471494
AL,01101,Montgomery,Lake Weil,32.13037974,-86.29318886
AL,01101,Montgomery,Lassiter Lake,32.19714404,-86.34307021
AL,01101,Montgomery,Leisure Lake,32.11220096,-86.27004829
AL,01101,Montgomery,Lilian Lake,32.1053224454385,-86.2817529733722
AL,01101,Montgomery,Lucky Lakes,32.28254249,-86.48208927
AL,01101,Montgomery,Maddox Lake,32.06338079,-86.39835355
AL,01101,Montgomery,McClurkin Lake Number Three,32.31651607,-86.02878465
AL,01101,Montgomery,McClurkin Lake Number Two,32.31439774,-86.02724506
AL,01101,Montgomery,Merriweather Lake,32.24711854,-86.02789598
AL,01101,Montgomery,Miller Pond,32.27028306,-86.21637673
AL,01101,Montgomery,Montgomery Hunting Club Lake,32.0940047,-86.27637158
AL,01101,Montgomery,Morris Dees Lake Number Two,32.21872706,-86.12294252
AL,01101,Montgomery,Myers Number Two Lake,32.17094595,-86.27504818
AL,01101,Montgomery,Normans Lake,32.02579972,-86.25490851
AL,01101,Montgomery,Pirtle Lake,32.226451,-86.29155419
AL,01101,Montgomery,Russells Lake,31.98110303,-86.2937314
AL,01101,Montgomery,Rutland Pond,32.09870115,-86.28111216
AL,01101,Montgomery,Sellers Lake,32.05659828,-86.29114746
AL,01101,Montgomery,Sellers Lake Number Two,32.11489015,-85.99908947
AL,01101,Montgomery,Sellers Ponds,32.11891489,-86.00111952
AL,01101,Montgomery,Shirley Lake,32.26177425,-86.01967413
AL,01101,Montgomery,Sims Lake Number One,32.22224731,-86.30730609
AL,01101,Montgomery,Sims Lake Number Two,32.2210453,-86.30976527
AL,01101,Montgomery,Skinner Lake,32.10899264,-86.28298532
AL,01101,Montgomery,Skywood Lake Number Two,32.12155403,-86.29036191
AL,01101,Montgomery,Sorrell Lake,32.2356473,-86.03694706
AL,01101,Montgomery,Stallings Lake,32.24623783,-86.27075203
AL,01101,Montgomery,Strickland Lake,32.03145741,-86.17601344
AL,01101,Montgomery,Sugarberry Lake,32.26738973,-86.42106889
AL,01101,Montgomery,Suggs Pond,32.2484263,-86.38901229
AL,01101,Montgomery,T S Turnipseed Lake,32.1509746144016,-86.0088997065247
AL,01101,Montgomery,Twin Lakes,32.25082098,-86.351299
AL,01101,Montgomery,Underwood Pond,32.10327246,-86.27365968
AL,01101,Montgomery,Vinson Ponds,31.96676846,-86.13870286
AL,01101,Montgomery,Vongol Lake Number Two,32.18451184,-86.22613732
AL,01101,Montgomery,W C Gibson Lake,32.1388376,-86.16491747
AL,01101,Montgomery,W R Turnipseed Lake,32.18846271,-86.04776282
AL,01101,Montgomery,Warner Lake,32.33046749,-86.45487715
AL,01101,Montgomery,Warrs Lake,32.11985447,-86.26985385
AL,01103,Morgan,Blue Hole,34.51127526,-86.73695481
AL,01103,Morgan,Crabtree Slough,34.5512815,-86.96102788
AL,01103,Morgan,Danville Pond,34.40848419,-87.08667438
AL,01103,Morgan,Dinsmore Slough,34.53774355,-86.96220514
AL,01103,Morgan,English Pond,34.55644848,-86.9960395
AL,01103,Morgan,Hamilton Lake,34.54741468,-87.05655195
AL,01103,Morgan,Lake Chulavista,34.53567205,-87.06042289
AL,01103,Morgan,Mitchell Pond,34.54809312,-86.76652551
AL,01103,Morgan,Morgan Lake,34.56480853,-86.98391235
AL,01103,Morgan,Roberts Lake,34.41075623,-86.97439345
AL,01103,Morgan,Sharp Pond,34.51226233,-86.74732283
AL,01103,Morgan,The Booger Hole,34.5717691,-86.72239945
AL,01103,Morgan,Wheeler Lake,34.57644157,-86.7197191
AL,01103,Morgan,White Farms Pond,34.5403676073356,-86.8841399804123
AL,01105,Perry,Bone Lake,32.61970392,-87.39419616
AL,01105,Perry,Cottrell Lake,32.4996287,-87.51433962
AL,01105,Perry,Emily Foster Lake,32.6685462126785,-87.3494339707956
AL,01105,Perry,F W Pierce Lake Number One,32.5585959741668,-87.3581380827156
AL,01105,Perry,Floyd Cook Lake,32.606584012357,-87.3079483264102
AL,01105,Perry,Hilton Mckee Lake,32.52826807,-87.48760577
AL,01105,Perry,Joe Dozier Lake,32.60685698,-87.39873298
AL,01105,Perry,Lake Ada,32.61083584,-87.37637954
AL,01105,Perry,Lake Beth,32.58931164,-87.38297182
AL,01105,Perry,Lake Betty,32.59972393,-87.37170821
AL,01105,Perry,Lake Doris,32.58415846,-87.38309074
AL,01105,Perry,Lake Eva,32.60407913,-87.36722506
AL,01105,Perry,Lake Heart,32.60077697,-87.36754642
AL,01105,Perry,Lake Ines,32.60416383,-87.37226264
AL,01105,Perry,Lake Lou,32.59862781,-87.36869476
AL,01105,Perry,Lake Mary,32.59587985,-87.36563441
AL,01105,Perry,Lake Miriam,32.59464445,-87.37016765
AL,01105,Perry,Lake Nett,32.57905668,-87.38179446
AL,01105,Perry,Lake Rhoda,32.57804263,-87.37445804
AL,01105,Perry,Lake Sam,32.5812429,-87.37326332
AL,01105,Perry,Lake Vida,32.58045146,-87.36935644
AL,01105,Perry,Lake Will,32.61034669,-87.3651872
AL,01105,Perry,Lakeland Farms Lake Number Eight,32.60898044,-87.38042553
AL,01105,Perry,Lakeland Farms Lake Number Seven,32.60478421,-87.3824385
AL,01105,Perry,Lakeland Farms Lake Number Six,32.60051579,-87.382265
AL,01105,Perry,Lakeland Farms Pond Number Fifteen,32.6024770738978,-87.355069257588
AL,01105,Perry,Lakeland Farms Pond Number Fourteen,32.6029231806696,-87.3510790203301
AL,01105,Perry,Lakeland Farms Pond Number Sixteen,32.6061170758479,-87.3539109238243
AL,01105,Perry,Marion Fish Hatchery Number One,32.69013606,-87.25653754
AL,01105,Perry,Middle Lake,32.69594652,-87.23990359
AL,01105,Perry,Miller Brothers Lake Number One,32.3279535597095,-87.4695198320258
AL,01105,Perry,Miller Brothers Lake Number Three,32.32440462,-87.46933199
AL,01105,Perry,Miller Brothers Lake Number Two,32.3261944639753,-87.4650522379583
AL,01105,Perry,Perry Lake,32.69478614,-87.24234622
AL,01105,Perry,Round Lake,32.69753588,-87.24114368
AL,01105,Perry,Vaughans Lake,32.50822977,-87.17920206
AL,01105,Perry,W A Hughes Lake,32.5864126283657,-87.3720842345296
AL,01105,Perry,Watershed Structure Number Eleven,32.62583336,-87.50987233
AL,01105,Perry,Watershed Structure Number Twelve,32.6353242,-87.48555952
AL,01105,Perry,Wilbourne Lake,32.64816563,-87.34243812
AL,01107,Pickens,Baldwins Lake,33.04862265,-88.25800945
AL,01107,Pickens,Big Slough,32.99527376,-88.20278271
AL,01107,Pickens,Boggess Lake,33.50980675,-88.23096426
AL,01107,Pickens,Clear Lake,33.23782661,-88.29940391
AL,01107,Pickens,Crim Lake,33.11504794,-88.24313326
AL,01107,Pickens,Davis Lake,33.49551261,-88.06624022
AL,01107,Pickens,Garnette Lake,33.17196148,-88.27194791
AL,01107,Pickens,J S Sommerville Lake,33.10555274,-88.15688928
AL,01107,Pickens,Johnstons Lake,33.01671043,-88.26748145
AL,01107,Pickens,Kilpatrick Lake,33.25394693,-88.08274288
AL,01107,Pickens,Kimbrells Lake South,33.03885219,-88.27239409
AL,01107,Pickens,Longview Lake,33.128935,-87.95363673
AL,01107,Pickens,Lowes Lake,33.36275715,-87.93458891
AL,01107,Pickens,McShan Lake Number Three,33.4126106585946,-88.1279150545421
AL,01107,Pickens,Orrs Lake,33.44956183,-87.9598422
AL,01107,Pickens,P M Johnston Lake Number One,33.15165883,-88.03505488
AL,01107,Pickens,P M Johnston Lake Number Two,33.14631028,-88.03062001
AL,01107,Pickens,Pates Lake,33.19028628,-88.10884842
AL,01107,Pickens,Sanders Lake,33.20483295,-88.22657027
AL,01107,Pickens,Shelton Lake,33.4515876,-88.17781942
AL,01107,Pickens,Shepherds Lake,33.36595598,-88.16759143
AL,01107,Pickens,Speeds Lake,33.51081218,-88.24668116
AL,01107,Pickens,Stepp Lake,33.15335703,-88.27110509
AL,01107,Pickens,Steps Lake,33.15074958,-88.2795087
AL,01107,Pickens,William Latham Lake,33.40144719,-88.04237596
AL,01107,Pickens,Windles Lake,33.17729526,-88.07445174
AL,01109,Pike,Anderson Pond,31.76123401,-85.92136686
AL,01109,Pike,Arboretum's Lake,31.7945654252476,-85.9603777089357
AL,01109,Pike,Barbarees Pond,31.77368323,-85.68455017
AL,01109,Pike,Barrs Pond,31.77889072,-85.7469675
AL,01109,Pike,Bassett Lake,31.87196501,-85.91784077
AL,01109,Pike,Brooks Farm Lake,31.96055354,-86.09648249
AL,01109,Pike,Carters Pond,31.7921394,-86.08092876
AL,01109,Pike,Copelands Pond,31.95638323,-85.9349606
AL,01109,Pike,Costons Pond,31.94910846,-85.90816551
AL,01109,Pike,Crowes Pond,31.81182774,-85.94339859
AL,01109,Pike,Dunbar Pond,31.74207712,-86.07797239
AL,01109,Pike,Folmars Pond,31.71409257,-86.0816287
AL,01109,Pike,Gibson Pond,31.66141866,-86.12144267
AL,01109,Pike,Hardens Pond,31.79115255,-85.7219475
AL,01109,Pike,Harris Lake,31.64744948,-85.79988066
AL,01109,Pike,Heads Pond,31.82063104,-85.94865741
AL,01109,Pike,Holmes Pond,31.75678344,-85.87002579
AL,01109,Pike,Knights Lake,31.78493326,-85.88803703
AL,01109,Pike,Lake Foreen,31.73988502,-85.82228863
AL,01109,Pike,Lake Haven,31.85657106,-86.02646254
AL,01109,Pike,Loflins Pond,31.68129297,-86.05544504
AL,01109,Pike,Mandy Warren Lake,31.63392517,-86.15063951
AL,01109,Pike,Menefee Lake,31.96264018,-86.12493049
AL,01109,Pike,Morgans Pond,31.85439227,-85.9536333
AL,01109,Pike,Pearsons Pond,31.71526335,-85.98411442
AL,01109,Pike,Pike County Lake,31.7517828,-85.99757653
AL,01109,Pike,Pikes Pond,31.76921165,-85.86537146
AL,01109,Pike,Pine Lake,31.8335378,-85.83869473
AL,01109,Pike,Renfroe Lake,31.82634395,-85.98180447
AL,01109,Pike,Richardsons Pond,31.85858012,-85.75954334
AL,01109,Pike,Russell Pond,31.9656080793912,-86.1317422011538
AL,01109,Pike,Sand S Lake,31.75604225,-85.90169487
AL,01109,Pike,Sanders Lake,31.95418015,-86.12585665
AL,01109,Pike,Sanders Pond,31.6741993,-86.01610732
AL,01109,Pike,Shaver Pond,31.74371795,-86.06966927
AL,01109,Pike,Shellhorn Pond,31.87747534,-86.07770878
AL,01109,Pike,Shipmans Pond,31.75793256,-85.70166508
AL,01109,Pike,Shirley Pond,31.98737505,-85.891155
AL,01109,Pike,Smiths Ponds,31.65274511,-86.13656313
AL,01109,Pike,Stephens Pond,31.84022781,-85.96660989
AL,01109,Pike,Stewarts Pond,31.63807507,-86.06015627
AL,01109,Pike,The Pocosinlake,31.7864851,-85.90171066
AL,01109,Pike,W R Chapman Lake Number One,31.84586059,-85.95422715
AL,01109,Pike,Walters Pond,31.77539929,-85.95651307
AL,01109,Pike,Whaleys Pond,31.76606748,-86.02034734
AL,01109,Pike,Whiteheads Pond,31.71039235,-85.96570151
AL,01109,Pike,Wilsons Pond,31.76877115,-85.83296386
AL,01109,Pike,Youngblood Lake,31.85049936,-86.07227901
AL,01111,Randolph,Bartlett Pond,33.14959995,-85.35322011
AL,01111,Randolph,Barton Lake,33.33062335,-85.47326141
AL,01111,Randolph,Bell Lake,33.1766769,-85.35106724
AL,01111,Randolph,Boyd Lake,33.4267977,-85.54462864
AL,01111,Randolph,Brady Lake,33.45701981,-85.53367012
AL,01111,Randolph,Burns Lakes,33.30990921,-85.43560444
AL,01111,Randolph,Clegg and Pearson Lake,33.11658172,-85.50297641
AL,01111,Randolph,College Lake,33.12843931,-85.56981994
AL,01111,Randolph,Concord Lake,33.12199296,-85.50682973
AL,01111,Randolph,Crystal Lake,33.18794862,-85.41098426
AL,01111,Randolph,Higgins Lake,33.28526668,-85.31013322
AL,01111,Randolph,High Pine Creek Lake Number 10,33.11988887,-85.42446979
AL,01111,Randolph,High Pine Creek Lake Number 2,33.17679901,-85.37573873
AL,01111,Randolph,High Pine Creek Lake Number 4,33.21313664,-85.37824473
AL,01111,Randolph,High Pine Creek Lake Number 5,33.21520824,-85.38883967
AL,01111,Randolph,Highpine Creek Lake Number 1,33.22132256,-85.33719332
AL,01111,Randolph,Lake Louise,33.12076955,-85.37947257
AL,01111,Randolph,Little Ketchepedrakee Creek,33.4370101147657,-85.6148952032869
AL,01111,Randolph,McManus Pond,33.26408142,-85.42428097
AL,01111,Randolph,McMurray Lake,33.13940774,-85.40222337
AL,01111,Randolph,Moores Pond,33.34809936,-85.31187076
AL,01111,Randolph,Nelson Lake,33.40487459,-85.49547056
AL,01111,Randolph,New Hope Lake,33.31954387,-85.42393066
AL,01111,Randolph,R L Harris Reservoir,33.28339689,-85.6095122
AL,01111,Randolph,Rice Pond,33.15627839,-85.35564355
AL,01111,Randolph,Roanoke City Lake,33.16567663,-85.40081675
AL,01111,Randolph,Wedowee Club Lake,33.283788,-85.49256637
AL,01111,Randolph,Woodland Lake,33.35378192,-85.40069646
AL,01113,Russell,Asbury Park Lake,32.42934514,-85.01546454
AL,01113,Russell,Bachlador Pond,32.40758331,-85.11923973
AL,01113,Russell,Beasleys Pond,32.23385528,-85.42786689
AL,01113,Russell,Bickerstaffs Pond,32.40430434,-85.01130137
AL,01113,Russell,Bowers Lake,32.40964073,-85.08511885
AL,01113,Russell,Bradleys Pond,32.3170332,-85.04630322
AL,01113,Russell,Browns Pond,32.41454984,-85.21403782
AL,01113,Russell,Burts Lake,32.22210186,-85.128849
AL,01113,Russell,Busseys Lake,32.42587503,-84.9906174
AL,01113,Russell,Capps Pond,32.42653947,-85.32182531
AL,01113,Russell,Carrol Lake,32.34347899,-85.22106757
AL,01113,Russell,Chatfields Pond,32.21144949,-85.3306231
AL,01113,Russell,Choppers Lake,32.37760093,-85.35211013
AL,01113,Russell,Clarks Lake,32.44868669,-85.13929276
AL,01113,Russell,Comers Pond,32.12869428,-85.18622279
AL,01113,Russell,Dudley Pond,32.43884757,-85.32222449
AL,01113,Russell,Dudleys Lake,32.304421,-85.20449349
AL,01113,Russell,Dykes Pond,32.20044284,-85.40242107
AL,01113,Russell,Fullers Pond,32.42418585,-85.24052905
AL,01113,Russell,Goldsteins Pond,32.22149748,-85.42770656
AL,01113,Russell,Gullatts Lake,32.40709243,-85.13325414
AL,01113,Russell,Gum Pond,32.40987286,-85.0015435
AL,01113,Russell,Hugleys Pond,32.40838695,-85.1810668
AL,01113,Russell,Kites Pond,32.4285395,-85.14275519
AL,01113,Russell,Lake Bickerstaff,32.37726234,-85.00314234
AL,01113,Russell,Lake Lenora,32.34526066,-85.23524313
AL,01113,Russell,Lake Morgloba,32.29266383,-85.34404502
AL,01113,Russell,Lonesome Duck Lake,32.2257451,-84.99698743
AL,01113,Russell,Lydells Pond,32.43929827,-85.23451231
AL,01113,Russell,McCann Lake,32.30147782,-85.1708987
AL,01113,Russell,Monte Pond,32.31722007,-85.17410368
AL,01113,Russell,Moon Lake,32.49841949,-85.00880061
AL,01113,Russell,Mullin Lake,32.32351759,-85.12245418
AL,01113,Russell,Newsoms Pond,32.16334849,-85.10271515
AL,01113,Russell,Parkmans Pond,32.37863573,-85.15372142
AL,01113,Russell,Parrs Pond,32.39028992,-85.20453543
AL,01113,Russell,Preers Pond,32.44935392,-85.08601021
AL,01113,Russell,Skinners Lake,32.32719946,-85.28667544
AL,01113,Russell,Smiths Pond,32.39031876,-85.14589387
AL,01113,Russell,Sniders Lake,32.32951586,-85.09203771
AL,01113,Russell,Talbert Lake,32.38914821,-85.39299259
AL,01113,Russell,Torbert Lake,32.37438956,-85.36497601
AL,01113,Russell,Venable Lake,32.43539962,-85.10241966
AL,01113,Russell,Wadsworth Lake,32.2967699767649,-85.1620787033743
AL,01113,Russell,Wheeless Pond,32.3785557,-85.13563617
AL,01113,Russell,Williams Lake,32.44302036,-85.23950823
AL,01113,Russell,Wilsons Pond,32.41971875,-85.02595
AL,01115,St. Clair,Baptist Camp Lake,33.60465387,-86.39484442
AL,01115,St. Clair,Baswell Lake,33.8404829,-86.20840973
AL,01115,St. Clair,Borders Lake,33.75353203,-86.19873399
AL,01115,St. Clair,Browns Lake,33.51948649,-86.43058298
AL,01115,St. Clair,Burch Lake,33.75478053,-86.4412526
AL,01115,St. Clair,Canoe Lake,33.79828785,-86.48997999
AL,01115,St. Clair,Chandler Mountain Lake,33.94544523,-86.23604801
AL,01115,St. Clair,Clayton Lake,33.6388824,-86.40284631
