st2,GEOID,NAME,lakename,lat,lon
AR,05001,Arkansas,Abernathy Reservoir,34.48547168,-91.30458884
AR,05001,Arkansas,Alter Lake,34.25834565,-91.29619277
AR,05001,Arkansas,Baker Brothers Reservoir,34.51800968,-91.47676802
AR,05001,Arkansas,Bay Bayou,34.06877685,-91.41307374
AR,05001,Arkansas,Bayou,34.516530275605,-91.5003220631442
AR,05001,Arkansas,Bear Lake,34.22638863,-91.0905653
AR,05001,Arkansas,Bear Pond,33.97345351,-91.15199254
AR,05001,Arkansas,Bennett Reservoir,34.43714688,-91.39345816
AR,05001,Arkansas,Benson Lake,34.31813287,-91.59526662
AR,05001,Arkansas,Big Horseshoe Lake,34.31301247,-91.07783073
AR,05001,Arkansas,Big White Lake,34.28347318,-91.0899916
AR,05001,Arkansas,Black Lake,34.10313156,-91.15298501
AR,05001,Arkansas,Botts Lake,34.18923421,-91.35263576
AR,05001,Arkansas,Bradberry Pond,34.17218076,-91.22321646
AR,05001,Arkansas,Brooks Bayou,34.13937929,-91.12856966
AR,05001,Arkansas,Brooks Lake,34.11418975,-91.15431022
AR,05001,Arkansas,Brother Reservoir,34.53751433,-91.47619636
AR,05001,Arkansas,Burnt Lake,34.22937963,-91.11237697
AR,05001,Arkansas,Butler Lake,34.2821272,-91.20734156
AR,05001,Arkansas,Butler Lake Number Two,34.3033015,-91.12618056
AR,05001,Arkansas,Chaney Lake,34.17579199,-91.40542788
AR,05001,Arkansas,Cocklebur Lakes,34.31467264,-91.06425132
AR,05001,Arkansas,Columbus Lake,34.19234301,-91.11363056
AR,05001,Arkansas,Covington Lake,34.26798478,-91.09411996
AR,05001,Arkansas,Cox Reservoir,34.36868284,-91.54366157
AR,05001,Arkansas,Crane Lake,34.20035618,-91.09576853
AR,05001,Arkansas,Crockett Lake,34.4194557,-91.19216321
AR,05001,Arkansas,Ditch Lake,34.42032607,-91.16753548
AR,05001,Arkansas,Drainie Lake,34.14429803,-91.16695724
AR,05001,Arkansas,Dry Lake,34.11867949,-91.16786684
AR,05001,Arkansas,Dudley Lake,34.18234366,-91.24427202
AR,05001,Arkansas,Eagle Nest Lake,34.21639868,-91.13397486
AR,05001,Arkansas,Eason Lake,34.42570044,-91.20234939
AR,05001,Arkansas,Fish Lake,34.16488457,-91.12353411
AR,05001,Arkansas,Flag Lake,34.12859624,-91.41920583
AR,05001,Arkansas,Frazier Lake,34.33068492,-91.11696914
AR,05001,Arkansas,Frazier Lake (historical),34.31394615,-91.12588884
AR,05001,Arkansas,Fridenburg Reservoir,34.53999111,-91.44737312
AR,05001,Arkansas,Fullers Reservoir,34.34857601,-91.43458201
AR,05001,Arkansas,Girerd Pond,34.30842209,-91.39525763
AR,05001,Arkansas,Goose Lake,34.10023183,-91.15554805
AR,05001,Arkansas,Goosefoot Lake,34.40893869,-91.18118604
AR,05001,Arkansas,Gordon Lake,34.42095703,-91.16203543
AR,05001,Arkansas,Gregory Lake,34.1704804,-91.32990079
AR,05001,Arkansas,Gum Pond,34.24176715,-91.09421055
AR,05001,Arkansas,Gunnell Pond,34.47791096,-91.30712341
AR,05001,Arkansas,Gut Lake,34.28170343,-91.08161963
AR,05001,Arkansas,H Lake,34.17154882,-91.10237825
AR,05001,Arkansas,Haller Lake,34.19994674,-91.39548936
AR,05001,Arkansas,Halowell Reservoir,34.31286324,-91.64133322
AR,05001,Arkansas,Hammonds Reservoir,34.53196654,-91.46257372
AR,05001,Arkansas,Hillman Pond,34.36757277,-91.39513748
AR,05001,Arkansas,Hillman Reservoir,34.37527479,-91.38007363
AR,05001,Arkansas,Hillman Reservoir Number Two,34.37620222,-91.46923572
AR,05001,Arkansas,Holly Lake,34.44269107,-91.17543415
AR,05001,Arkansas,Horton Lake,34.29330097,-91.11865664
AR,05001,Arkansas,J Gunnell Lake,34.46505051,-91.34062595
AR,05001,Arkansas,Jenkins Lake,34.17126305,-91.25623086
AR,05001,Arkansas,John Smith Lake,33.96597229,-91.15716447
AR,05001,Arkansas,Jones Lake,34.2771231,-91.12111703
AR,05001,Arkansas,Knoff Reservoir,34.42096672,-91.42492071
AR,05001,Arkansas,La Fargue Lake,34.18657434,-91.34585465
AR,05001,Arkansas,La Grue Lake,34.0983425,-91.16087676
AR,05001,Arkansas,Laboring Bay,34.0418728,-91.20257191
AR,05001,Arkansas,Lake Dumond,33.98177292,-91.27131408
AR,05001,Arkansas,Lake Rosebud,34.2805023,-91.16040663
AR,05001,Arkansas,Lake Wisdom,34.13921145,-91.31580861
AR,05001,Arkansas,Layne Arkansas Reservoir,34.53138134,-91.44504262
AR,05001,Arkansas,Leak Lake,34.43451567,-91.19982051
AR,05001,Arkansas,Leibrock Lake,34.45642204,-91.34540246
AR,05001,Arkansas,Lemmons Lake,34.18239367,-91.51000727
AR,05001,Arkansas,Little Goose Lake,34.14053655,-91.11577561
AR,05001,Arkansas,Little H Lake,34.16145973,-91.1085849
AR,05001,Arkansas,Little Horseshoe Lake,34.30023628,-91.0802458
AR,05001,Arkansas,Little Jones Lake,34.28561022,-91.10185878
AR,05001,Arkansas,Little Round Pond,34.48020766,-91.23651219
AR,05001,Arkansas,Little White Lake,34.34006207,-91.10120487
AR,05001,Arkansas,Lost Lake,34.12196952,-91.12840036
AR,05001,Arkansas,Lowe Lake,34.16056571,-91.32448736
AR,05001,Arkansas,Lower Eagle Nest Lake,34.13442151,-91.15094023
AR,05001,Arkansas,Lower White Lake,34.24242616,-91.10371377
AR,05001,Arkansas,Loyd Rodgers Reservoir,34.24256521,-91.44631419
AR,05001,Arkansas,Lumsden Lake,34.153968,-91.47355162
AR,05001,Arkansas,Lumsdens Reservoir,34.16200843,-91.44297013
AR,05001,Arkansas,McCracken Lake,34.13809503,-91.30336802
AR,05001,Arkansas,McDoogle Reservoir,34.37572337,-91.49868775
AR,05001,Arkansas,McFall Lake,34.52645098,-91.30588458
AR,05001,Arkansas,McGauhey Lake,34.52725609,-91.28531883
AR,05001,Arkansas,McGraw Lake,34.45079599,-91.33129336
AR,05001,Arkansas,McKewen Lake,34.30070097,-91.28609322
AR,05001,Arkansas,McKinley Reservoir,34.20252537,-91.38188621
AR,05001,Arkansas,Merrisach Lake,34.04184873,-91.27307054
AR,05001,Arkansas,Mitchell Lake,34.28017909,-91.32793868
AR,05001,Arkansas,Mobley Lake,34.15105748,-91.0995256
AR,05001,Arkansas,Moon Lakes,34.19159776,-91.15155777
AR,05001,Arkansas,Mopkins Lake,34.25840797,-91.22010639
AR,05001,Arkansas,Mud Lakes,34.16595245,-91.09071742
AR,05001,Arkansas,Old Old River,34.01418069,-91.36851969
AR,05001,Arkansas,Old River Lake,33.95676897,-91.15820269
AR,05001,Arkansas,Otis Pond,34.30766883,-91.21057585
AR,05001,Arkansas,Otter Lake,34.26351094,-91.08880002
AR,05001,Arkansas,Oxbow Lake,34.11434703,-91.13347788
AR,05001,Arkansas,Parish Lake,34.05935529,-91.32032319
AR,05001,Arkansas,Park Lake,34.01609292,-91.34610505
AR,05001,Arkansas,Payer Lake Number One,34.52504125,-91.29410549
AR,05001,Arkansas,Payer Lake Number Three,34.51636466,-91.29206092
AR,05001,Arkansas,Payer Lake Number Two,34.51824677,-91.3037913
AR,05001,Arkansas,Pecan Lake,34.18114966,-91.42057358
AR,05001,Arkansas,Pike Pond,34.33026521,-91.12206345
AR,05001,Arkansas,Polecat Lakes,34.44126797,-91.20023479
AR,05001,Arkansas,Poplar Creek Lake,34.46579065,-91.23587685
AR,05001,Arkansas,Potlatch Pond Number Two,34.17064281,-91.21774489
AR,05001,Arkansas,Prairie Lake,34.17121059,-91.11180981
AR,05001,Arkansas,Prices Lake,34.31821726,-91.10639881
AR,05001,Arkansas,Prosperous Bayou,34.05566803,-91.20435762
AR,05001,Arkansas,Randolph Reservoir,34.39458168,-91.63732002
AR,05001,Arkansas,Rodgers Lake Number One,34.21839209,-91.46142248
AR,05001,Arkansas,Rodgers Lake Number Two,34.23051685,-91.44213469
AR,05001,Arkansas,Rodgers Reservoir,34.1936723,-91.51912738
AR,05001,Arkansas,Scroggins Reservoir,34.50871098,-91.42493945
AR,05001,Arkansas,Shook Reservoir,34.43473433,-91.32368519
AR,05001,Arkansas,Sollars Reservoir,34.25202952,-91.46013043
AR,05001,Arkansas,Southern Lake,34.40351411,-91.17002679
AR,05001,Arkansas,Star Lake,34.23345102,-91.07683309
AR,05001,Arkansas,Stinking Bay Reservoir,34.41017199,-91.17496433
AR,05001,Arkansas,T Lake,34.15397822,-91.11304508
AR,05001,Arkansas,Thomas Reservoir,34.2774021,-91.41419369
AR,05001,Arkansas,Thomas Reservoirs,34.27128476,-91.41945866
AR,05001,Arkansas,Tindall Lake,34.42282121,-91.49790673
AR,05001,Arkansas,Tindall Reservoir,34.41861233,-91.51494838
AR,05001,Arkansas,Trotters Reservoir,34.55075163,-91.46069362
AR,05001,Arkansas,Turner Lake,34.26736187,-91.08316052
AR,05001,Arkansas,Union Lake,34.25180735,-91.2818717
AR,05001,Arkansas,Voss Lake,34.44568252,-91.24232464
AR,05001,Arkansas,Voss Reservoir,34.39638828,-91.39099936
AR,05001,Arkansas,Walworth Reservoir,34.4842031,-91.40952205
AR,05001,Arkansas,Ward Reservoir,34.17089897,-91.26732322
AR,05001,Arkansas,Wegert Reservoir,34.20018445,-91.46995904
AR,05001,Arkansas,Wheeler Lake,34.13767152,-91.44852713
AR,05001,Arkansas,White Lake,34.092953,-91.15877479
AR,05001,Arkansas,Whiting Lake,34.07919131,-91.23126042
AR,05001,Arkansas,Willow Lake,34.32383081,-91.09806582
AR,05001,Arkansas,Wofford Lake,34.48649253,-91.26299292
AR,05001,Arkansas,Wolf Lake,34.14569662,-91.12566741
AR,05001,Arkansas,Wright Lake,34.2232036,-91.18025858
AR,05003,Ashley,Clear Lake,33.30814559,-91.97335638
AR,05003,Ashley,Cooley Lake,33.03575057,-92.09032055
AR,05003,Ashley,Lake Georgia-Pacific,33.23285504,-92.03433684
AR,05003,Ashley,Lake Georgia Pacific,33.25353416,-92.04510637
AR,05003,Ashley,Lucas Pond,33.1141947,-91.97433594
AR,05003,Ashley,Marais Saline,33.16400051,-92.11266924
AR,05003,Ashley,Mill Pond,33.11027243,-92.02835118
AR,05003,Ashley,Mossy Lake,33.04212611,-92.07712448
AR,05003,Ashley,Mud Lake,33.2572652,-92.04203093
AR,05003,Ashley,Sanders Lake,33.21831058,-91.56329566
AR,05003,Ashley,Shiloh Lake,33.34075099,-91.76688297
AR,05003,Ashley,Stone Lake,33.3033844,-91.69073288
AR,05003,Ashley,Wildcat Lake,33.08025435,-92.12116109
AR,05005,Baxter,Big Flat Lake,35.99385135,-92.39686943
AR,05005,Baxter,Gardner Lake,36.35887732,-92.41672024
AR,05005,Baxter,Higginbottom Lake,36.36362522,-92.41592353
AR,05005,Baxter,Norfork Lake,36.36087017,-92.2444376
AR,05007,Benton,Beaver Lake,36.33572699,-93.94339997
AR,05007,Benton,Crystal Lake,36.34020311,-94.43920079
AR,05007,Benton,Guerrero Lake Number One,36.29793184,-94.49801727
AR,05007,Benton,Guerrero Lake Number Three,36.30835544,-94.48724235
AR,05007,Benton,Gurrero Lake Number Two,36.30195985,-94.4944309
AR,05007,Benton,Harvest Park,36.3708495038456,-94.2892428061359
AR,05007,Benton,Jackson Lake,36.37070544,-94.23807907
AR,05007,Benton,Lake Ann,36.47334002,-94.22527913
AR,05007,Benton,Lake Atalanta,36.33802783,-94.09822975
AR,05007,Benton,Lake Avalon,36.4720678854881,-94.2725723016965
AR,05007,Benton,Lake Bentonville,36.35119217,-94.21898491
AR,05007,Benton,Lake Brittany,36.46739316,-94.20109855
AR,05007,Benton,Lake Centerton,36.3588671480368,-94.2786470872947
AR,05007,Benton,Lake Flint Creek,36.25191844,-94.53358063
AR,05007,Benton,Lake Keith,36.2616944118469,-94.2300542489691
AR,05007,Benton,Lake La Balladine,36.4832232481287,-94.4564466038226
AR,05007,Benton,Lake Norwood,36.48034555,-94.24329829
AR,05007,Benton,Lake Springdale,36.2129915155027,-94.1567640025862
AR,05007,Benton,Lake Windsor,36.4570131628425,-94.2659390714458
AR,05007,Benton,Lindsley Prairie,36.2148395,-94.48146989
AR,05007,Benton,Loch Lomond,36.4661522116715,-94.3285027642824
AR,05007,Benton,Parc at Rogers Lake,36.3306077056103,-94.1958925023672
AR,05007,Benton,Siloam Springs Lake,36.22474194,-94.53850785
AR,05007,Benton,Upper Pond,36.34925637,-94.29525878
AR,05007,Benton,Water Treatment Plant,36.1666751758285,-94.5543129975291
AR,05011,Bradley,Atkins Pond,33.59878509,-92.04666327
AR,05011,Bradley,Bend Lake,33.21597938,-92.17181743
AR,05011,Bradley,Bilbo Lake,33.30137709,-92.31550206
AR,05011,Bradley,Bradley County Lake,33.62472772,-92.09574242
AR,05011,Bradley,Fullerton Lake,33.63910618,-92.03080091
AR,05011,Bradley,Gar Lake,33.28251651,-92.23891151
AR,05011,Bradley,Mud Lake,33.23386824,-92.22675256
AR,05011,Bradley,Pereogeethe Lake,33.23541424,-92.20550216
AR,05011,Bradley,Raymond Lake,33.29934802,-92.33550387
AR,05011,Bradley,Reeps Lake,33.60393679,-92.04304474
AR,05011,Bradley,Scott Lake,33.63585204,-92.05286706
AR,05011,Bradley,Straight Lake,33.22190971,-92.17554746
AR,05011,Bradley,Warren Country Club Lake,33.57057442,-92.06630387
AR,05011,Bradley,White Oak Lake,33.27066862,-92.16262569
AR,05013,Calhoun,Artificial Lake,33.34368379,-92.51399754
AR,05013,Calhoun,Big Johnson Lake,33.50664743,-92.70939384
AR,05013,Calhoun,Black Lake,33.43946194,-92.55270462
AR,05013,Calhoun,Black Lake Slough,33.43063756,-92.55716217
AR,05013,Calhoun,Blackwater Lakes,33.46022478,-92.66856456
AR,05013,Calhoun,Cages Lake,33.41793038,-92.62690046
AR,05013,Calhoun,Cobeen Brake,33.35547625,-92.52071258
AR,05013,Calhoun,Cooks Lake,33.42696729,-92.54871056
AR,05013,Calhoun,Covington Pond,33.69099609,-92.61168433
AR,05013,Calhoun,Crane Lake,33.38563153,-92.57619838
AR,05013,Calhoun,Cross Current Brake,33.36228338,-92.52641158
AR,05013,Calhoun,Ditch Lake,33.36597405,-92.5540557
AR,05013,Calhoun,Duck Roost Lake,33.37743306,-92.57429589
AR,05013,Calhoun,Grapevine Lake,33.28463709,-92.42942445
AR,05013,Calhoun,Hades Lake,33.39264345,-92.58023957
AR,05013,Calhoun,Half Moon Lake,33.46003651,-92.67777265
AR,05013,Calhoun,Harrell Lake,33.52141249,-92.34326801
AR,05013,Calhoun,Hollingsworth Brake,33.39884923,-92.55597816
AR,05013,Calhoun,King Slough,33.43044324,-92.57844654
AR,05013,Calhoun,Lake Cathay,33.76790197,-92.49526979
AR,05013,Calhoun,Little Horseshoe Brake,33.38298242,-92.54887207
AR,05013,Calhoun,Little Mud Lake,33.33917579,-92.52459494
AR,05013,Calhoun,Middle Pond,33.66917512,-92.53963418
AR,05013,Calhoun,Mud Lake,33.34518656,-92.52336993
AR,05013,Calhoun,North Pond,33.67696594,-92.55229548
AR,05013,Calhoun,Scott Water,33.69728226,-92.32791894
AR,05013,Calhoun,Snow Lake,33.38861349,-92.5713665
AR,05013,Calhoun,South Pond,33.66617687,-92.51853378
AR,05013,Calhoun,Spoon Lake,33.43999421,-92.67621447
AR,05013,Calhoun,Tri-County Lake,33.78271594,-92.36894114
AR,05013,Calhoun,Tupelo Gum Brake,33.37200255,-92.55701802
AR,05013,Calhoun,Viney Brake,33.38943192,-92.55309331
AR,05015,Carroll,Black Bass Pond,36.3911816495841,-93.7427382752214
AR,05015,Carroll,Brewer Lake,36.15080861,-93.3312175
AR,05015,Carroll,Eureka Springs City Lake,36.39266587,-93.74703229
AR,05015,Carroll,Farwell Spider Creek Lake,36.44028758,-93.84679046
AR,05015,Carroll,Fuller Lake,36.43917529,-93.59355946
AR,05015,Carroll,Jackson Lake,36.29120753,-93.51157692
AR,05015,Carroll,Lake Lucerne,36.3734549086364,-93.7327282281392
AR,05015,Carroll,Lake of No Return,36.18852011,-93.37274102
AR,05015,Carroll,Leatherwood Lake,36.43943853,-93.75557915
AR,05017,Chicot,Archer Lake,33.40656733,-91.0907647
AR,05017,Chicot,Ball Lake,33.07671153,-91.25181561
AR,05017,Chicot,Beaver Lake,33.31330522,-91.14879619
AR,05017,Chicot,Blue Bayou,33.27634912,-91.15759152
AR,05017,Chicot,Carolina Chute,33.04370848,-91.12714427
AR,05017,Chicot,Cocklebur Lake,33.43794234,-91.13696221
AR,05017,Chicot,Cornfield Chute,33.15066606,-91.12520352
AR,05017,Chicot,Cottonwood Chute,33.29978168,-91.14665599
AR,05017,Chicot,Dry Lake,33.43260932,-91.14281355
AR,05017,Chicot,Eunice Chute,33.49696329,-91.20909421
AR,05017,Chicot,Grand Lake,33.06710901,-91.20400828
AR,05017,Chicot,Lake Boggy Bayou,33.48049944,-91.23911378
AR,05017,Chicot,Lake Ferguson,33.40933546,-91.07867001
AR,05017,Chicot,Lake Lee,33.26745448,-91.05918856
AR,05017,Chicot,Lake Paradise,33.47680684,-91.17567281
AR,05017,Chicot,Lake Port,33.24229121,-91.13799438
AR,05017,Chicot,Leland Chute,33.3543033,-91.16337234
AR,05017,Chicot,Long Lake,33.43557873,-91.15830507
AR,05017,Chicot,Mud Lake,33.43190005,-91.15907258
AR,05017,Chicot,Muddy Lake,33.32108613,-91.23687899
AR,05017,Chicot,Otter Bayou,33.1789575,-91.19929154
AR,05017,Chicot,Otter Lake,33.20169202,-91.1868976
AR,05017,Chicot,S,33.0722230274006,-91.1742933877921
AR,05017,Chicot,Swan Pond,33.34360593,-91.21631576
AR,05017,Chicot,Whiskey Chute,33.31512587,-91.19074542
AR,05017,Chicot,Whiskey Chute Reservoir,33.36214349,-91.24397921
AR,05019,Clark,Barton Lake,33.78674556,-92.99800226
AR,05019,Clark,Boswell Lake,34.04491512,-93.28406835
AR,05019,Clark,Country Club Lake,34.14834652,-93.08889627
AR,05019,Clark,Deceiper Creek,34.0162989244949,-93.0182942979661
AR,05019,Clark,Deceiper Lake,34.02935419,-93.0299842
AR,05019,Clark,Degray Reregulating Lake,34.18521591,-93.10640961
AR,05019,Clark,Dwiggins Lake,34.2335666,-93.4185689
AR,05019,Clark,Gross Lake,34.1489810229785,-93.1030237481523
AR,05019,Clark,Gurdon Pond One,33.91231266,-93.17084276
AR,05019,Clark,Gurdon Pond Two,33.90138387,-93.16642499
AR,05019,Clark,Kirksey Reservoir,34.25329632,-93.44020444
AR,05019,Clark,Lake Barksdale,34.23592904,-93.36690088
AR,05019,Clark,Nowlin Pond,34.11318029,-93.04743948
AR,05019,Clark,Salt Lake,33.79569111,-93.00728016
AR,05021,Clay,Allen Lake,36.32350933,-90.65991092
AR,05021,Clay,Big Lake,36.26861592,-90.75597294
AR,05021,Clay,Brigance Lake,36.4085361559001,-90.292831423979
AR,05021,Clay,Copeland Lake,36.32165717,-90.25892224
AR,05021,Clay,Corning Lake,36.39629449,-90.583903
AR,05021,Clay,Field Lake,36.44059387,-90.73649341
AR,05021,Clay,Flat Lake,36.32974268,-90.64207244
AR,05021,Clay,Grazevich Lake,36.40838418,-90.31608109
AR,05021,Clay,Hughes Lake,36.3808004101942,-90.2119780734371
AR,05021,Clay,Little Taylor Lake,36.43016819,-90.53150416
AR,05021,Clay,Long Lake,36.37420187,-90.59578662
AR,05021,Clay,Mill Lake,36.33674341,-90.63909342
AR,05021,Clay,Murphy Lake,36.35548813,-90.67219302
AR,05021,Clay,Nicholas Lake,36.41964185,-90.28981128
AR,05021,Clay,Poyner Lake,36.3669691,-90.55793902
AR,05021,Clay,Taylor Lake,36.4251658,-90.53447948
AR,05021,Clay,Victory Lake,36.41245469,-90.56504802
AR,05021,Clay,Woods Lake,36.43903141,-90.74136377
AR,05021,Clay,Woolfolk Lake,36.38918656,-90.54105629
AR,05023,Cleburne,Bullard Lake,35.68304934,-91.85932615
AR,05023,Cleburne,Dunaway Lake,35.511564,-92.21119137
AR,05023,Cleburne,Greers Ferry Nursery Pond,35.57537325,-92.22104304
AR,05023,Cleburne,Grisso Lake,35.45962559,-91.95026072
AR,05023,Cleburne,Kennedy Lake,35.4483567,-92.2215884
AR,05023,Cleburne,Lake Eden,35.49894564,-92.10425113
AR,05023,Cleburne,Magness Lake,35.49120367,-91.93303614
AR,05023,Cleburne,Sherlock Lake,35.4696249,-91.98940554
AR,05023,Cleburne,Stair Lake,35.7046749265127,-91.9445388399591
AR,05025,Cleveland,Clements Pond,33.93542075,-92.31766421
AR,05025,Cleveland,Crane Lake,33.80923877,-92.13453311
AR,05025,Cleveland,Dunkeffie Lake,34.03348511,-92.13265111
AR,05025,Cleveland,Grays Lake,33.96589706,-92.29304985
AR,05025,Cleveland,Kesterson Lake,33.88376471,-92.01002868
AR,05025,Cleveland,Lake Elrod,33.93989858,-92.16213586
AR,05025,Cleveland,Larson Lake,33.77930751,-92.25012444
AR,05025,Cleveland,Lower Canada Lake,34.01587928,-92.32036067
AR,05025,Cleveland,Schultz Lake,33.8342435,-92.04877762
AR,05025,Cleveland,Studdard Lake,34.0323138,-92.08459871
AR,05025,Cleveland,Upper Canada Lake,34.02481866,-92.31553239
AR,05025,Cleveland,Van Sadler Lake,33.94263133,-92.1969363
AR,05025,Cleveland,Wilson Lake,33.98765205,-92.30112172
AR,05027,Columbia,Bearden Lake,33.36480393,-93.194648
AR,05027,Columbia,Byrd Lake,33.09439257,-93.28793023
AR,05027,Columbia,Dupriest Lake,33.45277351,-93.20885134
AR,05027,Columbia,Engineering Pond,33.2894478600039,-93.2391338334871
AR,05027,Columbia,Fallin Lake,33.28390431,-93.31671748
AR,05027,Columbia,Fincher Lake,33.43705682,-93.21719763
AR,05027,Columbia,Foster Lake,33.36742078,-93.05649327
AR,05027,Columbia,Lake Columbia,33.29659293,-93.37841352
AR,05027,Columbia,Lake Sue,33.26387582,-93.15425275
AR,05027,Columbia,Maloch Lake,33.10180692,-93.27908967
AR,05027,Columbia,Miller Lake,33.21143115,-93.20156647
AR,05027,Columbia,Pittman Lake,33.27702812,-93.18711862
AR,05027,Columbia,Powell Lake,33.29869351,-93.3240609
AR,05027,Columbia,Rasberry Lake,33.03808507,-93.07401699
AR,05027,Columbia,Sale Lake,33.12094777,-93.23700076
AR,05027,Columbia,SAU Duck Pond,33.291524993895,-93.2318074025947
AR,05027,Columbia,Weber Lake,33.28197913,-93.29445414
AR,05027,Columbia,Wilson Lake,33.32667741,-93.04842485
AR,05029,Conway,Brewer Lake,35.23949466,-92.60078516
AR,05029,Conway,Cargile Lake,35.27507137,-92.81480228
AR,05029,Conway,East Fork Point Remove Site 11 Reservoir,35.28205492,-92.76085523
AR,05029,Conway,East Fork Point Remove Site Eight Reservoir,35.35037878,-92.69346648
AR,05029,Conway,East Fork Point Remove Site Five Reservoir,35.40128618,-92.63529517
AR,05029,Conway,East Fork Point Remove Site Four Reservoir,35.40453458,-92.67855297
AR,05029,Conway,East Fork Point Remove Site Nine Reservoir,35.29197634,-92.68626689
AR,05029,Conway,East Fork Point Remove Site Seven Reservoir,35.36504922,-92.6624432
AR,05029,Conway,East Fork Point Remove Site Six Reservoir,35.38241412,-92.64933576
AR,05029,Conway,East Fork Point Remove Site Three Reservoir,35.43027483,-92.63188778
AR,05029,Conway,Fish Lake,35.22293629,-92.7983629
AR,05029,Conway,Fowler Lake,35.31923016,-92.67162262
AR,05029,Conway,Lake Abby,35.14103851,-92.94315186
AR,05029,Conway,Lake Amanda,35.14613846,-92.92262911
AR,05029,Conway,Lake Bailey,35.12901083,-92.92351705
AR,05029,Conway,Lake Elsie,35.13685392,-92.9470686
AR,05029,Conway,Lake George,35.14386359,-92.92425994
AR,05029,Conway,Lake Jeannette,35.13465567,-92.92993965
AR,05029,Conway,Lake Lucy,35.14434149,-92.93357369
AR,05029,Conway,Lake Overcup,35.20301605,-92.72068438
AR,05029,Conway,Morrilton Sewage Lake,35.18005451,-92.73986796
AR,05029,Conway,Payne Lake,35.10365868,-92.78178119
AR,05029,Conway,Petit Jean State Park Lake,35.12425456,-92.92082597
AR,05029,Conway,Roosevelt Lake,35.13059932,-92.91432828
AR,05029,Conway,Swan Lake,35.1263974619352,-92.6325770373619
AR,05029,Conway,Timberlake Reservoir,35.08240966,-92.80337449
AR,05029,Conway,West Fork Point Remove Creek Site 12 Reservoir,35.3504406,-92.81168399
AR,05029,Conway,West Fork Point Remove Creek Site 13 Reservoir,35.3505795,-92.76311219
AR,05029,Conway,West Fork Point Remove Creek Site 14 Reservoir,35.3452037,-92.75730433
AR,05029,Conway,West Fork Point Remove Creek Site 15 Reservoir,35.33193142,-92.77692497
AR,05029,Conway,West Fork Point Remove Creek Site 16 Reservoir,35.30551333,-92.85236738
AR,05029,Conway,West Fork Point Remove Creek Site Five Reservoir,35.45433779,-92.75265973
AR,05029,Conway,West Fork Point Remove Creek Site Four Reservoir,35.4546986,-92.69840801
AR,05029,Conway,West Fork Point Remove Creek Site Seven Reservoir,35.42910225,-92.8489667
AR,05029,Conway,West Fork Point Remove Creek Site Six Reservoir,35.42170904,-92.78848454
AR,05029,Conway,Winrock Farms Lake,35.1410786997828,-92.9280674764175
AR,05031,Craighead,Big Creek Site 10 Reservoir,35.89039149,-90.77684954
AR,05031,Craighead,Big Creek Site 13 Reservoir,35.81708226,-90.7707315
AR,05031,Craighead,Big Creek Site 14 Reservoir,35.8169225331467,-90.7573395109199
AR,05031,Craighead,Big Creek Site 19 Reservoir,35.8872755309624,-90.6769682560419
AR,05031,Craighead,Big Creek Site Eight Reservoir,35.90393627,-90.74435078
AR,05031,Craighead,Big Creek Site Five Reservoir,35.9626329105756,-90.7363868626981
AR,05031,Craighead,Big Creek Site Four Reservoir,35.9579592616661,-90.7074590808475
AR,05031,Craighead,Big Creek Site Seven Reservoir,35.91720886,-90.7336822
AR,05031,Craighead,Big Creek Site Six Reservoir,35.93158376,-90.73124901
AR,05031,Craighead,Cole Pond,35.84193429,-90.83012295
AR,05031,Craighead,Craighead Forest Lake,35.77867413,-90.70484654
AR,05031,Craighead,Crawford Manor Pond,35.9491372838959,-90.5528386408753
AR,05031,Craighead,Mary Simpson Pond,35.78360239,-90.73376995
AR,05031,Craighead,Oxide Pond,35.7641528041458,-90.3102831011527
AR,05031,Craighead,Willow Pond,35.7662211389702,-90.7036162319109
AR,05033,Crawford,Beverly Hills Lake,35.5350829,-94.3643839
AR,05033,Crawford,Brandenburg Lake,35.56694552,-94.10189724
AR,05033,Crawford,Cold Spring Lake,35.72598602,-94.41247486
AR,05033,Crawford,Hall Lake,35.40848332,-94.22028445
AR,05033,Crawford,Hammond Lake,35.61665856,-94.13556467
AR,05033,Crawford,Lake Alma,35.50201176,-94.2196099
AR,05033,Crawford,Lake Cap Bedell,35.4498469286747,-94.3412626526965
AR,05033,Crawford,Lake Fort Smith,35.64229365,-94.13249475
AR,05033,Crawford,Lake Shepherd Springs,35.68274837,-94.12740129
AR,05033,Crawford,Lee Creek Reservoir,35.4888778,-94.413586
AR,05033,Crawford,Louemma Lake,35.4652255,-94.35841068
AR,05033,Crawford,Montgomery Lake,35.47743334,-94.41522512
AR,05033,Crawford,Mount Gaylor Lake,35.75156528,-94.11641962
AR,05033,Crawford,Swearinger Lake,35.65287657,-94.34735517
AR,05033,Crawford,Switchback Lake,35.74824021,-94.3576201
AR,05033,Crawford,T J House Reservoir,35.55061324,-94.0770021
AR,05033,Crawford,Van Buren Water Reservoir,35.44575662,-94.35585084
AR,05033,Crawford,Webber Creek Reservoir,35.55556156,-94.39254493
AR,05035,Crittenden,Beautiful Lake,35.3565655,-90.44462961
AR,05035,Crittenden,Benwood Lake,35.29459382,-90.30755117
AR,05035,Crittenden,Big Lake,35.35402401,-90.41979829
AR,05035,Crittenden,Blue Lake,35.02080524,-90.32028023
AR,05035,Crittenden,Brougham Lake,35.30320173,-90.40888895
AR,05035,Crittenden,Buck Lake,35.20449607,-90.42378426
AR,05035,Crittenden,Bushy Lake,34.89582712,-90.34640774
AR,05035,Crittenden,Cane Lake,35.29748148,-90.48946573
AR,05035,Crittenden,Copperas Lake,35.06545915,-90.28499558
AR,05035,Crittenden,Danner Lake,35.3112109,-90.1493132
AR,05035,Crittenden,Fletcher Lake,35.09224447,-90.20096868
AR,05035,Crittenden,Goose Lake,34.90668301,-90.33591828
AR,05035,Crittenden,Grassy Lake,35.06717196,-90.20912068
AR,05035,Crittenden,Graves Bayou,35.01326239,-90.31162069
AR,05035,Crittenden,Holden Lake,35.23760493,-90.4293656
AR,05035,Crittenden,Hopefield Lake,35.1400448,-90.07922981
AR,05035,Crittenden,Horseshoe Lake,34.92537758,-90.34010283
AR,05035,Crittenden,Lake David,35.39161813,-90.26843175
AR,05035,Crittenden,Lake Deloche,34.92189553,-90.28954549
AR,05035,Crittenden,Little Grassy Lake,35.35172375,-90.43100005
AR,05035,Crittenden,Long Pond,35.06165715,-90.26401926
AR,05035,Crittenden,Luss Lake,35.42188416,-90.40432746
AR,05035,Crittenden,McCarter Lake,35.20581437,-90.13642308
AR,05035,Crittenden,Meneshea Lake,35.4280184,-90.20485194
AR,05035,Crittenden,Mound City Chute,35.19096201,-90.11739973
AR,05035,Crittenden,North Lake,35.40350697,-90.11034728
AR,05035,Crittenden,Old River Lake,34.84538668,-90.31758462
AR,05035,Crittenden,Porter Lake,34.88471555,-90.33600903
AR,05035,Crittenden,South Lake,35.35150494,-90.1131465
AR,05035,Crittenden,Stump Lake,35.36993516,-90.43431675
AR,05035,Crittenden,Wapanocca Lake,35.34592317,-90.23468929
AR,05037,Cross,Caney Creek Site 3a Reservoir,35.25552393,-90.75904178
AR,05037,Cross,Caney Creek Site One Reservoir,35.29310723,-90.76763658
AR,05037,Cross,Caney Creek Site Two Reservoir,35.2675443821916,-90.7727599792246
AR,05037,Cross,Cathy Lake,35.1989008824606,-90.7678386897272
AR,05037,Cross,Dog Pond,35.1741074,-90.61978857
AR,05037,Cross,Hall Lake,35.2642198887606,-90.7700459967575
AR,05037,Cross,Hess Pond,35.2320433493848,-90.767829821231
AR,05037,Cross,Hunter Rest Club Lake,35.24790622,-90.73028848
AR,05037,Cross,Jack Lake,35.14642776,-90.56730759
AR,05037,Cross,Lake Austell,35.1528473,-90.7234501
AR,05037,Cross,Lake Dunn,35.17054164,-90.7008559
AR,05037,Cross,Little Blackfish Lake,35.21988989,-90.51356174
AR,05037,Cross,Neelys Lake,35.21930736,-90.57791179
AR,05037,Cross,Patterson Lake,35.14444589,-90.55633111
AR,05037,Cross,Pufahl Reservoir,35.3507535780483,-90.8534604627796
AR,05037,Cross,Robinson Lake,35.26302763,-90.73362945
AR,05037,Cross,Shaver Lake,35.24151126,-90.5492669
AR,05037,Cross,Walnut Timber Lake,35.18374346,-90.58451947
AR,05037,Cross,Wittsburg Lake,35.19005929,-90.67691595
AR,05039,Dallas,Horseshoe Lake,33.81158034,-92.88534715
AR,05039,Dallas,Jacobs Lake,33.8482282,-92.48008157
AR,05039,Dallas,Kervin Lake Number One,33.85865855,-92.43330632
AR,05039,Dallas,Lake Lansdale,33.79917562,-92.46183362
AR,05039,Dallas,Long Lake,33.8920046,-92.88485571
AR,05039,Dallas,Round Lake,33.88029513,-92.88046884
AR,05039,Dallas,Shell Lake,33.82308863,-92.86498914
AR,05041,Desha,Alligator Lake,34.04392327,-91.10048294
AR,05041,Desha,Amos Bayou,33.81577836,-91.4828945
AR,05041,Desha,Bar Lake,33.67614106,-91.06744975
AR,05041,Desha,Bear Lake,33.76300953,-91.23075679
AR,05041,Desha,Belcoe Lake,33.93839257,-91.30252938
AR,05041,Desha,Big Round Lake,34.06870962,-91.10683185
AR,05041,Desha,Billy Moore Lake,33.87276216,-91.11516781
AR,05041,Desha,Bobs Blue Hole,33.7162658,-91.13577813
AR,05041,Desha,Bobtail Lake,33.91441626,-91.15893715
AR,05041,Desha,Clear Lake,33.77508558,-91.19996329
AR,05041,Desha,Deep Lake,33.76483808,-91.1804904
AR,05041,Desha,Double Cabin Lake,34.03338059,-90.98805221
AR,05041,Desha,Dry Bayou,33.77704983,-91.43324511
AR,05041,Desha,Echubby Lake,33.99584231,-91.42655866
AR,05041,Desha,Elbow Lakes,34.09570246,-91.11948963
AR,05041,Desha,Frenchie Lake,33.60388071,-91.29360333
AR,05041,Desha,Graddy Blue Hole,34.02545648,-91.02987554
AR,05041,Desha,Hog Pen Hole,33.93447915,-91.17756542
AR,05041,Desha,Hole in the Wall Lake,34.00894725,-91.13001727
AR,05041,Desha,Jefferson Lake,33.84977843,-91.15102791
AR,05041,Desha,Kate Adams Lake,33.59392609,-91.21460427
AR,05041,Desha,Lake Beulah,33.77132688,-91.01438241
AR,05041,Desha,Lake Cheatham,33.8113758,-91.20112475
AR,05041,Desha,Lake Defiance,34.04464031,-91.00619113
AR,05041,Desha,Little Clear Lake,33.75238745,-91.1777722
AR,05041,Desha,Little Jefferson Lake,33.86370253,-91.15852014
AR,05041,Desha,Lower Parish Lake,34.07831581,-91.1635707
AR,05041,Desha,Lower Swan Lake,34.06528086,-91.05998232
AR,05041,Desha,Mixture Lake,33.9995732,-91.13293653
AR,05041,Desha,Mossy Lake,34.08148649,-91.15213478
AR,05041,Desha,Mound Lake,33.89710391,-91.22327423
AR,05041,Desha,Mud Lake,33.97733837,-91.40700874
AR,05041,Desha,Paradise Bayou,34.02324193,-91.14674351
AR,05041,Desha,Pelican Lake,33.84594011,-91.11331673
AR,05041,Desha,Pothole Lake,33.58514868,-91.22125158
AR,05041,Desha,Prairie Lakes,34.08719437,-91.09378426
AR,05041,Desha,Prices Lake,33.81797469,-91.09778831
AR,05041,Desha,River Lake,33.6145611351448,-91.184703172643
AR,05041,Desha,Smith Lake,33.88813138,-91.16231434
AR,05041,Desha,Timber Lake,33.86427172,-91.09593801
AR,05041,Desha,Walnut Lake,33.85292868,-91.50056127
AR,05041,Desha,Webfoot Lake,33.94584668,-91.13420517
AR,05041,Desha,Whisky Lake,34.04403249,-91.17059932
AR,05041,Desha,Whitehill Lake,33.62844449,-91.18944996
AR,05043,Drew,Big Lake,33.58101843,-91.60497587
AR,05043,Drew,Bynum Lake,33.5055728,-91.56555661
AR,05043,Drew,Byrd Lake,33.6979322,-91.68038807
AR,05043,Drew,Cooks Brake,33.77285542,-91.5663647
AR,05043,Drew,Dura Craft Lake,33.63204631,-91.83039978
AR,05043,Drew,Lake Monticello,33.7051440754702,-91.8416688268645
AR,05043,Drew,Marsh Lake,33.746245,-91.96272288
AR,05043,Drew,Touchstone Prairie,33.76910972,-91.67559544
AR,05043,Drew,Weevil Pond,33.591880868871,-91.81013093262
AR,05045,Faulkner,Bailey Lake,35.02275232,-92.21489125
AR,05045,Faulkner,Beaver Fork Lake,35.13543118,-92.43710761
AR,05045,Faulkner,Bivans Lake,35.3117825,-92.27690749
AR,05045,Faulkner,Blacks Lake,35.04932888,-92.29023553
AR,05045,Faulkner,Blacks Lake Number Two,35.04059,-92.28257586
AR,05045,Faulkner,Boone Pond,34.96054801,-92.34814497
AR,05045,Faulkner,Browns Lake,34.9858158529109,-92.5772091825184
AR,05045,Faulkner,Brushlake Reservoir,34.97447374,-92.24000659
AR,05045,Faulkner,Carter Lake,35.02190247,-92.43661585
AR,05045,Faulkner,Davis Lake,34.98616567,-92.47513717
AR,05045,Faulkner,Days Lake,35.11496387,-92.41979319
AR,05045,Faulkner,Dears Pond,35.17604601,-92.49816129
AR,05045,Faulkner,Deihl Lake,35.10336722,-92.24979687
AR,05045,Faulkner,Gentry Lake,35.11555583,-92.43481666
AR,05045,Faulkner,Grassy Lake,34.94544337,-92.39090351
AR,05045,Faulkner,Jewell Lake,34.96289467,-92.47436435
AR,05045,Faulkner,Lake Bennett,35.28580293,-92.28568939
AR,05045,Faulkner,Lake Carol-Dan,35.09613841,-92.52963702
AR,05045,Faulkner,Lake Conway Nursery Pond,34.98840104,-92.38385265
AR,05045,Faulkner,Lawrences Lake,35.21208635,-92.41080192
AR,05045,Faulkner,Meers Lake,34.97525391,-92.28434902
AR,05045,Faulkner,Montgomery Lake,35.29743846,-92.32659579
AR,05045,Faulkner,Nalholz Lake,35.12844057,-92.22913073
AR,05045,Faulkner,Parks Lake,35.04749597,-92.30659292
AR,05045,Faulkner,Peppers Pond 3,34.9610763287315,-92.3536320100106
AR,05045,Faulkner,Roberts Pond,34.98756935,-92.40694723
AR,05045,Faulkner,Robins Lake,35.11538068,-92.42907005
AR,05045,Faulkner,Stevens Lake,34.9987492,-92.52226137
AR,05045,Faulkner,Stone Lake,34.96510626,-92.46830582
AR,05045,Faulkner,Torian Lake,35.1624099,-92.49548864
AR,05045,Faulkner,Tupelo Bayou Site One Reservoir,35.03218974,-92.50536801
AR,05045,Faulkner,Tupelo Bayou Site Two Reservoir,34.9990456967863,-92.5298250044973
AR,05045,Faulkner,Watson Lake,34.98993359,-92.2375395
AR,05045,Faulkner,Williams Lake,35.10697855,-92.16326313
AR,05045,Faulkner,Wisley Lake,34.96221604,-92.50672392
AR,05047,Franklin,Bruce Lake,35.5931546,-94.05384184
AR,05047,Franklin,Charleston Lake,35.28189404,-94.04974357
AR,05047,Franklin,Darby Lake,35.26354021,-94.03263283
AR,05047,Franklin,Flanagan Lake,35.38689804,-93.96606092
AR,05047,Franklin,Lake Cecil,35.4578017155287,-93.9524483335785
AR,05047,Franklin,Lake Number 20,35.40231755,-93.99935867
AR,05047,Franklin,Lake Number One,35.31955383,-93.87034884
AR,05047,Franklin,Lake Number Seventeen,35.37071229,-93.82873213
AR,05047,Franklin,Lake Number Sixteen,35.35691726,-93.8186486
AR,05047,Franklin,Lake Number Thirteen,35.28207998,-93.94201204
AR,05047,Franklin,Lake Number Twentyfive,35.34417907,-93.89311676
AR,05047,Franklin,Lake Number Twentyfour,35.32834594,-93.9669442
AR,05047,Franklin,Lake Number Twentyone,35.38858618,-93.96991379
AR,05047,Franklin,Lake Number Twentysix,35.33640279,-93.87455977
AR,05047,Franklin,Lake Number Twentythree,35.35699078,-93.98541192
AR,05047,Franklin,Lake Number Twentytwo,35.37661103,-93.97603813
AR,05047,Franklin,Ozark City Lake,35.53269657,-93.83405943
AR,05047,Franklin,Shores Lake,35.63858963,-93.95903778
AR,05047,Franklin,Sixmile Creek Site 18 Reservoir,35.37573341,-93.8778204
AR,05049,Fulton,Camp Kia Kima Lake,36.35443699,-91.60459501
AR,05049,Fulton,Courtwright Lake,36.40021722,-91.76444526
AR,05049,Fulton,Lake Aztec,36.2922971730628,-91.6033769207504
AR,05049,Fulton,Lake Bertie,36.39071365,-92.01061977
AR,05049,Fulton,Lake Chanute,36.29341048,-91.57629065
AR,05049,Fulton,Lake Omaha,36.30542217,-91.59656029
AR,05049,Fulton,Langston Lake,36.37804204,-91.84304209
AR,05049,Fulton,Mammoth Spring,36.4965345370518,-91.5345700410117
AR,05049,Fulton,McCullough Lake,36.30621225,-91.76616881
AR,05049,Fulton,North Lake,36.25522247,-91.74656782
AR,05049,Fulton,Sparks Lake,36.39913114,-91.96845877
AR,05049,Fulton,Timber Lake,36.26919518,-91.63619182
AR,05051,Garland,Arkansas Noname 136 Reservoir,34.5218214,-93.29198009
AR,05051,Garland,Bethel Lake,34.53928011,-93.06433481
AR,05051,Garland,Big Lake,34.63141838,-93.00849252
AR,05051,Garland,Camp Clear Fork Reservoir,34.50745149,-93.39291441
AR,05051,Garland,Country Club Lake,34.54639184,-93.00627135
AR,05051,Garland,Desoto Lake,34.5375529,-93.03430398
AR,05051,Garland,Diamondhead Lower Lake,34.4324240018683,-92.9577075275203
AR,05051,Garland,Dillon Lake,34.54371533,-93.05975191
AR,05051,Garland,Forest Lake,34.56332193,-93.00450317
AR,05051,Garland,Fountain Lake,34.57622748,-92.96987497
AR,05051,Garland,Hot Springs Reservoir,34.57312963,-93.09333673
AR,05051,Garland,Lake Desoto,34.67817675,-93.01811508
AR,05051,Garland,Lake Hamilton,34.45192631,-93.10337158
AR,05051,Garland,Lake Ouachita,34.60647671,-93.34783286
AR,05051,Garland,Lake Pineda,34.64375197,-92.99354162
AR,05051,Garland,Lake Segovia,34.67109231,-93.0483856
AR,05051,Garland,Nooner Lake,34.61452823,-92.9312308
AR,05051,Garland,Rector Lake,34.52122364,-93.29067686
AR,05051,Garland,Reynolds Lake,34.49222737,-93.31226921
AR,05051,Garland,Roberts Lake,34.45319414,-93.22128456
AR,05051,Garland,Sanderson Lake,34.55086943,-93.05674157
AR,05051,Garland,Sleepy Valley Lake,34.5356134850909,-93.0234816423243
AR,05051,Garland,Sleepy Valley Middle Lake,34.53637068,-93.03039757
AR,05051,Garland,Spring Lake,34.54052945,-92.80976488
AR,05053,Grant,Cox Creek Lake,34.17112581,-92.62468358
AR,05053,Grant,Fiser Lake,34.42152584,-92.46927676
AR,05053,Grant,Horne Lake,34.27940032,-92.26878036
AR,05053,Grant,Lake Brown,34.2833053,-92.39642113
AR,05053,Grant,Lake Kay,34.4479817,-92.38949192
AR,05053,Grant,Moores Lake,34.21028805,-92.52962147
AR,05053,Grant,Nall Lake,34.39864468,-92.58803073
AR,05053,Grant,Stephens Lake,34.28498142,-92.55034465
AR,05053,Grant,Tolar Lake,34.23322222,-92.57574781
AR,05053,Grant,Tull Lake,34.43481224,-92.59772864
AR,05055,Greene,Big Creek Site 15 Reservoir,35.96852111,-90.66990626
AR,05055,Greene,Big Creek Site One Reservoir,35.99210461,-90.68505432
AR,05055,Greene,Big Creek Site Three Reservoir,35.97061412,-90.71111912
AR,05055,Greene,Gum Slough,36.24166831,-90.61946802
AR,05055,Greene,Lake Ashbaugh,36.26152146736,-90.76201590147
AR,05055,Greene,Lake Frierson,35.97950759,-90.71929578
AR,05055,Greene,Lake Ponder,36.0453267758105,-90.6648882760889
AR,05055,Greene,Meadow Lake,36.09752387,-90.5314897
AR,05055,Greene,Reynolds Park Lake,36.07299354,-90.52978344
AR,05055,Greene,Swagger Slough,36.25869156,-90.7079789
AR,05055,Greene,Thompson Lake,35.97891017,-90.64010463
AR,05055,Greene,Walcot Lake,36.04844501,-90.66701778
AR,05057,Hempstead,Beard Lake,33.68472547,-93.92662628
AR,05057,Hempstead,Bois d'Arc Lake,33.55540979,-93.70262872
AR,05057,Hempstead,Bridewells Lake,33.62913886,-93.56941574
AR,05057,Hempstead,Bushy Lake,33.54470904,-93.7638366
AR,05057,Hempstead,Catfish Pond,33.68673817,-93.49136874
AR,05057,Hempstead,Clear Lake,33.49403662,-93.70814601
AR,05057,Hempstead,Cypress Lake,33.68637629,-93.95433368
AR,05057,Hempstead,Duck Pond,33.56842266,-93.77911926
AR,05057,Hempstead,Erwin Lake,33.90152022,-93.74559051
AR,05057,Hempstead,Fish Lake,33.54395729,-93.75656567
AR,05057,Hempstead,H and P Lake,33.79950756,-93.61483365
AR,05057,Hempstead,Hawg Pond,33.70882537,-93.52537177
AR,05057,Hempstead,Horseshoe Lake,33.93818136,-93.51914556
AR,05057,Hempstead,Lake Harris,33.93164689,-93.69245066
AR,05057,Hempstead,Lake Vaughn,33.62176783,-93.84124401
AR,05057,Hempstead,Mud Lake,33.60539265,-93.79752867
AR,05057,Hempstead,Nineteen hundred and sixteen Cut-off,33.50918164,-93.72063431
AR,05057,Hempstead,North Fork Ozan Creek Watershed Site Reservoir,33.93172433,-93.77378441
AR,05057,Hempstead,Old River Lake,33.5902037,-93.80061381
AR,05057,Hempstead,Porter Lake,33.72659293,-93.67394756
AR,05057,Hempstead,Rocky Mound Pond,33.67620346,-93.49791868
AR,05057,Hempstead,Rolling Hills Pond,33.67233336,-93.49967267
AR,05057,Hempstead,Royston Lake One,33.85556442,-93.62063188
AR,05057,Hempstead,Royston Lake Three,33.83392868,-93.62002348
AR,05057,Hempstead,Royston Lake Two,33.84249228,-93.61258201
AR,05057,Hempstead,Smith Lake,33.81997813,-93.62297649
AR,05057,Hempstead,Sow Pond,33.70847413,-93.53051035
AR,05057,Hempstead,Stanley Lake Number One,33.92117864,-93.73183488
AR,05057,Hempstead,Stanley Lake Number Two,33.90969607,-93.74973724
AR,05057,Hempstead,Wino Lake,33.6538633,-93.50234794
AR,05059,Hot Spring,Clearwater Lake,34.47430126,-92.7971398
AR,05059,Hot Spring,Crouchwood Lake,34.4540725905421,-92.9128506433464
AR,05059,Hot Spring,De Gray Lake,34.25196311,-93.19917183
AR,05059,Hot Spring,Lake Bobbie,34.39239199,-93.17109386
AR,05059,Hot Spring,Lower Lake,34.48597464,-92.76990537
AR,05059,Hot Spring,Lucinda Lake,34.48570373,-92.8090497
AR,05061,Howard,Barnes Lake,34.0112277,-93.93939592
AR,05061,Howard,Briar Plant Lake One,34.07255806,-93.84403659
AR,05061,Howard,Briar Plant Lake Three,34.08330753,-93.86015351
AR,05061,Howard,Briar Plant Lake Two,34.08238706,-93.8495303
AR,05061,Howard,Davis Lake,34.00960532,-93.84290291
AR,05061,Howard,Gillham Lake,34.22696726,-94.23013019
AR,05061,Howard,Kever Lake,33.87180412,-93.94765885
AR,05061,Howard,Lake Nickels,33.96066217,-93.84278923
AR,05061,Howard,McAdams Lake,34.02690274,-93.89531498
AR,05061,Howard,North Fork Ozan Creek Site Four Reservoir,34.00431648,-93.83000199
AR,05061,Howard,Scotty Lake,33.84086466,-93.99036936
AR,05061,Howard,Wilson Pond,33.79954001,-93.86598974
AR,05063,Independence,Beatty Pond,35.90332096,-91.6722432
AR,05063,Independence,Brushy Lake,35.78113546,-91.32226968
AR,05063,Independence,Curia Lake,35.83379731,-91.29111874
AR,05063,Independence,Eagle Lake,35.7990588,-91.26275391
AR,05063,Independence,Fish Lake,35.72235882,-91.34189813
AR,05063,Independence,Goforth Reservoir,35.85689577,-91.54658092
AR,05063,Independence,Goose Lake,35.75064532,-91.34657509
AR,05063,Independence,Grassy Lake,35.57561483,-91.4506278
AR,05063,Independence,Grunnel Slough,35.82658813,-91.25090575
AR,05063,Independence,Hog Pond,35.57902036,-91.37551625
AR,05063,Independence,Horseshoe Lake,35.76986186,-91.30725844
AR,05063,Independence,Lake Kimberly,35.87528657,-91.51237072
AR,05063,Independence,Lake Whitstine,35.55049773,-91.40617198
AR,05063,Independence,Little Cow Pond,35.72867907,-91.34120305
AR,05063,Independence,Long Lake,35.6516845,-91.34887943
AR,05063,Independence,Lower Curia Lake,35.76467695,-91.32271958
AR,05063,Independence,Meadow Lake,35.58350653,-91.42187328
AR,05063,Independence,Mud Creek Site One Reservoir,35.70770744,-91.45946423
AR,05063,Independence,Otter Lake,35.76756918,-91.33791706
AR,05063,Independence,Pascoe J Stafford Lake,35.76978866,-91.40158544
AR,05063,Independence,Racetrack Lake,35.81342735,-91.25160013
AR,05063,Independence,Ramsey Slough,35.74919671,-91.64832156
AR,05063,Independence,Ruddell Lake,35.76007972,-91.68946284
AR,05063,Independence,Vaughn Wilson Lake,35.78739898,-91.79322326
AR,05063,Independence,Wall Lake,35.64230177,-91.37629063
AR,05063,Independence,Waugh Pond,35.84161797,-91.81197589
AR,05063,Independence,Yoncopin Lake,35.8059186,-91.26306483
AR,05065,Izard,Bass Lake,36.24856581,-91.75379525
AR,05065,Izard,Gillihan Lake,36.09029914,-91.78111789
AR,05065,Izard,Lodge Lake,36.22613035,-91.7565219
AR,05065,Izard,Spiritual Development Lake,36.25393594,-91.8770196
AR,05065,Izard,White Oak Lake,36.21063221,-91.76052273
AR,05067,Jackson,Beaver Dam Lake,35.45038432,-91.3131238
AR,05067,Jackson,Bell Lake,35.73391615,-91.31330847
AR,05067,Jackson,Bergen Lake,35.64820361,-91.29808699
AR,05067,Jackson,Big Horseshoe Lake,35.47957377,-91.28251682
AR,05067,Jackson,Brewer Lake,35.58538834,-91.10693249
AR,05067,Jackson,Bright Lake,35.46819618,-91.37745113
AR,05067,Jackson,Brush Lake,35.7396396,-91.3262706
AR,05067,Jackson,Buck Pond,35.51771973,-91.32384459
AR,05067,Jackson,Clear Lake,35.53276008,-91.25093975
AR,05067,Jackson,Doctor Jacksons Lake,35.46917812,-91.55531646
AR,05067,Jackson,Drummond Lake,35.5456522,-91.2758505
AR,05067,Jackson,Duck Roost Slough,35.48707873,-91.31952778
AR,05067,Jackson,Eagle Lake,35.72600914,-91.32807987
AR,05067,Jackson,Gamble Lake,35.65987296,-91.32168827
AR,05067,Jackson,Goose Pond,35.67994147,-91.32882815
AR,05067,Jackson,Grassy Lake,35.51855779,-91.30185826
AR,05067,Jackson,Grindle Lake,35.61902897,-91.08341881
AR,05067,Jackson,Guthrie Lake,35.72363384,-91.14041551
AR,05067,Jackson,Hale Lake,35.63307843,-91.0797525
AR,05067,Jackson,Heinmann Brake,35.65520933,-91.30372761
AR,05067,Jackson,Hog Lake,35.52434676,-91.32622676
AR,05067,Jackson,Howard Lake,35.68541218,-91.32318528
AR,05067,Jackson,Johnson Lake,35.68622071,-91.0481533
AR,05067,Jackson,Jonah Lake,35.69608837,-91.31051142
AR,05067,Jackson,Layton Lake,35.71033437,-91.16688994
AR,05067,Jackson,Lotton Lake,35.6002829143585,-91.3201834195568
AR,05067,Jackson,Masons Reservoir,35.45787583,-91.45377226
AR,05067,Jackson,Newport Lake,35.60772032,-91.27710469
AR,05067,Jackson,Newton Lake,35.51529697,-91.2778572
AR,05067,Jackson,Otter Lake,35.70397894,-91.3449068
AR,05067,Jackson,Parrott Lake,35.69955469,-91.19351203
AR,05067,Jackson,Parsley Reservoir,35.73491296,-91.11233955
AR,05067,Jackson,Pickett Lake,35.48861444,-91.26138588
AR,05067,Jackson,Round Pond,35.6179701,-91.31594397
AR,05067,Jackson,Spradlin Lake,35.49345576,-91.32727324
AR,05067,Jackson,Vance Lake,35.55722986,-91.28585848
AR,05067,Jackson,Watson Lake,35.54059809,-91.26480219
AR,05069,Jefferson,Arsenal Lake,34.37196503,-92.09276342
AR,05069,Jefferson,Barnett Lake,34.30379253,-91.84441759
AR,05069,Jefferson,Brean Lake,34.25906609,-91.9181391
AR,05069,Jefferson,Brushy Lake,34.12855616,-91.55976154
AR,05069,Jefferson,Clean Water Holding Pond,34.41532076,-92.12832876
AR,05069,Jefferson,Clear Pond,34.33071224,-92.10041003
AR,05069,Jefferson,Dilly Pond,34.30916674,-92.06748572
AR,05069,Jefferson,Dudley Lake,34.45935457,-91.89312932
AR,05069,Jefferson,Felix Pond,34.37646473,-92.02884411
AR,05069,Jefferson,Five Forks Lake,34.28445209,-91.83528099
AR,05069,Jefferson,Hardin Lake,34.45716695,-92.12003835
AR,05069,Jefferson,Hardin Lake Number Two,34.46014817,-92.11369316
AR,05069,Jefferson,Horseshoe Pond,34.3373708,-92.09812849
AR,05069,Jefferson,Imbeau Bayou,34.16399656,-91.97646986
AR,05069,Jefferson,Jones Lake,34.28290046,-92.0281575
AR,05069,Jefferson,Lake Dick,34.25556717,-91.84216993
AR,05069,Jefferson,Lake Lee,34.29660105,-92.03890134
AR,05069,Jefferson,Lake Pine Bluff,34.23757707,-92.00850758
AR,05069,Jefferson,Langford Lake,34.17421173,-91.60492639
AR,05069,Jefferson,Marks Lake,34.10207693,-91.87910866
AR,05069,Jefferson,Midland Lake,34.17006716,-92.02659573
AR,05069,Jefferson,Neely Lake,34.17116462,-92.0591762
AR,05069,Jefferson,Oakley Lake Number Two,34.17274863,-92.0879862
AR,05069,Jefferson,Patton Lake,34.39018464,-91.942144
AR,05069,Jefferson,Phillips Lake,34.19504602,-91.98128678
AR,05069,Jefferson,Pool Three,34.17563127,-91.6919524
AR,05069,Jefferson,Puerto Rico Lake (historical),34.39774978,-91.92221271
AR,05069,Jefferson,Robinson Lake,34.1838714,-92.18841321
AR,05069,Jefferson,Rust Lake Number One,34.07413942,-91.99710991
AR,05069,Jefferson,Rust Lake Number Two,34.07019676,-91.99444888
AR,05069,Jefferson,Shady Oaks Reservoir,34.11552645,-91.97730015
AR,05069,Jefferson,Suburbia Lake,34.15162874,-92.09319533
AR,05069,Jefferson,Surge Pond,34.40899289,-92.13741654
AR,05069,Jefferson,Ta-Lo-Ha-Lake,34.19753026,-92.14179804
AR,05069,Jefferson,Tulley Lake,34.33075415,-92.09192215
AR,05069,Jefferson,Wild Cat Crossing,34.45259732,-92.08271607
AR,05069,Jefferson,Wilkins Lake,34.25609517,-91.92665517
AR,05069,Jefferson,Willow Lake,34.25514434,-91.91999149
AR,05069,Jefferson,Yellow Lake,34.31695713,-92.06762868
AR,05071,Johnson,Harris Pond,35.4194646,-93.37890011
AR,05071,Johnson,Hartman Lake,35.41690869,-93.63894646
AR,05071,Johnson,Horsehead Lake,35.5624516841714,-93.6373462086785
AR,05071,Johnson,Lake Dardanelle,35.35395196,-93.39613488
AR,05071,Johnson,Lake Dardanelle State Fish Hatchery,35.34529446,-93.36172648
AR,05071,Johnson,Lake Ludwig,35.53596818,-93.44680431
AR,05073,Lafayette,Barmes Pond,33.3777935,-93.583895
AR,05073,Lafayette,Blue Hole,33.0954076,-93.84488981
AR,05073,Lafayette,Buehler Herndon Lake Number Two,33.40671336,-93.59560577
AR,05073,Lafayette,Cargill Pond,33.33919199,-93.62723056
AR,05073,Lafayette,Copeland Lake,33.24152071,-93.7012231
AR,05073,Lafayette,Enyart Lake,33.04537831,-93.72824114
AR,05073,Lafayette,Grassy Lake,33.44299087,-93.69262846
AR,05073,Lafayette,Lake Erling,33.10067443,-93.54369636
AR,05073,Lafayette,Lake June,33.35506112,-93.49187779
AR,05073,Lafayette,Lower Lake Jew Jon,33.15293405,-93.69749826
AR,05073,Lafayette,Meriwether Pond,33.39266143,-93.56559459
AR,05073,Lafayette,Moore Lake,33.38436843,-93.64308202
AR,05073,Lafayette,New Meriwether Pond,33.3988912,-93.59601858
AR,05073,Lafayette,Upper Jew-Jon Lake,33.15272014,-93.70457548
AR,05075,Lawrence,Brushy Lake,35.95242542,-91.19147072
AR,05075,Lawrence,Brushy Pond,36.00572597,-91.19551576
AR,05075,Lawrence,Byrd Lakes,36.05299068,-90.92428543
AR,05075,Lawrence,Clear Lake,36.11926773,-91.04778095
AR,05075,Lawrence,Cooper Creek Site Four Reservoir,36.08663072,-91.2949926
AR,05075,Lawrence,Cooper Creek Site One Reservoir,36.1035558408741,-91.3148560906217
AR,05075,Lawrence,Cooper Creek Site Six Reservoir,36.03894908,-91.28653072
AR,05075,Lawrence,Cooper Creek Site Three Reservoir,36.1209805450959,-91.2845388515958
AR,05075,Lawrence,Cooper Creek Site Two Reservoir,36.13529165,-91.29295646
AR,05075,Lawrence,Digman Lake,36.04534907,-90.91561579
AR,05075,Lawrence,Doctor Ralph Joseph Lake,36.1322563,-91.16127653
AR,05075,Lawrence,Eagle Pond,35.95228438,-91.2179497
AR,05075,Lawrence,Flat Creek Site Five Reservoir,36.04304187,-91.17253758
AR,05075,Lawrence,Flat Creek Site Four Reservoir,36.05605766,-91.15498441
AR,05075,Lawrence,Flat Creek Site Six Reservoir,36.03029515,-91.18450631
AR,05075,Lawrence,Flat Creek Site Two Reservoir,36.09198559,-91.22843527
AR,05075,Lawrence,Lake Charles,36.07334564,-91.14845623
AR,05075,Lawrence,Little Joe Lake,36.18162098,-91.25881561
AR,05075,Lawrence,Long Pond,36.02254034,-91.17342615
AR,05075,Lawrence,Phillips Lake,36.11259866,-91.22431915
AR,05075,Lawrence,Rainey Brake,35.97204423,-91.20385162
AR,05075,Lawrence,Rainwater Lake,36.03816654,-90.89583549
AR,05075,Lawrence,Ralph McDonald Lake,36.09679229,-91.19364572
AR,05075,Lawrence,Robinson Bay,36.0139464,-91.14188228
AR,05075,Lawrence,Round Pond,35.98364152,-91.15115713
AR,05075,Lawrence,Sawlog Slough,36.00526684,-91.18173995
AR,05075,Lawrence,Shecoop Lake,36.1333789250936,-91.3303252188668
AR,05075,Lawrence,Swan Pond,36.06744277,-91.10335259
AR,05075,Lawrence,White Pond,36.00532819,-91.15071887
AR,05077,Lee,Anderson Lake,34.74277553,-90.68405192
AR,05077,Lee,Bain Lake,34.64270987,-90.62809502
AR,05077,Lee,Bear Creek Lake,34.72058254,-90.70045868
AR,05077,Lee,Big Yancopin Lake,34.83256482,-90.67941173
AR,05077,Lee,Blue Hole,34.71818255,-90.57738871
AR,05077,Lee,Blue Lake,34.87139216,-90.63739584
AR,05077,Lee,Box Lake,34.64427757,-90.61749889
AR,05077,Lee,Brushy Lake,34.64409115,-90.62108768
AR,05077,Lee,Cannon Lake,34.66018643,-90.59373366
AR,05077,Lee,Crystal Lake,34.760299251693,-90.7290609234983
AR,05077,Lee,Dry Lake,34.87891204,-90.66254942
AR,05077,Lee,Ellison Lake,34.76548842,-90.64863362
AR,05077,Lee,Johnson Lake,34.7858208,-90.65433829
AR,05077,Lee,L'Anguille Lake,34.78631201,-90.719374
AR,05077,Lee,Laddie Lake,34.6520411,-90.61974587
AR,05077,Lee,Larkin Lake,34.78935227,-90.68768581
AR,05077,Lee,Little Mossy Lake,34.70005213,-90.93619092
AR,05077,Lee,Little Yancopin Lake,34.83570371,-90.68088728
AR,05077,Lee,McCloud Lake,34.71735514,-90.97951637
AR,05077,Lee,McNulty Lake,34.70644907,-90.96111574
AR,05077,Lee,Midway Lake,34.80407561,-90.62399163
AR,05077,Lee,Mossy Lake,34.83057455,-90.55542532
AR,05077,Lee,Piney Fork Lake,34.71958249,-90.99389329
AR,05077,Lee,Rowing Lake,34.78059564,-90.70572127
AR,05077,Lee,Walnut Lake,34.77909618,-91.0472259
AR,05077,Lee,Whistling Lake,34.79019456,-91.06295985
AR,05079,Lincoln,Cane Creek Lake,33.93061588,-91.77105793
AR,05079,Lincoln,Capps Lake,33.95337544,-91.9446625
AR,05079,Lincoln,Farmers Lake,33.8572694,-91.67221447
AR,05079,Lincoln,Glover Lake,33.88326754,-91.90195197
AR,05079,Lincoln,Harm Coat Bayou,33.95231222,-91.65308131
AR,05079,Lincoln,Holthoff Reservoir,33.96685757,-91.62587689
AR,05079,Lincoln,Lake Dian,34.02807124,-91.46329663
AR,05079,Lincoln,Long Lake,34.11626546,-91.7207978
AR,05079,Lincoln,Matthews Lake Dam,33.81716665,-91.74076991
AR,05079,Lincoln,McDonald Lake,34.15571665,-91.722565
AR,05079,Lincoln,McGraw Pond,33.82387058,-91.7578525
AR,05079,Lincoln,Panther Slough,33.98670871,-91.67726629
AR,05079,Lincoln,Patocca Lower Lake,33.912773,-91.8750404
AR,05079,Lincoln,Patocca Upper Lake,33.91126348,-91.87620265
AR,05079,Lincoln,Pinchback Reservoir,33.99560205,-91.69706976
AR,05079,Lincoln,Round Lake,34.14205287,-91.68086192
AR,05079,Lincoln,Sarassa Lake,34.12752921,-91.65563462
AR,05079,Lincoln,Shooks Reservoir,33.97145511,-91.69586912
AR,05079,Lincoln,Steeds Lake,33.95493237,-91.86057333
AR,05081,Little River,Applewhite Cut-off Lake,33.54676596,-94.35503387
AR,05081,Little River,Bear Lake,33.58438108,-93.95826667
AR,05081,Little River,Brushy Lake,33.59317306,-94.06630031
AR,05081,Little River,Choctaw Bayou,33.60950671,-94.41056046
AR,05081,Little River,Country Club Lake,33.71272165,-94.00972559
AR,05081,Little River,Cut-off Lake,33.5855899,-94.09611866
AR,05081,Little River,Dunbar Lake,33.67278837,-94.38986859
AR,05081,Little River,Dunn Lake,33.60522266,-94.27928669
AR,05081,Little River,First Lake,33.57482047,-94.03977557
AR,05081,Little River,Hamilton Lake,33.65526212,-94.4452821
AR,05081,Little River,Harris Lake,33.63522906,-94.08995706
AR,05081,Little River,Hudson Lake,33.56261357,-94.37321998
AR,05081,Little River,Hurricane Bend Lake,33.60250081,-94.46965482
AR,05081,Little River,M C Jones Lake Number One,33.67065051,-94.41324859
AR,05081,Little River,Mill Lake,33.5835911,-94.05992484
AR,05081,Little River,Muddy Lake,33.57112654,-93.99314541
AR,05081,Little River,Nacoosa Paper Retention Pond,33.62612516,-94.10778
AR,05081,Little River,Pleasant Lake,33.56493299,-94.04758341
AR,05081,Little River,Pullen Lake,33.6801256,-94.26904695
AR,05081,Little River,Pyron Lake,33.73206138,-94.40519564
AR,05081,Little River,Scott Lake,33.60301158,-94.14880718
AR,05081,Little River,Sivley Lake,33.67985307,-94.28102873
AR,05081,Little River,SW Arkansas W D Holding Basin,33.6439489,-94.09852764
AR,05081,Little River,Trailer Lake,33.59335925,-94.12855239
AR,05081,Little River,Trout Lake,33.7680791,-94.0815952
AR,05081,Little River,Young Lake,33.58873387,-93.91999579
AR,05083,Logan,Booneville Lake,35.16766361,-93.91970337
AR,05083,Logan,Caney Lake,35.24619251,-93.88783752
AR,05083,Logan,Cove Lake,35.22860853,-93.62244016
AR,05083,Logan,Fletcher Lake,35.2101348,-93.87627962
AR,05083,Logan,Hewitt Lake,35.29152021,-93.88605245
AR,05083,Logan,Hope Lake,35.22718266,-93.72643044
AR,05083,Logan,Keenan Lake,35.04956675,-93.99629402
AR,05083,Logan,Lake Number Eight,35.30165249,-93.90873374
AR,05083,Logan,Lake Number Three,35.26109579,-93.88056188
AR,05083,Logan,Lake Number Two,35.2636825,-93.82963234
AR,05083,Logan,Lake Takima,35.04370038,-94.07333279
AR,05083,Logan,Owens Lake,35.36604602,-93.58131739
AR,05083,Logan,Paris Reservoir,35.27198574,-93.71916588
AR,05083,Logan,Parker Lake,35.20635067,-93.91760121
AR,05083,Logan,Sixmile Creek Watershed Site 10 Reservoir,35.21133509,-93.96339837
AR,05083,Logan,Sixmile Creek Watershed Site 11 Reservoir,35.22648684,-93.98799311
AR,05083,Logan,Sixmile Creek Watershed Site 12 Reservoir,35.22824784,-94.0112995
AR,05083,Logan,Sixmile Creek Watershed Site Five Reservoir,35.22808494,-93.91208852
AR,05083,Logan,Tritt Lake,35.39527878,-93.4845113
AR,05083,Logan,Watson Lake,35.2689966,-93.88981638
AR,05083,Logan,Williams Lake,35.19491239,-93.9576314
AR,05085,Lonoke,Ash Slough,34.87555196,-92.06954265
AR,05085,Lonoke,Buffalo Slough,34.54498856,-91.68103101
AR,05085,Lonoke,Burlesons Pond,34.91435179,-91.73295067
AR,05085,Lonoke,Catfish Lake,35.0399891,-92.05016832
AR,05085,Lonoke,Coburn Brake,34.49762629,-91.78419571
AR,05085,Lonoke,Cooper Lake,34.63939394,-91.64633596
AR,05085,Lonoke,Dry Bayou,34.70570659,-92.08831384
AR,05085,Lonoke,Indian Head Lake,35.04465356,-92.11715111
AR,05085,Lonoke,Jordan Brake,34.56665257,-91.76431849
AR,05085,Lonoke,Keller Lake,34.8154701,-92.04624852
AR,05085,Lonoke,Lake Lemay,34.93940057,-91.94264182
AR,05085,Lonoke,Little Pond,34.91439951,-91.72959148
AR,05085,Lonoke,Magness Creek Lake (East),35.0342248558324,-92.0557236824702
AR,05085,Lonoke,Magness Creek Lake (West),35.0338799474495,-92.0638987070094
AR,05085,Lonoke,McCallie - North Lake,34.88315201,-91.74775378
AR,05085,Lonoke,McCallie - South Reservoir,34.87849928,-91.74586808
AR,05085,Lonoke,Mintons Lake,34.97869967,-91.93073957
AR,05085,Lonoke,Mound Lake,34.64142613,-92.08232599
AR,05085,Lonoke,Mound Pond,34.64662905,-92.07052033
AR,05085,Lonoke,Omni Lake,35.02453616,-92.03126564
AR,05085,Lonoke,Omni Lake Number Two,35.02416628,-92.04245823
AR,05085,Lonoke,Parker Lake,34.68462963,-91.7278116
AR,05085,Lonoke,Peterson Lake,34.63552557,-91.67589806
AR,05085,Lonoke,Pickthorne Lake,34.91760738,-92.06636503
AR,05085,Lonoke,Reservoir Number One,34.89039652,-91.7395033
AR,05085,Lonoke,Richmond Pond,34.96640941,-91.9659618
AR,05085,Lonoke,Rick Lake,35.04017884,-92.01665884
AR,05085,Lonoke,Salt Lake,34.55334357,-91.87807748
AR,05085,Lonoke,Snake Island Flat,34.61489339,-91.67700506
AR,05085,Lonoke,Sniders Pond,34.81390915,-91.77121689
AR,05085,Lonoke,Taton Lake,34.98319038,-92.03567977
AR,05085,Lonoke,White Lake,35.01750792,-91.85510705
AR,05085,Lonoke,Willow Lake,34.99592652,-92.04847766
AR,05087,Madison,Dills Lakes,35.9826533,-93.91574045
AR,05087,Madison,Hindsville Lake,36.15794471,-93.90570669
AR,05089,Marion,Bull Shoals Lake,36.47185431,-92.76277521
AR,05089,Marion,Ham Flat,36.11631858,-92.85591405
AR,05091,Miller,Adams Cut-off Lake,33.58639498,-93.85815649
AR,05091,Miller,Alligator Lake,33.26644945,-94.02593841
AR,05091,Miller,Arkla Lake,33.02334527,-93.97137878
AR,05091,Miller,Bee Lake,33.1750988,-93.79261342
AR,05091,Miller,Boyce Lake,33.39107623,-93.9317111
AR,05091,Miller,Browns Lake,33.2866611,-94.01180895
AR,05091,Miller,Buford Lake,33.48354776,-93.95544943
AR,05091,Miller,Clark Lake,33.50097179,-93.95016921
AR,05091,Miller,Clear Lake,33.50560031,-93.93201157
AR,05091,Miller,Coca Cola Lake,33.40218976,-93.93045439
AR,05091,Miller,Country Club Lake,33.40473676,-94.02232295
AR,05091,Miller,Cox Lake,33.49106241,-93.95053228
AR,05091,Miller,Crabtree Lake,33.24871606,-93.95679619
AR,05091,Miller,Davis Lake,33.32616321,-93.97793696
AR,05091,Miller,Davis Lake Number Two,33.33005015,-93.98560535
AR,05091,Miller,Eason Lake,33.04602409,-93.89284239
AR,05091,Miller,Elliott Slough,33.26742075,-94.01739459
AR,05091,Miller,Fish Lake,33.27752449,-93.78454257
AR,05091,Miller,Ford Slough,33.2548581,-94.00410934
AR,05091,Miller,Gill Lake,33.44182403,-93.92581253
AR,05091,Miller,Goose Lake,33.20669348,-93.75382195
AR,05091,Miller,Haley Lake,33.16549241,-93.7814635
AR,05091,Miller,Harper Lake,33.54785186,-93.88227703
AR,05091,Miller,Hensley Lake,33.34077904,-93.7841245
AR,05091,Miller,Jones Lake,33.07073358,-93.9149442
AR,05091,Miller,Kennedy Lake,33.12849866,-93.88861119
AR,05091,Miller,Lake Dieffenbacher,33.472863221266,-94.005121301451
AR,05091,Miller,Little Pond,33.20349115,-93.94837879
AR,05091,Miller,Long Slough,33.24846728,-94.02194808
AR,05091,Miller,Lower Lake,33.30875106,-93.99606857
AR,05091,Miller,Lower Moore Lake,33.44981439,-93.92846186
AR,05091,Miller,Mathis Slough,33.27554298,-94.03331081
AR,05091,Miller,Mercer Lake,33.1478706,-93.90184343
AR,05091,Miller,Mitchell Lake,33.47727304,-94.03796558
AR,05091,Miller,Moes Slough,33.26314102,-94.00995135
AR,05091,Miller,Nineteen hundred and forty Cut-off Lake,33.52679235,-93.74325382
AR,05091,Miller,Old Bitty Lake,33.4087612,-93.94276041
AR,05091,Miller,Palmer Lake,33.04513006,-93.84148982
AR,05091,Miller,Paradise Lake,33.34977576,-93.98459688
AR,05091,Miller,Pinhook Lake,33.2601367,-94.02893861
AR,05091,Miller,Red Lake,33.46132198,-93.74926668
AR,05091,Miller,Scott Lake,33.56983356,-93.8324571
AR,05091,Miller,Shelby Gene's Pond,33.3244095239874,-93.964801473574
AR,05091,Miller,Snaggy Lake,33.26204943,-94.01740036
AR,05091,Miller,Snake Lake,33.25411099,-93.98498809
AR,05091,Miller,State Line Lake,33.48748702,-94.04200515
AR,05091,Miller,Tobe Lake,33.57754337,-93.8813901
AR,05091,Miller,Upper Lake,33.30191157,-93.9949842
AR,05091,Miller,Upper Moore Lake,33.44864811,-93.936643
AR,05091,Miller,Wadley Lake,33.49112019,-93.98533035
AR,05091,Miller,Westmoreland Lake,33.11824159,-93.92043289
AR,05091,Miller,Whites Camp Lake,33.28597469,-94.00464246
AR,05091,Miller,Williams Lake,33.49072431,-93.98808444
AR,05091,Miller,Willow Lake,33.55054587,-93.8207055
AR,05091,Miller,Winham Lake,33.54602577,-94.02748352
AR,05091,Miller,Wooten Lake,33.42304052,-93.95752486
AR,05093,Mississippi,Caney Old River,35.6445316,-90.2101145
AR,05093,Mississippi,Crooked Lake,35.92426076,-89.79322333
AR,05093,Mississippi,Long Lake,35.83737085,-89.82726459
AR,05093,Mississippi,Mallard Lake,35.8784553,-90.09289449
AR,05093,Mississippi,Mink Lake,35.4413374,-90.18513773
AR,05093,Mississippi,Preston Lake,35.53156955,-89.93857708
AR,05093,Mississippi,Snake Lake,35.45759037,-90.25504889
AR,05093,Mississippi,Stave Lake,35.4375761,-90.19123081
AR,05093,Mississippi,West Bayou,35.84014851,-89.7707856
AR,05095,Monroe,Barnes Lake,34.87956229,-91.35091437
AR,05095,Monroe,Bear Slough,34.64301715,-91.29912901
AR,05095,Monroe,Beaver Dam Lake,34.47827207,-91.19178711
AR,05095,Monroe,Bellknap Lake,34.37853493,-91.10939047
AR,05095,Monroe,Big Baptize Lake,34.6462727,-91.28333352
AR,05095,Monroe,Big Cotton Lake,34.99025844,-91.20640597
AR,05095,Monroe,Big Eagle Lake,34.54804361,-91.27855988
AR,05095,Monroe,Big Weidmann Lake,34.71223753,-91.33486297
AR,05095,Monroe,Blue Hole,34.95442769,-91.20943649
AR,05095,Monroe,Boggy Lake,34.53632166,-91.28009281
AR,05095,Monroe,Brinkley Lake,34.88352968,-91.16380817
AR,05095,Monroe,Browns Shanty Lake,34.45157684,-91.16920106
AR,05095,Monroe,Buck Lake,34.39601467,-91.11894096
AR,05095,Monroe,Burnt Cypress Lake,34.52931025,-91.2532989
AR,05095,Monroe,Caney Slash,34.88416411,-91.21732724
AR,05095,Monroe,Carnes Lake,34.56861082,-91.35244405
AR,05095,Monroe,Clear Lake,34.61636074,-91.31722206
AR,05095,Monroe,Cloud Lake,34.56725126,-91.303993
AR,05095,Monroe,Cooter Lake,34.51765005,-91.20456378
AR,05095,Monroe,Crab Lake,34.49037217,-91.18711069
AR,05095,Monroe,Crosspond Bayou,34.85537887,-91.33371892
AR,05095,Monroe,Crowfoot Lake,34.39711796,-91.11285063
AR,05095,Monroe,Cruthis Lake,34.61589208,-91.35990842
AR,05095,Monroe,Dodson Lake,34.94527838,-91.22734068
AR,05095,Monroe,East Lake,34.60160528,-91.27641295
AR,05095,Monroe,Fish Lake,34.78053856,-91.31857882
AR,05095,Monroe,Goose Lakes,34.61108083,-91.27926328
AR,05095,Monroe,Goose Pond,34.59326069,-91.28198415
AR,05095,Monroe,Graveyard Lake,34.61955343,-91.34773587
AR,05095,Monroe,Hart Lake,34.67274428,-91.36715946
AR,05095,Monroe,Heifer Lake,34.90548084,-91.34562449
AR,05095,Monroe,Hickson Lake,34.88887951,-91.29688694
AR,05095,Monroe,Hog Thief Lake,34.41237992,-91.10422477
AR,05095,Monroe,Hole in the Wall,34.72468507,-91.32027014
AR,05095,Monroe,Ingram Lake,34.76758037,-91.30381576
AR,05095,Monroe,Kansas Lake,34.47856693,-91.15242089
AR,05095,Monroe,Lake Greenlee,34.87460718,-91.16667854
AR,05095,Monroe,Lake Greenlee Reservoir,34.86322555,-91.15780044
AR,05095,Monroe,Lambert Bayou,34.42667383,-91.13693067
AR,05095,Monroe,Little Baptize Lake,34.64307093,-91.28135989
AR,05095,Monroe,Little Cotton Lake,34.99185433,-91.20425966
AR,05095,Monroe,Little Eagle Lake,34.55399819,-91.2805942
AR,05095,Monroe,Little Long Lake,34.37043682,-91.08277672
AR,05095,Monroe,Little Moon Lake,34.39347369,-91.12319858
AR,05095,Monroe,Little Weidmann Lake,34.70764274,-91.33268714
AR,05095,Monroe,Lost Lake,34.81127385,-91.33538549
AR,05095,Monroe,Lower Crooked Lake,34.54635891,-91.25747408
AR,05095,Monroe,Lower Eagle Nest Lake,34.47567852,-91.16819823
AR,05095,Monroe,Lower Forked Lake,34.46790637,-91.19179371
AR,05095,Monroe,McCollum Lake,34.62892539,-91.42703361
AR,05095,Monroe,Middle Old River,34.71318143,-91.34561256
AR,05095,Monroe,Midway Lake,34.62810786,-91.3519373
AR,05095,Monroe,Mill Lake,34.97292278,-91.20096615
AR,05095,Monroe,Mule Lake,34.56459286,-91.2639248
AR,05095,Monroe,Otter Lake,34.74705977,-91.35184769
AR,05095,Monroe,Passmore Lake,34.66776322,-91.33184571
AR,05095,Monroe,Round Lake,34.56445964,-91.28462539
AR,05095,Monroe,Sandy Slough,34.35510854,-91.04904162
AR,05095,Monroe,Section 16 Lake,34.96121728,-91.20584519
AR,05095,Monroe,Simpson Lake,34.41296648,-91.14446478
AR,05095,Monroe,Straight Lake,34.88853478,-91.35410692
AR,05095,Monroe,Upper Crooked Lake,34.55657089,-91.27606625
AR,05095,Monroe,Upper Eagle Nest Lake,34.51800323,-91.2227568
AR,05095,Monroe,Upper Forked Lake,34.49795285,-91.19882678
AR,05095,Monroe,Upper Hooked Lake,34.45141272,-91.15558692
AR,05095,Monroe,Upper Swan Lake,34.4138273,-91.12690333
AR,05095,Monroe,Water Bayou Reservoir,34.38787471,-91.1124508
AR,05095,Monroe,White Oak Lake,34.49373789,-91.17578285
AR,05095,Monroe,Willow Lake,34.45370489,-91.14374134
AR,05095,Monroe,Wire Lake,34.53905095,-91.28971793
AR,05097,Montgomery,Hatfield Lake,34.57976356,-93.90451237
AR,05097,Montgomery,Lake Ouachita Nursery Pond,34.58762129,-93.46823477
AR,05097,Montgomery,Story Pond,34.6903832686862,-93.5464830193033
AR,05099,Nevada,Barham Lake Number 1,33.63059534,-93.23192135
AR,05099,Nevada,Barham Lake Number Two,33.63361018,-93.22844357
AR,05099,Nevada,Bee Bee Lake,33.75831236,-93.41690673
AR,05099,Nevada,Grassy Lake,33.89869179,-93.31532602
AR,05099,Nevada,Hale Lake,33.83215766,-93.41426443
AR,05099,Nevada,Heathlake Reservoir,33.79017125,-93.33572179
AR,05099,Nevada,Lake Bradshaw,33.47271357,-93.22676049
AR,05099,Nevada,Marlers Lake,33.47349876,-93.39603374
AR,05099,Nevada,Suckles Lake,33.89669889,-93.40494271
AR,05099,Nevada,Wilson Lake,33.49193333,-93.40741197
AR,05101,Newton,Edwards Lake,36.11427979,-93.20743555
AR,05101,Newton,Fowler Lake,35.95356208,-93.4160931
AR,05101,Newton,Sycamore Lake,35.92627214,-92.96340929
AR,05101,Newton,Weatherby Lake,36.03028474,-93.24190936
AR,05103,Ouachita,Bacon Lake,33.80015187,-92.87515623
AR,05103,Ouachita,Beavers Lake,33.72055114,-93.02462052
AR,05103,Ouachita,Ben Davis Lake,33.39944932,-92.65353495
AR,05103,Ouachita,Big Dixon Lake,33.71889276,-92.84785788
AR,05103,Ouachita,Blue Lake,33.59106469,-92.77076709
AR,05103,Ouachita,Bragg Lake,33.6478493,-92.97371575
AR,05103,Ouachita,Brigham Lake,33.49121046,-93.0852874
AR,05103,Ouachita,Burks Pond,33.65114719,-92.765013
AR,05103,Ouachita,Davis Lake,33.40569656,-93.04226343
AR,05103,Ouachita,Fishers Lake,33.62670523,-92.82744978
AR,05103,Ouachita,Garner Lake Number One,33.75056426,-92.67174855
AR,05103,Ouachita,Georgia Lake,33.76617592,-92.86904661
AR,05103,Ouachita,Grayson Pond,33.65311483,-93.10750387
AR,05103,Ouachita,Graysons Lake,33.41648272,-93.06843604
AR,05103,Ouachita,Greenings Lake,33.55792499,-92.962896
AR,05103,Ouachita,Harvey Pond,33.59963862,-92.91785986
AR,05103,Ouachita,Hassics Lake,33.41403708,-93.0864905
AR,05103,Ouachita,Kennedy Pond,33.60684803,-92.89187847
AR,05103,Ouachita,Lake Darby,33.53596763,-92.89825073
AR,05103,Ouachita,Lake Landers,33.48746566,-92.9770445
AR,05103,Ouachita,Little Dixon Lake,33.71288117,-92.84714028
AR,05103,Ouachita,Little Johnson Lake,33.59818864,-92.78097355
AR,05103,Ouachita,Lower Old River,33.63593285,-92.83566321
AR,05103,Ouachita,Lower White Oak Lake,33.6903124,-93.08593028
AR,05103,Ouachita,Moon Lake,33.70221376,-92.88488858
AR,05103,Ouachita,Mustin Lake,33.57283143,-92.75485038
AR,05103,Ouachita,Pace Lake,33.54590589,-93.05985166
AR,05103,Ouachita,Pedron Lake,33.51773083,-92.77322163
AR,05103,Ouachita,Pine Lake,33.64756519,-92.83471882
AR,05103,Ouachita,Round Lake,33.58385836,-92.77441134
AR,05103,Ouachita,Saxon Lake,33.68061543,-92.95557339
AR,05103,Ouachita,Senrac Lake,33.53250304,-92.8116715
AR,05103,Ouachita,Tate Lake,33.74281789,-92.88479409
AR,05103,Ouachita,Toney Old River,33.6922459,-92.86960261
AR,05103,Ouachita,Turner Lake,33.58016855,-92.88358692
AR,05103,Ouachita,Upper Old Brake,33.68942737,-92.89276847
AR,05103,Ouachita,Upper White Oak Lake,33.65202621,-93.08798182
AR,05103,Ouachita,Utley Lake,33.75527553,-92.85923055
AR,05103,Ouachita,Walker Lake,33.55795299,-92.72647824
AR,05103,Ouachita,Webb Lake,33.57853007,-92.76466151
AR,05103,Ouachita,Woodard Lake,33.60672124,-92.7750428
AR,05105,Perry,Big Fish Pond,34.96717358,-92.9569779
AR,05105,Perry,Bull Lake,34.96316983,-92.86526938
AR,05105,Perry,Bull Lake Slough,34.9758666,-92.84850851
AR,05105,Perry,Clear Lake,34.97051711,-92.84336067
AR,05105,Perry,Clear Water Lake,35.04109312,-92.96487101
AR,05105,Perry,Cove Creek Lake,34.91521039,-93.06952005
AR,05105,Perry,Darbys Pond,34.97647521,-92.81769531
AR,05105,Perry,Deltic Farms Lake,34.88964394,-92.77131263
AR,05105,Perry,Francis Lake,34.97701735,-92.65047263
AR,05105,Perry,Harris Brake,34.97649676,-92.77122651
AR,05105,Perry,Henry Lake,34.92337891,-92.80554268
AR,05105,Perry,Jones Lake Number Two,35.08955557,-92.56057657
AR,05105,Perry,Lake Sylvia,34.86923567,-92.82232776
AR,05105,Perry,Little Bear Lake,34.8462421892705,-93.0932790722568
AR,05105,Perry,Open Lake,34.97346365,-92.71609927
AR,05105,Perry,Ouachita Creek Watershed Site One Reservoir,35.04099981,-92.57181312
AR,05105,Perry,Ouachita Creek Watershed Site Three Reservoir,35.06823626,-92.56739432
AR,05105,Perry,Ouachita Creek Watershed Site Two Reservoir,35.05595069,-92.56533839
AR,05105,Perry,Owens Lake,35.0936127069581,-92.5623116215372
AR,05105,Perry,Rock Creek Lake,34.92680931,-92.96420056
AR,05105,Perry,South Fouche Site Seven Reservoir,35.01279319,-92.82551257
AR,05105,Perry,South Fourche Site One Reservoir,34.86502468,-93.19078369
AR,05105,Perry,The Campbells Lake,34.94081684,-92.574839
AR,05105,Perry,Turkey Swamp,34.98902851,-92.69573436
AR,05105,Perry,Willenberg Lake,35.03177066,-92.90888571
AR,05105,Perry,Winford Brake,34.99447851,-92.68448558
AR,05107,Phillips,Beaver Pond,34.61763333,-90.62098114
AR,05107,Phillips,Brushy Lake,34.56315938,-90.58416124
AR,05107,Phillips,Cargo Slash,34.46016731,-90.9769729
AR,05107,Phillips,Chaney Lake,34.29474584,-91.01044372
AR,05107,Phillips,Chute of Island 68,34.14480778,-90.96354466
AR,05107,Phillips,Cober Lake,34.63656786,-90.61646909
AR,05107,Phillips,Dustin Pond,34.32403667,-90.678395
AR,05107,Phillips,Flat Lake,34.22565254,-91.05755949
AR,05107,Phillips,Forked Lake,34.63375415,-90.61285682
AR,05107,Phillips,Hornor Neck,34.59471464,-90.59597414
AR,05107,Phillips,Hubbard Lake,34.4495368,-90.5969669
AR,05107,Phillips,Jake Lake,34.63145859,-90.66423585
AR,05107,Phillips,Lacy Lake,34.63218371,-90.61829308
AR,05107,Phillips,Lake Bayou,34.2162114,-91.0529881
AR,05107,Phillips,Little Cypress Lake,34.12037755,-91.10765705
AR,05107,Phillips,Lower Taylor Lake,34.12605925,-91.07555394
AR,05107,Phillips,Porter Lake,34.58302034,-90.5888324
AR,05107,Phillips,Round Lake,34.27207994,-91.06750422
AR,05107,Phillips,Steelman Lake,34.1274952,-91.0906473
AR,05107,Phillips,Storm Creek Lake,34.59836215,-90.62162492
AR,05107,Phillips,Tupelo Lake,34.16231382,-91.07609331
AR,05107,Phillips,Upper Taylor Lake,34.14327478,-91.06360917
AR,05109,Pike,Alford Lake,34.02849091,-93.69788381
AR,05109,Pike,Lake Greeson,34.20420609,-93.73175129
AR,05109,Pike,North Fork Ozan Creek Watershed Number Two Reservoir,34.01004942,-93.78784183
AR,05109,Pike,Round Pond,34.01165378,-93.655051
AR,05109,Pike,Teeter Lake,34.0157389,-93.75939073
AR,05109,Pike,Tetter Lake Two,34.0157512,-93.75214776
AR,05109,Pike,Womack Lake,34.11069592,-93.62555527
AR,05111,Poinsett,Chase Reservoir,35.65206105,-90.847721
AR,05111,Poinsett,Dead Timber Lake,35.44266141,-90.29218375
AR,05111,Poinsett,Lake Hogue,35.58323198,-90.9629649
AR,05111,Poinsett,Lake Poinsett,35.5310978,-90.67574437
AR,05111,Poinsett,Lepanto Sewege Treatment,35.6190882928835,-90.3375015819697
AR,05111,Poinsett,O K Lake,35.68325367,-90.94298424
AR,05111,Poinsett,Poinsett Watershed Site 101 Reservoir,35.47177546,-90.68836287
AR,05111,Poinsett,Poinsett Watershed Site 102 Reservoir,35.49797384,-90.68577533
AR,05111,Poinsett,Poinsett Watershed Site Two Reservoir,35.49037421,-90.68607403
AR,05111,Poinsett,Snake Slough,35.52662575,-91.00307097
AR,05111,Poinsett,Spear Lake,35.55747641,-90.29460297
AR,05111,Poinsett,Wayne Carter Lake,35.54369954,-90.71631565
AR,05113,Polk,Bethesda Lake,34.53195744,-94.23935203
AR,05113,Polk,Blue Lake,34.55096917,-94.28605005
AR,05113,Polk,Brewer Lake,34.29727734,-94.32300562
AR,05113,Polk,City of Mena Sewage Logoon,34.56207149,-94.18397153
AR,05113,Polk,Cox Lake,34.57098233,-94.24277957
AR,05113,Polk,Dairy Lake,34.59154713,-94.09879095
AR,05113,Polk,Faulkner Lake,34.5802505,-93.99196629
AR,05113,Polk,Forbis Lake,34.59998604,-94.10076092
AR,05113,Polk,Irons Fork Reservoir,34.64770693,-94.12156793
AR,05113,Polk,Ivey Lake,34.57618797,-94.40384867
AR,05113,Polk,J and B Lake,34.56232337,-94.02287025
AR,05113,Polk,Lake Wilhelmina,34.60450005,-94.3552039
AR,05113,Polk,Mena Lake,34.58328442,-94.19835287
AR,05113,Polk,Patchett Lake,34.52939975,-94.15417523
AR,05113,Polk,Powell Lake,34.53179597,-94.1646849
AR,05113,Polk,Reeds Lake,34.62833555,-94.4540685
AR,05113,Polk,Shady Lake,34.36169048,-94.02792711
AR,05113,Polk,Ward Lake,34.60782027,-94.24664834
AR,05115,Pope,Flagg Lake,35.20015435,-93.0910641
AR,05115,Pope,Galla Creek Lake,35.26986412,-93.04938889
AR,05115,Pope,Galla Creek Wildlife Lake,35.17832517,-93.02059921
AR,05115,Pope,Holla Bend,35.1309637079475,-93.0467623280146
AR,05115,Pope,Hudson Farms Pond #1,35.3580231068615,-93.0239052005281
AR,05115,Pope,Lake Atkins,35.2089631,-92.95955139
AR,05115,Pope,Lake Irvin,35.21786914,-93.12053753
AR,05115,Pope,Lake Vinson,35.37237116,-93.27739073
AR,05115,Pope,Luther Lake,35.13238272,-93.08929078
AR,05115,Pope,Pleasant View Park Pond,35.3225343761721,-93.1409577341888
AR,05115,Pope,West Fork Point Remove Creek Site 10 Reservoir,35.40567966,-92.94311577
AR,05115,Pope,West Fork Point Remove Creek Site 11 Reservoir,35.37603584,-92.86690631
AR,05115,Pope,West Fork Point Remove Creek Site 17 Reservoir,35.3238569,-92.89296026
AR,05115,Pope,West Fork Point Remove Creek Site 19 Reservoir,35.3730255,-92.96862655
AR,05115,Pope,West Fork Point Remove Creek Site Eight Reservoir,35.44091727,-92.85849202
AR,05115,Pope,West Fork Point Remove Creek Site Nine Reservoir,35.43852973,-92.91399179
AR,05115,Pope,Wildlife Reservation,35.2538520062667,-93.1646295493555
AR,05117,Prairie,Aker Reservoir,34.5826172,-91.49744695
AR,05117,Prairie,Alligator Lake,34.92668094,-91.45861833
AR,05117,Prairie,Argo Reservoir,34.79317046,-91.48230825
AR,05117,Prairie,Bean Lake,34.99413102,-91.49886859
AR,05117,Prairie,Belcher Lake,34.60599056,-91.65043666
AR,05117,Prairie,Big Brushy Lake,34.76373822,-91.40173314
AR,05117,Prairie,Black Lake,34.85952971,-91.45639936
AR,05117,Prairie,Blind Basin,35.01716424,-91.55466979
AR,05117,Prairie,Blue Hole,34.89991902,-91.42934313
AR,05117,Prairie,Bob Williams Lake,34.93072412,-91.40969166
AR,05117,Prairie,Bull-Galloway Reservoir,34.58513862,-91.52838311
AR,05117,Prairie,Cagles Eddy,34.91683819,-91.47215671
AR,05117,Prairie,Choctaw Lake,35.00951868,-91.45258038
AR,05117,Prairie,Clear Lake,35.03500191,-91.40845015
AR,05117,Prairie,Coitier Basin,35.01540189,-91.55389037
AR,05117,Prairie,Crowley Lake,34.86700788,-91.57343339
AR,05117,Prairie,Eddy Lake,34.92059933,-91.47830892
AR,05117,Prairie,Floyds Reservoir,34.83784468,-91.59806666
AR,05117,Prairie,Frakers Reservoir,34.75676409,-91.4919452
AR,05117,Prairie,Goose Basin,35.00655241,-91.52212188
AR,05117,Prairie,Goose Pond,35.03978813,-91.46847316
AR,05117,Prairie,Graveyard Slough,34.91420979,-91.38948408
AR,05117,Prairie,Halls Lake,34.91245522,-91.37333621
AR,05117,Prairie,Hansons Reservoir,34.78010339,-91.65278329
AR,05117,Prairie,Hartz Reservoir,34.69927659,-91.54843743
AR,05117,Prairie,Harvey Lake,34.99017892,-91.49002644
AR,05117,Prairie,Hendricks Lake,34.7856084,-91.41249192
AR,05117,Prairie,Hicks Lake,35.0235339,-91.47811289
AR,05117,Prairie,Hill Lake,35.04910986,-91.47464254
AR,05117,Prairie,Hodges Lake,34.84762129,-91.43930718
AR,05117,Prairie,Holloway Pond,35.06730668,-91.53392552
AR,05117,Prairie,Jake Williams Lake,34.91438205,-91.40448849
AR,05117,Prairie,Jerome Lake,34.85996328,-91.57642983
AR,05117,Prairie,Joe Uhiren Reservoir,34.68822647,-91.68786547
AR,05117,Prairie,Keathley Pond,35.08565649,-91.53676986
AR,05117,Prairie,Lake Des Arc,35.02463694,-91.51462279
AR,05117,Prairie,Lake Treadway,34.84255164,-91.66239935
AR,05117,Prairie,Little Brushy Lake,34.76711778,-91.40700724
AR,05117,Prairie,Little Gum Pond,35.06788144,-91.52576827
AR,05117,Prairie,Little Twin Lake,34.93046861,-91.38206276
AR,05117,Prairie,Loggy Bayou,35.04375994,-91.45770986
AR,05117,Prairie,Maloy Lake,34.82318035,-91.37484714
AR,05117,Prairie,Menett Reservoir,34.6017073,-91.49216901
AR,05117,Prairie,Miers Lake,34.76763721,-91.47054347
AR,05117,Prairie,Miller Lake,34.76242124,-91.39484062
AR,05117,Prairie,Moores Lake,34.84367863,-91.4692588
AR,05117,Prairie,Newkirks Reservoir Number 1,34.67904516,-91.40449518
AR,05117,Prairie,Newkirks Reservoir Number 2,34.67217054,-91.38124987
AR,05117,Prairie,Omni Pond,34.95338538,-91.64474768
AR,05117,Prairie,Peckerwood Lake,34.66481189,-91.51850043
AR,05117,Prairie,Roc Roe Lake,34.73442368,-91.38074954
AR,05117,Prairie,Round Lake,34.9435589,-91.47529043
AR,05117,Prairie,Sims Reservoir,34.76104576,-91.53819411
AR,05117,Prairie,Slaughters Lake,34.71382753,-91.37737481
AR,05117,Prairie,Slippery Lake,34.87587465,-91.44421849
AR,05117,Prairie,Straight Lake,34.94582356,-91.45197409
AR,05117,Prairie,Tates Reservoir,34.99094342,-91.55420841
AR,05117,Prairie,Taylor Pond,35.07065462,-91.53672061
AR,05117,Prairie,Thomas Reservoir Number 2,34.6995606,-91.61910645
AR,05117,Prairie,Vaughts Reservoir,34.83601862,-91.65240548
AR,05117,Prairie,Webb Lake,34.83202563,-91.46565152
AR,05117,Prairie,Whiskey Creek Reservoir,34.72802316,-91.41680542
AR,05117,Prairie,Wing Meade Reservoir,34.69304073,-91.48852891
AR,05119,Pulaski,Aldersgate Lake,34.72992366,-92.39357822
AR,05119,Pulaski,Alneta Lake,34.78349654,-92.53856022
AR,05119,Pulaski,Baldwin Lake,34.82575442,-92.5597584
AR,05119,Pulaski,Beal Lake,34.87433995,-92.2109112
AR,05119,Pulaski,Big Dickinson Lake,34.71411548,-92.31789609
AR,05119,Pulaski,Big Rock Settling Pond,34.69967317,-92.29261101
AR,05119,Pulaski,Bredlow Reservoir,34.49969335,-92.08455036
AR,05119,Pulaski,Broadmoor Lake,34.72662363,-92.34467208
AR,05119,Pulaski,Brown Lake,34.91583226,-92.21046851
AR,05119,Pulaski,Cecil White Reservoir,34.71829467,-92.49569793
AR,05119,Pulaski,Conner Park pond,34.7998387714872,-92.41793949685
AR,05119,Pulaski,Coulter Lake,34.63153664,-92.37446869
AR,05119,Pulaski,Dailey Lake,34.68079832,-92.46579014
AR,05119,Pulaski,Davis Lake,34.99764416,-92.17149066
AR,05119,Pulaski,Devoe Lake,34.85851346,-92.3796976
AR,05119,Pulaski,Dougan Lake,34.8165068,-92.52594295
AR,05119,Pulaski,Dupree Lake,34.85132235,-92.14708381
AR,05119,Pulaski,Eanes Minnow Farm Lake Number Two,34.72377401,-92.11781894
AR,05119,Pulaski,Ferguson Lake,34.52895339,-92.23001571
AR,05119,Pulaski,Fletcher Lake,34.68951369,-92.54816863
AR,05119,Pulaski,Foreman Lake,34.76935273,-92.36879076
AR,05119,Pulaski,Fountain Display,34.7466554805239,-92.2587411438526
AR,05119,Pulaski,Fountain Head Lake,34.63011603,-92.30940694
AR,05119,Pulaski,Gardner Company Lake,34.69425915,-92.41960333
AR,05119,Pulaski,Ginger Hill Lake,34.80400063,-92.55391205
AR,05119,Pulaski,Ginhouse Lake,34.66089139,-92.12572838
AR,05119,Pulaski,Glover Lake,34.71852026,-92.50434006
AR,05119,Pulaski,Grays Lake,34.77087062,-92.53003786
AR,05119,Pulaski,Green Bear Lake,34.72907565,-92.48313098
AR,05119,Pulaski,Green Lake,34.74383396,-92.49587465
AR,05119,Pulaski,Gribble Lake,34.93456954,-92.17469864
AR,05119,Pulaski,Gropper Lake,34.49544821,-92.20492268
AR,05119,Pulaski,Harris Lake,34.78714656,-92.1512868
AR,05119,Pulaski,Hatcher Lake Number One,34.91035071,-92.20183334
AR,05119,Pulaski,Hatcher Lake Number Two,34.90812497,-92.20167035
AR,05119,Pulaski,Hills Lake,34.76733417,-92.11217772
AR,05119,Pulaski,Horseshoe Lake,34.69743046,-92.10663828
AR,05119,Pulaski,Hudmans Lake Number One,34.83466958,-92.35220849
AR,05119,Pulaski,Hudmans Lake Number Two,34.83302158,-92.34956525
AR,05119,Pulaski,Indianhead Lake,34.84353855,-92.18008533
AR,05119,Pulaski,Jackson Lake,34.98557939,-92.16403135
AR,05119,Pulaski,Jackson Reservoir,34.77608561,-92.37126621
AR,05119,Pulaski,Keener Lake,34.99347328,-92.10349504
AR,05119,Pulaski,Kirk Lake,34.7654407,-92.45234639
AR,05119,Pulaski,Koban Lake,34.70243054,-92.43244442
AR,05119,Pulaski,Lake Alpine,34.72788519,-92.46124378
AR,05119,Pulaski,Lake Bendine,34.7034039,-92.3317233
AR,05119,Pulaski,Lake Cherrywood,34.82813027,-92.20341647
AR,05119,Pulaski,Lake Florence,34.71889315,-92.47344527
AR,05119,Pulaski,Lake Maumelle,34.87859403,-92.56679887
AR,05119,Pulaski,Lake Nixon,34.7169372,-92.4338857
AR,05119,Pulaski,Lake Number Six,34.80246509,-92.25047685
AR,05119,Pulaski,Lake Number Three,34.79367048,-92.25059646
AR,05119,Pulaski,Lake Number Two,34.78849718,-92.24269136
AR,05119,Pulaski,Lake Patricia,34.72428754,-92.44505074
AR,05119,Pulaski,Lake Valencia,34.8625529,-92.40332195
AR,05119,Pulaski,Lakewood Lake Number Five,34.8010149968709,-92.2512997690866
AR,05119,Pulaski,Lakewood Lake Number Four,34.8000526612557,-92.2518780532928
AR,05119,Pulaski,Lakewood Lake Number One,34.78447306,-92.24545882
AR,05119,Pulaski,Laman Lake,34.99509899,-92.13451209
AR,05119,Pulaski,Landmark Lake,34.60481173,-92.32280823
AR,05119,Pulaski,Little Indian Lake Number One,34.81589016,-92.24750213
AR,05119,Pulaski,Little Indian Lake Number Two,34.8186272872082,-92.2471343991899
AR,05119,Pulaski,McQuire Lake,34.61927367,-92.32754994
AR,05119,Pulaski,Mills Valley Lake,34.97753169,-92.2045022
AR,05119,Pulaski,Montgomery Lake,34.83577039,-92.55495785
AR,05119,Pulaski,Nixon Lake,34.75178689,-92.53092239
AR,05119,Pulaski,Paradise Lake,34.88562692,-92.14377709
AR,05119,Pulaski,Peeler Lake,34.8205577,-92.20008392
AR,05119,Pulaski,Pine Crest Lake,34.69563845,-92.52291853
AR,05119,Pulaski,Quarry Pond,34.8432587040794,-92.4622884840563
AR,05119,Pulaski,Rosenbaum Lake,34.80934576,-92.36600319
AR,05119,Pulaski,Round Hole,34.60664962,-92.18780926
AR,05119,Pulaski,Sandpiper Lake,34.73813748,-92.39650789
AR,05119,Pulaski,Second Edition Lake,34.73508902,-92.37863582
AR,05119,Pulaski,Sessions Lake,34.95104181,-92.16903192
AR,05119,Pulaski,Sprick Lake,34.69695517,-92.39821877
AR,05119,Pulaski,Spring Lake,34.74401696,-92.44199675
AR,05119,Pulaski,Spring Valley Lake Number One,34.73081996,-92.44180224
AR,05119,Pulaski,Spring Valley Lake Number Two,34.72849975,-92.43722321
AR,05119,Pulaski,Stonebrook Entrance Pond,34.8862200800837,-92.4029214417156
AR,05119,Pulaski,Sturgis Pond,34.81538143,-92.49902661
AR,05119,Pulaski,Tall Pine Lake,34.74174688,-92.48892642
AR,05119,Pulaski,Tall Timber Lake,34.69915978,-92.38250188
AR,05119,Pulaski,Todd Lake,34.87768728,-92.20646004
AR,05119,Pulaski,Trammel Lake,34.8203716,-92.19045067
AR,05119,Pulaski,Transvaal Lake,34.87800471,-92.13354945
AR,05119,Pulaski,Twin Lakes,34.74077809,-92.38039231
AR,05119,Pulaski,Waldron Lake,34.53867163,-92.22517528
AR,05119,Pulaski,Walton Lake,34.59805154,-92.2253614
AR,05119,Pulaski,Ward Lake,34.72310217,-92.41939454
AR,05119,Pulaski,Watkins Pond,34.78278872,-92.21096577
AR,05119,Pulaski,Western Hills Lake,34.7044365,-92.35785946
AR,05119,Pulaski,Wilkins Lake,34.99266308,-92.13456942
AR,05119,Pulaski,Willastein Lake,34.85050888,-92.41162533
AR,05119,Pulaski,Willow Springs Lake,34.62849212,-92.31964297
AR,05119,Pulaski,Wilson Lake,34.73093721,-92.42598781
AR,05119,Pulaski,Wingate Lake,34.75364406,-92.35991342
AR,05121,Randolph,Allison Lake,36.21301905,-91.04049121
AR,05121,Randolph,Baltz Lake,36.27615796,-90.9617437
AR,05121,Randolph,Bates Lake,36.28600357,-90.98037942
AR,05121,Randolph,Blue Basin Lake,36.2581281,-91.0553669
AR,05121,Randolph,Brown Lake,36.18152507,-91.00278162
AR,05121,Randolph,Bull Pizzle Lake,36.18544448,-91.01611186
AR,05121,Randolph,Dishpan Lake,36.24413095,-90.97106149
AR,05121,Randolph,Fourche Creek Site 16 Reservoir,36.44733725873,-91.0526950735032
AR,05121,Randolph,Fourche Creek Site 17 Reservoir,36.42708309,-91.01224275
AR,05121,Randolph,Fourche Creek Site 18 Reservoir,36.40019113,-91.03444356
AR,05121,Randolph,Gas Plant Lake,36.32846794,-90.83324437
AR,05121,Randolph,Horseshoe Lake,36.23110455,-90.98800863
AR,05121,Randolph,Kilo-Vista Lake,36.23650856,-91.08238548
AR,05121,Randolph,Legate Lake,36.3452093,-90.80833598
AR,05121,Randolph,Lemmons Lake,36.17921661,-91.07205373
AR,05121,Randolph,Lost Lake,36.33239856,-91.074477
AR,05121,Randolph,McGuire Lake,36.39206129,-90.76006
AR,05121,Randolph,Meadows Lake,36.48859703,-91.03817704
AR,05121,Randolph,Old River Island Lake,36.36444856,-90.77603764
AR,05121,Randolph,Old River Slough,36.26097229,-90.95373468
AR,05121,Randolph,R J Barnett Lake,36.40259912,-90.84296266
AR,05121,Randolph,Round Lake,36.13784515,-91.06807716
AR,05121,Randolph,Schnabaum Lake,36.28936777,-90.86534241
AR,05121,Randolph,Shakybog Lake,36.22492996,-90.99216417
AR,05121,Randolph,Sparkman Lake,36.30529302,-90.84894384
AR,05121,Randolph,Straight Lake,36.14190472,-91.0718382
AR,05121,Randolph,Wallace Lake,36.41471065,-91.04481221
AR,05121,Randolph,Wilson Lake,36.16041741,-91.02760867
AR,05121,Randolph,Winebaugh Lake,36.23126769,-90.97492307
AR,05123,St. Francis,Beaty Lake,35.07225061,-90.70806364
AR,05123,St. Francis,Beaver Lake,35.00695295,-90.58096402
AR,05123,St. Francis,Big Bear Lake,35.14215715,-90.6470503
AR,05123,St. Francis,Big Lake,34.97352831,-90.6077249
AR,05123,St. Francis,Brushy Lake,35.00734074,-90.66476969
AR,05123,St. Francis,Bushy Lake,35.12921063,-90.65702116
AR,05123,St. Francis,Cole Lake,34.92372676,-90.95700096
AR,05123,St. Francis,Don Lake,34.91166235,-90.66996869
AR,05123,St. Francis,Donahue Lake,34.99882455,-90.51785603
AR,05123,St. Francis,Fishing Lake,35.12498036,-90.64416198
AR,05123,St. Francis,Forest Lake Number 3,35.01796605,-90.75229078
AR,05123,St. Francis,Forest Lake Number 4,35.01802797,-90.74696326
AR,05123,St. Francis,Forest Lake Number 5,35.01535308,-90.75905011
AR,05123,St. Francis,Forest Lake Number 6,35.00914802,-90.76679495
AR,05123,St. Francis,Hickey Lake,35.02943773,-90.78262258
AR,05123,St. Francis,Island Lake,35.00067272,-90.66410538
AR,05123,St. Francis,Kiethley Lake,35.02841674,-90.69997007
AR,05123,St. Francis,Lake Saint Francis,35.07685692,-90.7611939
AR,05123,St. Francis,Loeb Lake,34.98855538,-90.74191785
AR,05123,St. Francis,Long Lake,34.99461733,-90.67151997
AR,05123,St. Francis,Mud Lake,34.9282999,-90.52878852
AR,05123,St. Francis,Nichols Lake,35.11500336,-90.50396341
AR,05123,St. Francis,Pettijohn Lake,35.03197437,-90.61949255
AR,05123,St. Francis,Round Pond Lake,35.07757793,-90.63501116
AR,05123,St. Francis,Scenic Hills Lake,35.05720069,-90.73011128
AR,05123,St. Francis,Shell Lake,35.13978623,-90.49483524
AR,05123,St. Francis,Skinny Lake,34.97978149,-90.69949981
AR,05123,St. Francis,Taylor Lake,34.93048673,-90.43556644
AR,05123,St. Francis,Telico Lake,35.08156501,-90.80457411
AR,05123,St. Francis,Wiggins Lake,35.10393836,-90.56854569
AR,05125,Saline,4-H Camp Lake,34.64587491,-92.5696809
AR,05125,Saline,Alcoa Water Supply,34.56920491,-92.53885652
AR,05125,Saline,Brown Lake,34.8053437088135,-92.7765319892628
AR,05125,Saline,Caldwell Lake,34.60583209,-92.52581443
AR,05125,Saline,Cecil Jones Lake,34.60774466,-92.61048644
AR,05125,Saline,Clear Lake,34.57332755,-92.37298487
AR,05125,Saline,Crystal Lake,34.68678404,-92.51153831
AR,05125,Saline,Dawson Lake,34.48577317,-92.73527725
AR,05125,Saline,Dotted Lake,34.50923402,-92.60357807
AR,05125,Saline,Dotty Lake,34.52819636,-92.48986963
AR,05125,Saline,Ferguson Lake,34.53779902,-92.27652359
AR,05125,Saline,Hansen Lake,34.78523597,-92.8128682
AR,05125,Saline,Happy Valley Lake,34.75356604,-92.58140645
AR,05125,Saline,Helmich Lake,34.66046434,-92.58504424
AR,05125,Saline,Holding Pond Number Two Reservoir,34.5370683,-92.53317164
AR,05125,Saline,Hurricane Lake,34.62527322,-92.53322293
AR,05125,Saline,Indian Springs Lake,34.62304101,-92.48187752
AR,05125,Saline,Inman Lake Number Two,34.73208454,-92.57120858
AR,05125,Saline,King Lake,34.58713512,-92.38540142
AR,05125,Saline,Lake Balboa,34.6383401635904,-92.9087868867114
AR,05125,Saline,Lake Coronado,34.65434644,-92.96558681
AR,05125,Saline,Lake Cortez,34.68093258,-92.97804038
AR,05125,Saline,Lake Lago,34.67771561,-92.94705049
AR,05125,Saline,Lake New Moon,34.75098558,-92.60087993
AR,05125,Saline,Lake Pauline,34.58159688,-92.55971182
AR,05125,Saline,Lake Winona,34.80656015,-92.86960084
AR,05125,Saline,Ledbetter Lake,34.61189521,-92.51779601
AR,05125,Saline,Maertins Lake,34.65548391,-92.58817558
AR,05125,Saline,Mary Lake,34.5395489041355,-92.3425678995987
AR,05125,Saline,Mashburn Lake Number Two,34.55763147,-92.3640496
AR,05125,Saline,Masoner Lake,34.55986993,-92.71734334
AR,05125,Saline,Old Brown Mud Lakes,34.54382172,-92.47885751
AR,05125,Saline,Parker Lake,34.60305702,-92.3665516
AR,05125,Saline,Pathway Youth Camp Lake,34.49039394,-92.72943203
AR,05125,Saline,Pebble Lake,34.6171182,-92.54610338
AR,05125,Saline,Spring Lake,34.53796707,-92.32228445
AR,05125,Saline,Sunset Lake,34.5563456733978,-92.6142964631717
AR,05125,Saline,Surge Pond,34.57836152,-92.476315
AR,05125,Saline,Timber Lake,34.55135076,-92.52938377
AR,05125,Saline,Timberlake,34.4932196137869,-92.6390412442543
AR,05127,Scott,Beaver Slough,34.80594171,-93.83345085
AR,05127,Scott,Giles Pond,34.87085536,-94.13658132
AR,05127,Scott,Lake Waldron,34.96385524,-94.102502
AR,05127,Scott,Moore Lake,34.92517215,-93.94910913
AR,05127,Scott,Poteau River Site 11 Dam,34.84759914,-94.31779368
AR,05127,Scott,Poteau River Site 14 Lake,34.8533971,-94.23237604
AR,05127,Scott,Poteau River Site 17 Lake,34.86360982,-94.1815979
AR,05127,Scott,Poteau River Site 18 Lake,34.83292538,-94.13260224
AR,05127,Scott,Poteau River Site Five Lake,34.93817523,-94.03972542
AR,05127,Scott,Poteau River Site Nine Lake,34.931458,-94.32987703
AR,05127,Scott,Poteau River Site Seven Lake,34.95024935,-94.16321994
AR,05127,Scott,Poteau River Watershed Site 12 Reservoir,34.84489788,-94.27745629
AR,05127,Scott,Poteau River Watershed Site 16 Lake,34.91324604,-94.24140225
AR,05127,Scott,Poteau River Watershed Site Eight Lake,34.9485292,-94.19676473
AR,05127,Scott,Selkirk Lake,34.90716549,-93.96161671
AR,05129,Searcy,Baker Lake,35.83732087,-92.53345849
AR,05129,Searcy,Lake Ferguson,35.88312081,-92.63098925
AR,05131,Sebastian,Booneville Lake,35.14789791,-94.05988687
AR,05131,Sebastian,Courthouse Slough,35.41952946,-94.12799073
AR,05131,Sebastian,Crain Lake,35.38505253,-94.35960922
AR,05131,Sebastian,Crouch Lake,35.31286724,-94.15301486
AR,05131,Sebastian,Crowe Hill Reservoir,35.3466269,-94.39594705
AR,05131,Sebastian,Echols Lake,35.35841547,-94.38730406
AR,05131,Sebastian,Engineer Lake,35.2797192,-94.11624208
AR,05131,Sebastian,Greenwood Lake,35.18769037,-94.24487588
AR,05131,Sebastian,Gurisco Lake,35.26621974,-94.43324871
AR,05131,Sebastian,Lake Number One,35.0245959,-94.26868345
AR,05131,Sebastian,Lake Spur,35.01936448,-94.23990531
AR,05131,Sebastian,Mansfield Lake,35.05419759,-94.23342311
AR,05131,Sebastian,McMahan Lake,35.32809632,-94.3004234
AR,05131,Sebastian,Number Name Lake,35.35831456,-94.12581881
AR,05131,Sebastian,Park Lake,35.01198932,-94.25847885
AR,05131,Sebastian,Sebastian Lake,35.21527426,-94.4046936
AR,05131,Sebastian,Shadow Lake,35.23257822,-94.29973798
AR,05131,Sebastian,Sugar Loaf Lake,35.09217934,-94.40699627
AR,05131,Sebastian,Torraine Lake,35.2903410748622,-94.3437211556355
AR,05131,Sebastian,Wildcat Mountain Lake,35.36706382,-94.34884503
AR,05131,Sebastian,Williamson Lake,35.23775629,-94.28574274
AR,05131,Sebastian,Willies Lake,35.30468293,-94.3367053
AR,05131,Sebastian,Wofford Lake,35.22209177,-94.4342253
AR,05133,Sevier,Berks Slough,33.89829018,-94.33185931
AR,05133,Sevier,Coulter Lake,33.96572474,-94.1321118
AR,05133,Sevier,De Queen Lake,34.12023229,-94.38793597
AR,05133,Sevier,Double K Lake,33.89522338,-94.29037674
AR,05133,Sevier,Gillham Lake,34.17162207,-94.3215573
AR,05133,Sevier,Johnson Lake,34.00506026,-94.18919399
AR,05133,Sevier,Lake Hospitality,33.81795594,-94.06052161
AR,05133,Sevier,Process City Lake,34.02199908,-94.36790595
AR,05133,Sevier,Tobin Lake,33.98320658,-94.22512585
AR,05135,Sharp,Catfish Lake,36.11976138,-91.67204058
AR,05135,Sharp,Cedar Lake,35.90114812,-91.43379267
AR,05135,Sharp,Duck Pond,36.09496829,-91.55349507
AR,05135,Sharp,June Lake,36.28142462,-91.51728448
AR,05135,Sharp,Lake Cave City,35.97243388,-91.56104084
AR,05135,Sharp,Lake Cherokee,36.30442707,-91.52584573
AR,05135,Sharp,Lake Galilee,36.30482651,-91.50824396
AR,05135,Sharp,Lake Mirandy,36.27715998,-91.51987757
AR,05135,Sharp,Lake Sequoyah,36.29514817,-91.52658838
AR,05135,Sharp,Lake Sherwood,36.32878652,-91.46982864
AR,05135,Sharp,Lake Thunderbird,36.30038687,-91.54021467
AR,05135,Sharp,Persimmon Pond,36.41896469,-91.31445715
AR,05135,Sharp,Rainbow Lake,36.32345992,-91.48145927
AR,05135,Sharp,Spring Lake,36.29988674,-91.39366502
AR,05135,Sharp,Street Lake,36.04110851,-91.41222842
AR,05135,Sharp,Vagabond Lake,36.28633047,-91.37520984
AR,05135,Sharp,Wild Plum Lake,36.27265645,-91.52656435
AR,05137,Stone,Davis Lake,35.82678193,-91.91751882
AR,05137,Stone,Gunner Pool Lake,35.99425006,-92.21475458
AR,05137,Stone,Stair Lake,35.7137375,-91.94443991
AR,05139,Union,Anthony Lake,33.30528233,-92.57115201
AR,05139,Union,Babb Lake,33.35251433,-92.53647901
AR,05139,Union,Beaver Pond,33.27520797,-92.36700317
AR,05139,Union,Burns Pond,33.21133417,-92.84841427
AR,05139,Union,Calion Lake,33.31918938,-92.53482695
AR,05139,Union,Chapelle Slough,33.33910475,-92.53283597
AR,05139,Union,Cooks Pond,33.08021218,-92.76779349
AR,05139,Union,Forty Acre Millpond,33.04682504,-92.18120442
AR,05139,Union,Grand Marais,33.0710235,-92.14392309
AR,05139,Union,Harper Reservoir,33.07289857,-92.68075678
AR,05139,Union,Harris Lake,33.18882829,-92.91646784
AR,05139,Union,Hoop Lake,33.18279697,-92.18490329
AR,05139,Union,Lake Lisbon,33.27994363,-92.85153239
AR,05139,Union,Lake Wingfield Number Three,33.07520025,-92.65965711
AR,05139,Union,Lewis Lake,33.03447544,-92.94378564
AR,05139,Union,Little Lake,33.02404406,-92.12369957
AR,05139,Union,Nickey Lake,33.33697229,-92.53107715
AR,05139,Union,Ouachita River Reservoir,33.31359047,-92.46961962
AR,05139,Union,Shaw Brake,33.34061706,-92.60754431
AR,05139,Union,Sowell Lake,33.27721623,-92.80235337
AR,05139,Union,Spice Pond,33.24653318,-92.3178753
AR,05139,Union,Stow Lake,33.27107393,-92.44439955
AR,05139,Union,Twenty Acre Millpond,33.0425433,-92.18642291
AR,05139,Union,Wingfield Lake,33.07346059,-92.66388734
AR,05141,Van Buren,B B Ranch Lake,35.45666983,-92.4371484
AR,05141,Van Buren,Brock Creek Lake,35.49301081,-92.80448802
AR,05141,Van Buren,Clinton Lake,35.5915846,-92.43585728
AR,05141,Van Buren,Doyle Flat,35.46771353,-92.83448251
AR,05141,Van Buren,Driver Creek Lake,35.46844764,-92.73052513
AR,05141,Van Buren,Jackson Lake,35.64487241,-92.58186004
AR,05141,Van Buren,West Fork Point Remove Creek Site One Reservoir,35.48138865,-92.65849437
AR,05143,Washington,Adams Lake,36.00020344,-94.18380466
AR,05143,Washington,Arbor Acres Lake,36.14503123,-94.23851569
AR,05143,Washington,Bonner Pond,36.0662058708007,-94.104609409024
AR,05143,Washington,Budd Kidd Lake,35.96985452,-94.36020184
AR,05143,Washington,Cantrell Lake,35.93443604,-94.41922557
AR,05143,Washington,Double Bar Ranch Lake,36.07865833,-94.46862863
AR,05143,Washington,Heda Lake,36.21248462,-94.32282303
AR,05143,Washington,Heflin Lake,35.90771257,-94.12409233
AR,05143,Washington,Kinion Lake,36.05079621,-94.38153698
AR,05143,Washington,Lake Elmdale,36.19494864,-94.21322879
AR,05143,Washington,Lake Fayetteville,36.13666699,-94.13071489
AR,05143,Washington,Lake Lucille,36.07899533,-94.15065358
AR,05143,Washington,Lake Prairie Grove,35.93272442,-94.34301448
AR,05143,Washington,Lake Sequoyah,36.05293029,-94.06033513
AR,05143,Washington,Lake Weddington,36.09079354,-94.37034989
AR,05143,Washington,Lake Wilson,35.99841264,-94.13512236
AR,05143,Washington,Lincoln Lake,35.99850109,-94.41897881
AR,05143,Washington,Meadows Lake,36.05329767,-94.49546552
AR,05143,Washington,Rodgers Lake,35.94224242,-94.39322594
AR,05143,Washington,Slaven Pond,36.0714116044844,-94.1074254939718
AR,05143,Washington,Stormwater Basin for Arvest Ballpark,36.1581019261996,-94.1905292831299
AR,05143,Washington,Tenenbaum Lake,36.16726798,-94.05277013
AR,05145,White,Arm Lake,35.40618992,-91.39426182
AR,05145,White,Bacon Lake,35.32081281,-91.44233782
AR,05145,White,Bailey Lake,35.13793078,-91.5652252
AR,05145,White,Ball Lake,35.12453798,-91.46990297
AR,05145,White,Barbers Lake,35.15861526,-91.52388742
AR,05145,White,Bear Water Slough,35.38549528,-91.42363099
AR,05145,White,Beaver Lake,35.40871171,-91.41614778
AR,05145,White,Beaver Pond,35.27734531,-91.46568106
AR,05145,White,Big Bell Lake,35.21213742,-91.43374772
AR,05145,White,Big Brushy Lake,35.25366992,-91.43643552
AR,05145,White,Big Green Tom Lake,35.28472359,-91.42508153
AR,05145,White,Big Hurricane Lake,35.23809424,-91.44385309
AR,05145,White,Birch Pond,35.25417996,-91.59136765
AR,05145,White,Bollie Pond,35.2638725,-91.47163366
AR,05145,White,Bridges Lake,35.42003165,-91.65807341
AR,05145,White,Britt Lake,35.14587158,-91.458766
AR,05145,White,Cheek Lake,35.06843878,-91.74869251
AR,05145,White,Cobb Lake,35.0780031,-91.84913652
AR,05145,White,Cunningham Pond,35.23352895,-91.49949782
AR,05145,White,Diamond Pond,35.11331647,-91.53489715
AR,05145,White,Dollar Pond,35.20460589,-91.4235215
AR,05145,White,Doniphan Lake,35.25101396,-91.67599876
AR,05145,White,Goose Pond,35.38309011,-91.43545784
AR,05145,White,Grinnell Pond,35.4200894,-91.42959005
AR,05145,White,Gum Pond,35.21630569,-91.41683942
AR,05145,White,Hat Lake,35.21631496,-91.45088976
AR,05145,White,Honey Lake,35.19516947,-91.44100291
AR,05145,White,Jarvers Lake,35.12245676,-91.55558934
AR,05145,White,Kellum Slough,35.1553016,-91.46531931
AR,05145,White,Kinley Lake,35.08058077,-91.85743844
AR,05145,White,Lake Bald Knob,35.34250755,-91.59240184
AR,05145,White,Lercher Lake Number One,35.20542379,-91.85418169
AR,05145,White,Lercher Lake Number Two,35.19193989,-91.88668854
AR,05145,White,Little Bell Lake,35.21804236,-91.4264074
AR,05145,White,Little Brushy Lake,35.25237767,-91.44481984
AR,05145,White,Little Hurricane Lake,35.24274878,-91.44890503
AR,05145,White,Long Lake,35.33491002,-91.43934606
AR,05145,White,Mallard Pond,35.19933178,-91.47188907
AR,05145,White,McDougal Lake,35.41333378,-91.37463931
AR,05145,White,Milliken Lake,35.1698877,-91.57821863
AR,05145,White,Mud Pond,35.20218055,-91.46228774
AR,05145,White,Myers Lake,35.27515449,-91.95778389
AR,05145,White,Newmann Lake,35.16641717,-91.47059167
AR,05145,White,Otto Lake,35.42924825,-91.37205069
AR,05145,White,Round Pond,35.33561415,-91.43447554
AR,05145,White,Ryan Lake,35.14631176,-91.44734611
AR,05145,White,Searcy City Lake,35.2380414243793,-91.6957479713605
AR,05145,White,Smith Lake,35.39820767,-91.4764634
AR,05145,White,Smith Lake One,35.41351767,-91.47876366
AR,05145,White,Smith Lake Two,35.38643997,-91.47160655
AR,05145,White,Smith Pond,35.22303874,-91.76019542
AR,05145,White,Stewarts Reservoir,35.0636788,-91.7375646
AR,05145,White,Swan Ponds,35.17091182,-91.78796765
AR,05145,White,The Quarry,35.297544850366,-91.6053333173858
AR,05145,White,Three Sisters Lake,35.228404,-91.47408896
AR,05145,White,Walker Lake,35.33017342,-91.44869072
AR,05145,White,Whirl Lake,35.19880685,-91.43071828
AR,05145,White,Willow Pond,35.25034177,-91.42826498
AR,05145,White,Wingert Reservoir,35.3401344,-92.09754474
AR,05145,White,Wolf Lake,35.22852763,-91.40683538
AR,05145,White,Woody Pond,35.2627509960699,-91.7162685555961
