st2,GEOID,NAME,lakename,lat,lon
MI,26001,Alcona,Badger Lake,44.77711329,-83.43796257
MI,26001,Alcona,Big Marsh,44.63919044,-83.6962151
MI,26001,Alcona,Bliss Lake,44.60178437,-83.65502739
MI,26001,Alcona,Brownlee Lake,44.68950283,-83.40910589
MI,26001,Alcona,Bryant Lake,44.51568715,-83.65991196
MI,26001,Alcona,Bucks Pond,44.69804564,-83.69932387
MI,26001,Alcona,Byron Lake,44.64478286,-83.81499255
MI,26001,Alcona,Carp Lake,44.6522728,-83.83014169
MI,26001,Alcona,Cedar Lake,44.52892959,-83.33161788
MI,26001,Alcona,Clear Lake,44.62510173,-83.74749805
MI,26001,Alcona,Cranberry Lake,44.76351514,-83.87272944
MI,26001,Alcona,Crooked Lake,44.73553198,-83.86858675
MI,26001,Alcona,Crystal Lake,44.68994655,-83.38972109
MI,26001,Alcona,Curtis Lake,44.58164651,-83.71924559
MI,26001,Alcona,Deer Lake,44.78020551,-83.4823078
MI,26001,Alcona,DeLap Lake,44.59125639,-83.61566263
MI,26001,Alcona,Honawan Lake,44.59477042,-83.78302427
MI,26001,Alcona,Horseshoe Lake,44.60007978,-83.7678514
MI,26001,Alcona,Hubbard Lake,44.80455438,-83.56351501
MI,26001,Alcona,Hunters Lake,44.55295832,-83.7092075
MI,26001,Alcona,Indian Lakes,44.56853349,-83.68603382
MI,26001,Alcona,Jewell Lake,44.67925449,-83.60764748
MI,26001,Alcona,Lake in the Green,44.70382128,-83.69964893
MI,26001,Alcona,Lincoln Lake,44.68339942,-83.4195339
MI,26001,Alcona,Little Bear Lake,44.54657936,-83.74684662
MI,26001,Alcona,Little Lake,44.52906384,-83.70135052
MI,26001,Alcona,Little Trout Lake,44.62373003,-83.67451013
MI,26001,Alcona,Lost Lake,44.79643234,-83.45928539
MI,26001,Alcona,Maynard Lake,44.69060977,-83.53368349
MI,26001,Alcona,McFee Lake,44.74296591,-83.85495836
MI,26001,Alcona,Meyer Lake,44.73020764,-83.8762158
MI,26001,Alcona,Mill Pond,44.660818469423,-83.2945662641667
MI,26001,Alcona,Millikin Lake,44.73597312,-83.39757824
MI,26001,Alcona,Mud Pond,44.69457989,-83.37575698
MI,26001,Alcona,Muskrat Lake,44.82407589,-83.31059354
MI,26001,Alcona,North Lake,44.57060972,-83.70007373
MI,26001,Alcona,O'Brien Lake,44.64128124,-83.88264577
MI,26001,Alcona,Penoyer Lake,44.65055664,-83.78845449
MI,26001,Alcona,Poplar Lake,44.6009572,-83.73589038
MI,26001,Alcona,Potter Lake,44.70729592,-83.54729651
MI,26001,Alcona,Potvin Lake,44.80391377,-83.33098479
MI,26001,Alcona,Reid Lake,44.64244716,-83.68472351
MI,26001,Alcona,Sand Lake,44.73627526,-83.88246984
MI,26001,Alcona,Sunny Lake,44.60838182,-83.79459861
MI,26001,Alcona,Thompson Lake,44.55402377,-83.74212373
MI,26001,Alcona,Trask Lake,44.68347164,-83.4359598
MI,26001,Alcona,Trout Lake,44.65587081,-83.69529622
MI,26001,Alcona,Tubbs Lake,44.60272326,-83.63329963
MI,26001,Alcona,Twin Lake,44.56072111,-83.7454913
MI,26001,Alcona,Vaughn Lake,44.53992065,-83.72787059
MI,26003,Alger,Ackerman Lake,46.33153674,-86.79744752
MI,26003,Alger,Aleck Lake,46.25401127,-86.77681722
MI,26003,Alger,Alger Lake,46.54880461,-86.14695465
MI,26003,Alger,Als Lake,46.27577771,-86.63600604
MI,26003,Alger,Ames Lake,46.52490326,-85.94742319
MI,26003,Alger,Au Train Lake,46.40175342,-86.84020124
MI,26003,Alger,Baldy Lake,46.21714648,-86.65206944
MI,26003,Alger,Bar Lake,46.23550803,-86.65123391
MI,26003,Alger,Bass Lake,46.17187671,-86.75989276
MI,26003,Alger,Bearfoot Lake,46.5640371,-86.05908913
MI,26003,Alger,Beaver Lake,46.56747934,-86.34100171
MI,26003,Alger,Big Twin Lake,46.26898476,-86.63744903
MI,26003,Alger,Birch Lakes,46.55367559,-86.15730686
MI,26003,Alger,Blue Lake,46.16748228,-86.6326482
MI,26003,Alger,Bluegill Lake,46.54191096,-85.94444135
MI,26003,Alger,Bunting Lake,46.27092114,-86.79741323
MI,26003,Alger,Burrell Lakes,46.51424299,-86.33570758
MI,26003,Alger,Camp K Lake,46.18312399,-86.62464445
MI,26003,Alger,Carp Lake,46.22808973,-86.64261555
MI,26003,Alger,Carter Lake,46.57180598,-86.06889914
MI,26003,Alger,Casey Lake,46.52044715,-86.04880606
MI,26003,Alger,Centerline Lake,46.50650002,-86.06388017
MI,26003,Alger,Chapel Lake,46.5316469,-86.4478588
MI,26003,Alger,Cherry Lake,46.26047313,-86.65509496
MI,26003,Alger,Cluster Lakes,46.20791662,-86.6662296
MI,26003,Alger,Clyde Lake,46.54125269,-86.16671491
MI,26003,Alger,Cook Lake,46.24654307,-86.78024782
MI,26003,Alger,Coots Pond,46.43434733,-86.87401485
MI,26003,Alger,County Line Lake,46.50537484,-85.99969655
MI,26003,Alger,Cox Pond,46.37768344,-86.62220779
MI,26003,Alger,Cranberry Lake,46.18856288,-86.71782707
MI,26003,Alger,Crow Lake,46.23658852,-86.66156813
MI,26003,Alger,Dam Lake,46.18189332,-86.72110502
MI,26003,Alger,Davies Lake,46.18920494,-86.83964769
MI,26003,Alger,Deadman Lake,46.54548315,-86.04990493
MI,26003,Alger,Deerfoot Lake,46.51829444,-86.07529373
MI,26003,Alger,Doe Lake,46.26006365,-86.67661614
MI,26003,Alger,Duck Lake,46.47646739,-86.6533334
MI,26003,Alger,East Lake,46.53168632,-85.98875761
MI,26003,Alger,Echo Lake,46.51168032,-86.67094128
MI,26003,Alger,Ewatt Lake,46.55003015,-86.18009643
MI,26003,Alger,Fish Lake,46.22301105,-86.63937136
MI,26003,Alger,Fishhook Lake,46.54675935,-86.17655499
MI,26003,Alger,Fox Lake,46.59211466,-86.03442744
MI,26003,Alger,Furnace Lake,46.43606861,-86.71261156
MI,26003,Alger,Garvey Ponds,46.28303719,-86.62383237
MI,26003,Alger,Ginpole Lake,46.39327435,-86.94249048
MI,26003,Alger,Gopher Lake,46.51983304,-86.05881155
MI,26003,Alger,Grand Marais Lake,46.65365918,-85.90335173
MI,26003,Alger,Grand Sable Lake,46.63818381,-86.04013317
MI,26003,Alger,Grants Lake,46.19494932,-86.62464061
MI,26003,Alger,Grass Lake,46.53601357,-86.11148579
MI,26003,Alger,Grassy Pond,46.26762831,-86.8129889
MI,26003,Alger,Grimes Lake,46.27388824,-86.66313165
MI,26003,Alger,Gypsy Lake,46.54828413,-86.02900855
MI,26003,Alger,Halfmoon Lake,46.25440803,-86.65560477
MI,26003,Alger,Hammond Lake,46.19074237,-86.63093415
MI,26003,Alger,Hartney Lake,46.26575835,-86.67318223
MI,26003,Alger,Hike Lake,46.24494528,-86.65609696
MI,26003,Alger,Hovey Lake,46.29561208,-86.70457426
MI,26003,Alger,Howe Lake,46.43155856,-87.08228206
MI,26003,Alger,Humphrey Pond,46.40418271,-86.4412687
MI,26003,Alger,Hyde Lake,46.56752039,-86.2789055
MI,26003,Alger,Ionia Lake,46.50680935,-86.25519815
MI,26003,Alger,Irwin Lake,46.21943071,-86.62517521
MI,26003,Alger,Island Lake,46.26688913,-86.64855616
MI,26003,Alger,Ivars Pond,46.34696811,-86.89071983
MI,26003,Alger,Jenny Lake,46.25558748,-86.76961758
MI,26003,Alger,Joe Lake,46.30233643,-86.81918408
MI,26003,Alger,Joel Pond,46.41563438,-86.81699622
MI,26003,Alger,Johns Lakes,46.52738692,-85.90235402
MI,26003,Alger,Kennedy Lake,46.55169249,-85.94351135
MI,26003,Alger,Kingston Lake,46.58285968,-86.22246485
MI,26003,Alger,Kingston Pond,46.57688216,-86.21044864
MI,26003,Alger,Kinsey Lake,46.51349968,-86.22370687
MI,26003,Alger,Kitten Lake,46.30658173,-86.70246881
MI,26003,Alger,Laakso Lake,46.34707431,-86.98967469
MI,26003,Alger,Lake Seventeen,46.29368232,-86.8354343
MI,26003,Alger,Lake Stella,46.18120079,-86.77593244
MI,26003,Alger,Lake Twenty Five,46.26620208,-86.74355248
MI,26003,Alger,Lambert Lake,46.50903085,-86.08558297
MI,26003,Alger,Laughing Whitefish Lake,46.418421,-87.04265627
MI,26003,Alger,Lavender Lake,46.59857405,-86.0543568
MI,26003,Alger,Legion Lake,46.52845609,-86.36305503
MI,26003,Alger,Little Aleck Lake,46.25129213,-86.7691808
MI,26003,Alger,Little Beaver Lake,46.56062723,-86.36271726
MI,26003,Alger,Little Chapel Lake,46.54331994,-86.44775139
MI,26003,Alger,Little Gypsy Lake,46.54103177,-86.02736264
MI,26003,Alger,Little Round Lake,46.2619363,-86.78464852
MI,26003,Alger,Long Lake,46.50569233,-86.3189945
MI,26003,Alger,Loon Lake,46.5404615,-86.12299229
MI,26003,Alger,Lost Lake,46.29663691,-86.65802363
MI,26003,Alger,Lower Shoe Lake,46.50128799,-86.38216398
MI,26003,Alger,Man Lake,46.19177111,-86.64227577
MI,26003,Alger,Marshman Lake,46.52462277,-86.08585289
MI,26003,Alger,McComb Lake,46.18823954,-86.65389193
MI,26003,Alger,McFarlin Lake,46.39720844,-86.60084138
MI,26003,Alger,McKay Lake,46.56271859,-86.05115151
MI,26003,Alger,McNeil Lake,46.28925501,-86.63040911
MI,26003,Alger,Mellen Lake,46.52799525,-85.97813336
MI,26003,Alger,Mervin Lake,46.53154537,-86.18573501
MI,26003,Alger,Miners Lake,46.48053667,-86.53822326
MI,26003,Alger,Mink Lake,46.18330402,-86.64608638
MI,26003,Alger,Mino-kwe Ponds,46.2363365691871,-86.6717194018969
MI,26003,Alger,Mirror Lake,46.27559114,-86.68560552
MI,26003,Alger,Misty Lake,46.30412099,-86.67141919
MI,26003,Alger,Mitchell Lake,46.53863675,-85.91411281
MI,26003,Alger,Moose Lake,46.50959473,-86.0591675
MI,26003,Alger,Moth Lake,46.3075854,-86.67792054
MI,26003,Alger,Mouse Lake,46.31211033,-86.70672349
MI,26003,Alger,Mud Lake,46.39673125,-86.70152869
MI,26003,Alger,Muddy Lake,46.28231562,-86.66476943
MI,26003,Alger,Nawakwa Lake,46.53803586,-85.97395345
MI,26003,Alger,Nelson Lake,46.3873427658592,-86.5907366557246
MI,26003,Alger,Nevins Lake,46.51607754,-86.24450075
MI,26003,Alger,Newton Lake,46.55422709,-85.9350052
MI,26003,Alger,Niemi Lake,46.57056993,-85.97353382
MI,26003,Alger,Noble Lake,46.45772894,-86.4702708
MI,26003,Alger,North Lake,46.5371947,-85.8758133
MI,26003,Alger,Odell Pond,46.32249387,-86.83588861
MI,26003,Alger,Otter Lake,46.31164661,-86.72908011
MI,26003,Alger,Owl Lake,46.50642336,-86.07229162
MI,26003,Alger,Pan Lake,46.1863232,-86.62720689
MI,26003,Alger,Panther Lake,46.59252927,-86.04191065
MI,26003,Alger,Paquette Lake,46.24729625,-86.80497859
MI,26003,Alger,Paulson Lake,46.40816212,-86.85242331
MI,26003,Alger,Peck Lake,46.28085954,-86.64508686
MI,26003,Alger,Pelican Lake,46.5563683,-86.14131091
MI,26003,Alger,Perch Lake,46.39523296,-86.71450895
MI,26003,Alger,Phillip Pond,46.31913012,-86.65653565
MI,26003,Alger,Porky Lakes,46.52618471,-86.0388634
MI,26003,Alger,Pothole Lake,46.59507843,-86.05156588
MI,26003,Alger,Powell Lake,46.30934651,-86.65119124
MI,26003,Alger,Preacher Lake,46.59571171,-86.1650494
MI,26003,Alger,Ready Lake,46.26295936,-86.71157119
MI,26003,Alger,Rielly Lake,46.18677103,-86.85309124
MI,26003,Alger,Rock Lake,46.24890268,-86.65739306
MI,26003,Alger,Saul Lake,46.18784827,-86.82917134
MI,26003,Alger,Section Seventeen Lake,46.55390391,-85.95250167
MI,26003,Alger,Section Thirtysix Lake,46.51321165,-86.37278056
MI,26003,Alger,Sevenmile Lake,46.57522911,-86.2812948
MI,26003,Alger,Shady Lake,46.2584754,-86.68514029
MI,26003,Alger,Shallow Lake,46.28066379,-86.73824105
MI,26003,Alger,Sister Lake,46.31490926,-86.65353963
MI,26003,Alger,Sitka Lake,46.57491238,-85.93703698
MI,26003,Alger,Sixteenmile Lake,46.30315624,-86.76176808
MI,26003,Alger,Skeels Lake,46.15877152,-86.616401
MI,26003,Alger,Sleeper Lake,46.53056337,-85.93844653
MI,26003,Alger,Slowfoot Lake,46.17951077,-86.70924025
MI,26003,Alger,Snipe Lake,46.24003413,-86.64441499
MI,26003,Alger,Sphagnum Lake,46.29493302,-86.63125581
MI,26003,Alger,Spider Ponds,46.38727787,-86.89717635
MI,26003,Alger,Spirit Lake,46.46996222,-86.95909895
MI,26003,Alger,Spot Lake,46.21979837,-86.61690539
MI,26003,Alger,Spruce Lake,46.51764221,-86.06683537
MI,26003,Alger,Squaw Lake,46.22403366,-86.67636904
MI,26003,Alger,Stoner Lake,46.16046592,-86.76295857
MI,26003,Alger,Swede Lake,46.37268136,-86.64226373
MI,26003,Alger,Teal Lake,46.56563731,-86.09318401
MI,26003,Alger,Temple Lake,46.20318736,-86.64647121
MI,26003,Alger,Thornton Lake,46.24474082,-86.6226435
MI,26003,Alger,Three Lakes,46.31320353,-86.66319606
MI,26003,Alger,Tie Lake,46.19635412,-86.64892232
MI,26003,Alger,Town Lake,46.22767123,-86.61686625
MI,26003,Alger,Trappers Lake,46.58776313,-86.31339213
MI,26003,Alger,Triangle Lake,46.52991084,-86.09464994
MI,26003,Alger,Trueman Lake,46.30874498,-86.66442871
MI,26003,Alger,Turtle Lake,46.24587212,-86.67179537
MI,26003,Alger,Two Lakes,46.45015641,-86.59942836
MI,26003,Alger,Upper Shoe Lake,46.507146,-86.37924233
MI,26003,Alger,Upper Twin Lake,46.27286345,-86.64228213
MI,26003,Alger,Weasel Lake,46.52007896,-86.16755904
MI,26003,Alger,Weber Lake,46.56614441,-85.96497188
MI,26003,Alger,West Branch Lake,46.1656789,-86.73442036
MI,26003,Alger,West Branch Lakes,46.51068764,-86.10532759
MI,26003,Alger,Wetmore Lake,46.36967866,-86.59172169
MI,26003,Alger,Wheelbarrow Lake,46.26205952,-86.75176513
MI,26003,Alger,Wise Lake,46.52665592,-86.17385675
MI,26003,Alger,Wolf Lake,46.52852451,-86.23656985
MI,26005,Allegan,Angel Lake,42.60359958,-85.56433033
MI,26005,Allegan,Aubil Lake,42.70632966,-85.54781659
MI,26005,Allegan,Base Line Lake,42.42492305,-85.85504064
MI,26005,Allegan,Bass Lake,42.64035349,-85.61226769
MI,26005,Allegan,Big Lake,42.5557546,-85.68744339
MI,26005,Allegan,Big Pond,42.7021973702994,-86.166184244145
MI,26005,Allegan,Big Spec Lake,42.6096827,-85.87861776
MI,26005,Allegan,Black Lake,42.6400387041424,-85.6158585150109
MI,26005,Allegan,Boot Lake,42.6164011,-85.58845597
MI,26005,Allegan,Buskirk Lake,42.60113996,-85.65874565
MI,26005,Allegan,Cady Lake,42.67267519,-85.78588707
MI,26005,Allegan,Caruthers Lake,42.52819166,-85.6642598
MI,26005,Allegan,Clear Lake,42.44050646,-86.03084212
MI,26005,Allegan,Crooked Lake,42.5228221,-86.02323311
MI,26005,Allegan,Doans Lake,42.63729705,-85.64223732
MI,26005,Allegan,Duck Lake,42.42658751,-85.90312128
MI,26005,Allegan,Dumont Lake,42.59318242,-85.86052495
MI,26005,Allegan,Eagle Lake,42.42281148,-85.92813509
MI,26005,Allegan,East Lake,42.64784982,-85.76681659
MI,26005,Allegan,Ely Lake,42.53189106,-86.03743416
MI,26005,Allegan,Emerson Lake,42.44705212,-85.87771519
MI,26005,Allegan,Fenner Lake,42.55829009,-85.59617181
MI,26005,Allegan,Foster Lake,42.46823381,-85.85700286
MI,26005,Allegan,Geneva Lake,42.61754542,-85.63162724
MI,26005,Allegan,Gilligan Lake,42.73176819,-86.19642538
MI,26005,Allegan,Goose Lake,42.6449772530793,-85.922715729395
MI,26005,Allegan,Goshorn Lake,42.68249884,-86.18251431
MI,26005,Allegan,Green Lake,42.75234264,-85.59450074
MI,26005,Allegan,Herlan Lake,42.60221973,-85.75422528
MI,26005,Allegan,Hicks Lake,42.54448632,-85.68635482
MI,26005,Allegan,Hill Lake,42.67033496,-85.58937723
MI,26005,Allegan,Hodge Lake,42.44235531,-85.80896256
MI,26005,Allegan,Huckleberry Lake,42.75709332,-85.6375984
MI,26005,Allegan,Hutchins Lake,42.58164877,-86.13007979
MI,26005,Allegan,Indian Lake,42.62498741,-85.62057676
MI,26005,Allegan,Ingerson Lake,42.60474802,-85.74929754
MI,26005,Allegan,Jackson Lake,42.66446188,-85.57021077
MI,26005,Allegan,Kelly Lake,42.74922216,-86.19812079
MI,26005,Allegan,Lake Allegan,42.55110943,-85.91941529
MI,26005,Allegan,Lake Doster,42.44825581,-85.55122833
MI,26005,Allegan,Lake Monterey,42.6857415970157,-85.8086386823251
MI,26005,Allegan,Leggett Lake,42.6551461,-85.76951727
MI,26005,Allegan,Lester Lake,42.42757661,-86.08294729
MI,26005,Allegan,Little Dipper,42.592892549054,-85.907125702362
MI,26005,Allegan,Little Spec Lake,42.60403168,-85.87593157
MI,26005,Allegan,Little Tom Lake,42.52487495,-86.03599484
MI,26005,Allegan,Littlejohn Lake,42.51156564,-85.88624552
MI,26005,Allegan,Looking Glass Lake,42.61088539,-86.06493499
MI,26005,Allegan,Lower Scott Lake,42.48870457,-86.07403437
MI,26005,Allegan,McDermott Lake,42.6494244137088,-85.7748963009669
MI,26005,Allegan,McIntire Lake,42.65124822,-85.62491459
MI,26005,Allegan,Middle Lake,42.47390065,-85.84660008
MI,26005,Allegan,Mill Pond,42.62629406,-85.59500666
MI,26005,Allegan,Miller Lake,42.57226745,-85.66751368
MI,26005,Allegan,Miner Lake,42.56884763,-85.79106238
MI,26005,Allegan,Minkler Lake,42.44785857,-85.84939682
MI,26005,Allegan,Moore Lake,42.61929833,-85.61202882
MI,26005,Allegan,Osgood Lake,42.46498053,-85.82575918
MI,26005,Allegan,Osterhout Lake,42.434908,-86.03871227
MI,26005,Allegan,Perch Lake,42.59525964,-86.04762686
MI,26005,Allegan,Pike Lake,42.4817953,-85.85312694
MI,26005,Allegan,Pratt Lake,42.5561756,-85.58663868
MI,26005,Allegan,Rabbit Lake,42.6411762379311,-85.6142233455313
MI,26005,Allegan,Sager Lake,42.63108844,-85.62241953
MI,26005,Allegan,Schermerhorn Lake,42.48427335,-85.91503218
MI,26005,Allegan,Schnable Lake,42.52346674,-85.69077462
MI,26005,Allegan,School Section Lake,42.55837483,-85.72272124
MI,26005,Allegan,Selkirk Lake,42.60958005,-85.62680835
MI,26005,Allegan,Shagnasty Lake,42.56893884,-85.6945975
MI,26005,Allegan,Sheffer Lake,42.4757442,-85.87322248
MI,26005,Allegan,Shipp Lake,42.66296148,-85.79031436
MI,26005,Allegan,Silver Lake,42.4889725373214,-85.9336371418338
MI,26005,Allegan,Sink Lake,42.65780891,-86.00367581
MI,26005,Allegan,Spring Brook Lake,42.45182631,-86.04036307
MI,26005,Allegan,Swan Creek Marsh,42.58601326,-85.98123339
MI,26005,Allegan,Swan Creek Pond,42.54788341,-85.98236138
MI,26005,Allegan,Swan Lake,42.46485023,-85.95969431
MI,26005,Allegan,Three Corner Lake,42.66448688,-85.77566037
MI,26005,Allegan,Titus Lake,42.63677234,-85.62941311
MI,26005,Allegan,Upper Scott Lake,42.47857759,-86.06671364
MI,26005,Allegan,Wetheral Lake,42.53745277,-85.67868838
MI,26005,Allegan,Wetmore Lake,42.59299862,-85.835072
MI,26007,Alpena,Beaver Lake,44.93691682,-83.7990807
MI,26007,Alpena,Blue Lake,45.11241092,-83.64406689
MI,26007,Alpena,Conway Lake,45.0754347821699,-83.3592536881729
MI,26007,Alpena,Coombs Lake,45.0636483,-83.76369879
MI,26007,Alpena,Denton Lake,45.1756353847256,-83.5880516537817
MI,26007,Alpena,Elbow Lake,45.06817783,-83.34744129
MI,26007,Alpena,Fitzgerald Lake,45.19645966,-83.51132284
MI,26007,Alpena,Fletcher Pond,44.98379691,-83.86252364
MI,26007,Alpena,Grass Lake,45.12705682,-83.33817152
MI,26007,Alpena,Jacobs Lake,45.1740585390389,-83.5937984375027
MI,26007,Alpena,Lake Besser,45.0701937844703,-83.4570436730563
MI,26007,Alpena,Lake Winyah,45.1060231,-83.55640405
MI,26007,Alpena,Long Lake,45.20460917,-83.47774626
MI,26007,Alpena,Middle Lake,45.17547402,-83.38755653
MI,26007,Alpena,Mindack Lake,45.20579042,-83.54260994
MI,26007,Alpena,Mud Lake,45.04410846,-83.48233647
MI,26007,Alpena,Muskrat Farm Lake,45.07202683,-83.52878475
MI,26007,Alpena,Sylvester Lake,45.03619665,-83.81273317
MI,26007,Alpena,Zim Lake,45.06873125,-83.54130908
MI,26009,Antrim,Bass Lake,44.90499935,-85.39963649
MI,26009,Antrim,Bates Lake,44.89396735,-85.1502646
MI,26009,Antrim,Beals Lake,45.06283532,-85.16583163
MI,26009,Antrim,Ben-way Lake,45.10442356,-85.25590895
MI,26009,Antrim,Birch Lake,44.93534136,-85.38212386
MI,26009,Antrim,Blair Lake,44.97867274,-85.19082139
MI,26009,Antrim,Boat Lake,44.91599769,-85.13764135
MI,26009,Antrim,Browning Lake,44.88184319,-85.15435347
MI,26009,Antrim,Carpenter Lake,45.18851329,-85.28996942
MI,26009,Antrim,Clam Lake,44.92749666,-85.25019978
MI,26009,Antrim,County Line Pond,44.8605623241577,-85.1067036699561
MI,26009,Antrim,Eaton Lake,45.16545627,-85.26993391
MI,26009,Antrim,Ellsworth Lake,45.15410504,-85.24493795
MI,26009,Antrim,Finn Lake,44.90367834,-85.17092574
MI,26009,Antrim,Five Lake,44.94473062,-84.97647661
MI,26009,Antrim,Grass Lake,44.8667723,-85.10073886
MI,26009,Antrim,Green Lake,44.88186658,-85.13461033
MI,26009,Antrim,Hanley Lake,45.08310028,-85.26232747
MI,26009,Antrim,Hawk Lake,44.90127636,-84.91938502
MI,26009,Antrim,Henry Lake,44.88187021,-85.12519146
MI,26009,Antrim,Intermediate Lake,45.02857559,-85.22906329
MI,26009,Antrim,Johnson Pond,44.89789008,-85.05414028
MI,26009,Antrim,Lake Arthur,44.87979852,-85.1413147
MI,26009,Antrim,Lake Bellaire,44.95266302,-85.22335869
MI,26009,Antrim,Lake Harold,44.94579075,-84.90081415
MI,26009,Antrim,Lake Maplehurst,44.93924663,-85.33317704
MI,26009,Antrim,Lake of the Woods,44.90866895,-85.18240209
MI,26009,Antrim,Little Torch Lake,45.19124712,-85.31748129
MI,26009,Antrim,Long Lake,45.05125506,-84.86113517
MI,26009,Antrim,Losey Lake,45.05698454,-84.8618057
MI,26009,Antrim,Lymans Lake,45.19060289,-85.23663045
MI,26009,Antrim,Mayville Lake,44.87402985,-85.13049788
MI,26009,Antrim,Moblo Lake,45.17812936,-85.27455745
MI,26009,Antrim,Nelson Lake,44.89050059,-85.06793063
MI,26009,Antrim,O'Brien Pond,45.07095676,-84.93640598
MI,26009,Antrim,Peckham Lake,44.8859682,-85.06957817
MI,26009,Antrim,Saint Clair Lake,45.16646499,-85.23064062
MI,26009,Antrim,Sand Lake,44.87654995,-84.9297899
MI,26009,Antrim,Satterly Lake,44.96362612,-85.00703038
MI,26009,Antrim,Scotts Lake,45.07078288,-85.17622614
MI,26009,Antrim,Skinner Lake,45.19653625,-85.29888955
MI,26009,Antrim,Smith Lake,44.8854117,-85.14997846
MI,26009,Antrim,Stover Pond,44.95435552,-85.13456947
MI,26009,Antrim,Tar Lake,44.88596249,-85.07198847
MI,26009,Antrim,Taylor Lake,44.8626182468014,-85.1188012694718
MI,26009,Antrim,Thayer Lake,44.92847213,-85.28119605
MI,26009,Antrim,Tillie Lake,44.86821208,-85.04429408
MI,26009,Antrim,Toad Lake,45.13220656,-85.29223723
MI,26009,Antrim,Torch Lake,44.96745826,-85.31126108
MI,26009,Antrim,Wetzel Lake,44.9320874,-84.99476308
MI,26009,Antrim,Wilson Lake,45.12740205,-85.24935026
MI,26011,Arenac,Cranberry Lake,44.12131911,-83.58896584
MI,26011,Arenac,Duck Lake,44.04533275,-83.71805859
MI,26011,Arenac,Forest Lake,44.12773419,-84.07573734
MI,26011,Arenac,Lake Charlyle,44.05952101,-84.04748773
MI,26011,Arenac,Lost Lake,44.08139263,-83.61954764
MI,26011,Arenac,Mud Lake,44.0732585,-83.74119305
MI,26011,Arenac,Oasis Lake,44.078756359231,-84.0921017281127
MI,26011,Arenac,Oxbow Lake,44.12429577,-83.60675164
MI,26013,Baraga,Anderson Lake,46.6996238543172,-88.5547280436627
MI,26013,Baraga,Bass Lake,46.52877298,-88.1426
MI,26013,Baraga,Beaufort Lake,46.53765317,-88.18766242
MI,26013,Baraga,Beaver Lake,46.5638217780141,-88.4558537264472
MI,26013,Baraga,Bella Lake,46.79228329,-88.25796114
MI,26013,Baraga,Bendry Lake,46.75857046,-88.5395839
MI,26013,Baraga,Big Lake,46.61276032,-88.57631399
MI,26013,Baraga,Burns Lake,46.65469582,-88.49060403
MI,26013,Baraga,Camp Ten Lake,46.68156056,-88.15797897
MI,26013,Baraga,Cedar Lake,46.69551275,-88.07311271
MI,26013,Baraga,Charles Lake,46.70691284,-88.08125682
MI,26013,Baraga,Clair Lake,46.62525744,-88.18938479
MI,26013,Baraga,Coon Lake,46.54864336,-88.15889331
MI,26013,Baraga,Coontail Lake,46.49452848,-88.6356109
MI,26013,Baraga,Corner Lake,46.6800827,-88.07415029
MI,26013,Baraga,Craig Lake,46.61187159,-88.18324302
MI,26013,Baraga,Crooked Lake,46.60226678,-88.15605119
MI,26013,Baraga,Deer Lake,46.58383204,-88.21234844
MI,26013,Baraga,Delene Lake,46.54122794,-88.40593609
MI,26013,Baraga,Diana Lake,46.66068763,-88.19976013
MI,26013,Baraga,Dirkman Lake,46.69112247,-88.25367259
MI,26013,Baraga,Dirkwall Lake,46.68234741,-88.25854574
MI,26013,Baraga,Dommer Lake,46.59842001,-88.26995934
MI,26013,Baraga,Drummond Lake,46.47685366,-88.44959717
MI,26013,Baraga,Engman Lake,46.68314269,-88.53368405
MI,26013,Baraga,Evergreen Lake,46.71071288,-88.03561753
MI,26013,Baraga,Fence Lake,46.4766073,-88.18991226
MI,26013,Baraga,Fire Lake,46.4999125,-88.1914428
MI,26013,Baraga,Fisher Lake,46.65866757,-88.24093544
MI,26013,Baraga,Ford Lake,46.6438305345452,-88.4749538528332
MI,26013,Baraga,George Lake,46.54909465,-88.20359464
MI,26013,Baraga,Heart Lake,46.50313575,-88.21000916
MI,26013,Baraga,High Lake,46.71915233,-88.10144717
MI,26013,Baraga,High Life Lake,46.62804126,-88.20777166
MI,26013,Baraga,Island Lake,46.696317,-88.01436136
MI,26013,Baraga,Jackson Lakes,46.67645107,-88.4898928
MI,26013,Baraga,Jims Lake,46.63414191,-88.20866913
MI,26013,Baraga,Kelly Lake,46.7116261,-88.57483378
MI,26013,Baraga,King Lake,46.51974189,-88.40879479
MI,26013,Baraga,Knight Lake,46.59274763,-88.23840187
MI,26013,Baraga,Kontio Lake,46.65426445,-88.39159794
MI,26013,Baraga,Kortio Lake,46.62782827,-88.34412931
MI,26013,Baraga,Lake Alice,46.6973474,-88.08192663
MI,26013,Baraga,Lake Dortay,46.70125093,-88.02529478
MI,26013,Baraga,Lake Gordon,46.69694742,-88.03677981
MI,26013,Baraga,Lake Keewaydin,46.6006773,-88.11660469
MI,26013,Baraga,Lake Phillips,46.71451413,-88.02040504
MI,26013,Baraga,LeMays Lake,46.58198172,-88.25188512
MI,26013,Baraga,Little Fisher Lake,46.6551036,-88.23284996
MI,26013,Baraga,Little King Lake,46.5281306,-88.37098891
MI,26013,Baraga,Little Lake,46.64711363,-88.55913121
MI,26013,Baraga,Little Spruce Lake,46.61252999,-88.28251201
MI,26013,Baraga,Little Summit Lake,46.63413634,-88.33410543
MI,26013,Baraga,Long Lake,46.61163745,-88.23486078
MI,26013,Baraga,Loon Lake,46.62655973,-88.22953021
MI,26013,Baraga,Lost Lake,46.73430556,-88.36099345
MI,26013,Baraga,May Lake,46.46285849,-88.57962594
MI,26013,Baraga,Middle Lake,46.55144465,-88.17288114
MI,26013,Baraga,Mogans Lake,46.49603847,-88.37315187
MI,26013,Baraga,Ned Lake,46.45012377,-88.3323255
MI,26013,Baraga,Nelligan Lake,46.5639345,-88.13506132
MI,26013,Baraga,Nelson Lake,46.4949112,-88.17736571
MI,26013,Baraga,Net River Flooding,46.43639493,-88.52380814
MI,26013,Baraga,Norr Lake,46.593817,-88.26422701
MI,26013,Baraga,Parent Lake,46.57356799,-88.43736441
MI,26013,Baraga,Pea Soup Lake,46.53123315,-88.22709379
MI,26013,Baraga,Perry Lake,46.4436634332394,-88.2458885109612
MI,26013,Baraga,Petticoat Lake,46.51944237,-88.19520011
MI,26013,Baraga,Pinery Lakes,46.76632326,-88.39340068
MI,26013,Baraga,Robillard Lake,46.6294767,-88.59071126
MI,26013,Baraga,Roland Lake,46.8220262,-88.17853869
MI,26013,Baraga,Round Lake,46.6210575,-88.26224755
MI,26013,Baraga,Ruth Lake,46.55924024,-88.21590685
MI,26013,Baraga,Saine Lake,46.43274966,-88.54141517
MI,26013,Baraga,Saint Johns Lake,46.42716829,-88.12365147
MI,26013,Baraga,Sixmile Creek Pond,46.71894446,-88.58511194
MI,26013,Baraga,Smith Lake,46.65728483,-88.21426013
MI,26013,Baraga,Spruce Lake,46.50682597,-88.17614286
MI,26013,Baraga,Summit Lake,46.71776349,-88.04466033
MI,26013,Baraga,Teddy Lake,46.60115119,-88.20419578
MI,26013,Baraga,Third Lake,46.77504869,-88.3762549
MI,26013,Baraga,Tower Lake,46.48236616264,-88.2367005041575
MI,26013,Baraga,Tracy Lake,46.47013077,-88.48114607
MI,26013,Baraga,Van Lake,46.59821195,-88.22663317
MI,26013,Baraga,Wagner Lake,46.64013859,-88.23827257
MI,26013,Baraga,Worm Lake,46.54130983,-88.494676
MI,26015,Barry,Adams Lake,42.51258614,-85.49126674
MI,26015,Barry,Algonquin Lake,42.67165255,-85.33248626
MI,26015,Barry,Aurohn Lake,42.54847811,-85.30187844
MI,26015,Barry,Baker Lake,42.64748527,-85.5037727
MI,26015,Barry,Barlow Lake,42.66970462,-85.51910369
MI,26015,Barry,Bassett Lake,42.6642214,-85.48430547
MI,26015,Barry,Bawker Lake,42.54776452,-85.35135754
MI,26015,Barry,Bear Hole Lake,42.6785651,-85.30641105
MI,26015,Barry,Big Cedar Lake,42.5119948,-85.34783013
MI,26015,Barry,Black Lake,42.72404669,-85.39260567
MI,26015,Barry,Blue Lake,42.51871084,-85.46939192
MI,26015,Barry,Brewster Lake,42.54030547,-85.2972448
MI,26015,Barry,Bristol Lake,42.48683177,-85.24696938
MI,26015,Barry,Bulkey Lake,42.49162353,-85.35635399
MI,26015,Barry,Carr Lake,42.71999031,-85.07508076
MI,26015,Barry,Carter Lake,42.6703662,-85.30932187
MI,26015,Barry,Cassidy Lake,42.4713716,-85.1654983
MI,26015,Barry,Cat Lake,42.7535525,-85.17062488
MI,26015,Barry,Chief Noonday Lake,42.64156418,-85.5072871
MI,26015,Barry,Clear Lake,42.50979173,-85.26935995
MI,26015,Barry,Cobb Lake,42.65210428,-85.53694385
MI,26015,Barry,Coleman Lake,42.42694251,-85.26772384
MI,26015,Barry,Cook Lake,42.44345288,-85.52725755
MI,26015,Barry,Cox Lake,42.5604696,-85.33589442
MI,26015,Barry,Crooked Lake,42.49164392,-85.42910316
MI,26015,Barry,Crystal Lake,42.5308665846831,-85.4887279846833
MI,26015,Barry,Culver Lake,42.45826751,-85.23491844
MI,26015,Barry,Dagget Lake,42.59289171,-85.44229123
MI,26015,Barry,Dake Lake,42.46658524,-85.39665172
MI,26015,Barry,Deep Lake,42.61970369,-85.4585908
MI,26015,Barry,Duck Lake,42.6111825556444,-85.4679359042306
MI,26015,Barry,Dunn Lake,42.45868406,-85.22103535
MI,26015,Barry,Ellis Lake,42.51087762,-85.13648375
MI,26015,Barry,Ellison Lake,42.5969952,-85.19971733
MI,26015,Barry,England Lake,42.54030515,-85.52472363
MI,26015,Barry,Fair Lake,42.48550859,-85.33268534
MI,26015,Barry,Fawn Lake,42.5732238922134,-85.4972433937869
MI,26015,Barry,Fine Lake,42.44499985,-85.29139613
MI,26015,Barry,First Lake,42.70538644,-85.08148959
MI,26015,Barry,Fish Lake,42.55243011,-85.49777287
MI,26015,Barry,Gesler Lake,42.54463347,-85.36377804
MI,26015,Barry,Gilkey Lake,42.48152938,-85.35991834
MI,26015,Barry,Glasby Lake,42.48107463,-85.41151469
MI,26015,Barry,Grass Lake,42.43156341,-85.14147933
MI,26015,Barry,Gregory Lake,42.59254572,-85.20524109
MI,26015,Barry,Guernsey Lake,42.55160307,-85.40904168
MI,26015,Barry,Gun Lake,42.60202427,-85.52086979
MI,26015,Barry,Hardwood Lake,42.6944285,-85.52492803
MI,26015,Barry,Hathaway Lake,42.66962835,-85.38725537
MI,26015,Barry,Head Lake,42.57098358,-85.38321266
MI,26015,Barry,High Hill Lake,42.45062392,-85.16226844
MI,26015,Barry,Holcomb Lake,42.50640943,-85.43418169
MI,26015,Barry,Horseshoe Lake,42.54772609,-85.48922478
MI,26015,Barry,Howard Lake,42.52707053,-85.30903266
MI,26015,Barry,Huckleberry Lake,42.73427784,-85.21154418
MI,26015,Barry,Indian Lake,42.43749275,-85.46924381
MI,26015,Barry,Jordan Lake,42.76885368,-85.14113355
MI,26015,Barry,Kilpatrick Lake,42.71343426,-85.08292409
MI,26015,Barry,Lake One,42.59593869,-85.08171082
MI,26015,Barry,Larabee Lake,42.55073097,-85.33373847
MI,26015,Barry,Laubaugh Lake,42.63813957,-85.35774215
MI,26015,Barry,Lawhead Lake,42.73965412,-85.19359734
MI,26015,Barry,Lawrence Lake,42.44078525,-85.35061593
MI,26015,Barry,Leach Lake,42.68739171,-85.28345398
MI,26015,Barry,Leeks Lake,42.69499761,-85.53729043
MI,26015,Barry,Lily Lake,42.62472638,-85.29807217
MI,26015,Barry,Lime Lake,42.55817401,-85.49408595
MI,26015,Barry,Little Cedar Lake,42.52789388,-85.34139267
MI,26015,Barry,Little Gilkey Lake,42.47105365,-85.3539405
MI,26015,Barry,Little Long Lake,42.42241887,-85.44355791
MI,26015,Barry,Little Mill Lake,42.46199881,-85.26148205
MI,26015,Barry,Little Payne Lake,42.63484425,-85.52686584
MI,26015,Barry,Little Pine Lake,42.55260766,-85.31728236
MI,26015,Barry,Loomis Lake,42.55263015,-85.42492241
MI,26015,Barry,Loon Lake,42.4359781,-85.13578377
MI,26015,Barry,Lost Lake,42.4652028015282,-85.2020605676001
MI,26015,Barry,Lower Lake,42.69590259,-85.24607657
MI,26015,Barry,Manning Lake,42.43261758,-85.30244713
MI,26015,Barry,Marshall Lake,42.4486977132779,-85.3377853932764
MI,26015,Barry,McDonald Lake,42.63372996,-85.49155979
MI,26015,Barry,Metcalf Lake,42.42659043,-85.18492354
MI,26015,Barry,Mill Lake,42.4555636,-85.26238501
MI,26015,Barry,Miller Lake,42.43576067,-85.49112725
MI,26015,Barry,Mixer Lake,42.58207448,-85.23330653
MI,26015,Barry,Myers Lake,42.58409324,-85.30928202
MI,26015,Barry,Newton Lake,42.58953834,-85.29971695
MI,26015,Barry,Number Twenty-one Lake,42.5424036,-85.37812695
MI,26015,Barry,Orr Lake,42.5280991001063,-85.4646171029923
MI,26015,Barry,Otis Lake,42.60983114,-85.41515537
MI,26015,Barry,Payne Lake,42.63783797,-85.51868326
MI,26015,Barry,Perch Lake,42.58554871,-85.37229666
MI,26015,Barry,Pickliss Lake,42.42311518,-85.28373386
MI,26015,Barry,Pierce Lake,42.54488486,-85.29079564
MI,26015,Barry,Pleasant Lake,42.49050681,-85.38573142
MI,26015,Barry,Podunk Lake,42.61122596,-85.34990824
MI,26015,Barry,Saddlebag Lake,42.72479462,-85.07704852
MI,26015,Barry,School Pond,42.46414981,-85.37306108
MI,26015,Barry,Scott Lake,42.7375518484099,-85.2015693220299
MI,26015,Barry,Second Lake,42.7087253028503,-85.0833653886074
MI,26015,Barry,Shallow Gilkey Lake,42.4766882,-85.35306581
MI,26015,Barry,Shallow Lake,42.52368012,-85.36054328
MI,26015,Barry,Shaw Lake,42.6750534,-85.47869956
MI,26015,Barry,Shelp Lake,42.50372156,-85.50234734
MI,26015,Barry,Silver Lake,42.45860173,-85.53841284
MI,26015,Barry,Snow Lake,42.59670887,-85.47077461
MI,26015,Barry,Stewart Lake,42.56783629,-85.45122071
MI,26015,Barry,Strewins Lake,42.42730676,-85.31344121
MI,26015,Barry,Sugarbush Lake,42.74178926,-85.34600845
MI,26015,Barry,Tanner Lake,42.60305712,-85.32799186
MI,26015,Barry,Taylor Lake,42.50580497,-85.14963692
MI,26015,Barry,Thornapple Lake,42.62380612,-85.18789638
MI,26015,Barry,Tillotson Lake,42.59400732,-85.33973988
MI,26015,Barry,Turner Lake,42.62720487,-85.45554044
MI,26015,Barry,Twin Lakes,42.59672977,-85.33161495
MI,26015,Barry,Von Syckle Lake,42.46258556,-85.23307584
MI,26015,Barry,Wall Lake,42.51973816,-85.38880508
MI,26015,Barry,Warner Lake,42.47140133,-85.5254417
MI,26015,Barry,West Gilkey Lake,42.44930414,-85.4733115
MI,26015,Barry,West Lake,42.46167078,-85.15136813
MI,26015,Barry,Whitefish Lake,42.5457294,-85.31002009
MI,26015,Barry,Wild Lake,42.51435892,-85.14244521
MI,26015,Barry,Wiley Lake,42.53761885,-85.45270991
MI,26015,Barry,Wilkes Lake,42.4627222,-85.21481792
MI,26015,Barry,Williams Lake,42.63125154,-85.49867999
MI,26015,Barry,Zigler Lake,42.5675843,-85.33143201
MI,26017,Bay,Lake Lots-O-Fun,43.6072566585165,-84.164322268376
MI,26017,Bay,Tobico Lagoon,43.67161943,-83.90942374
MI,26017,Bay,Tobico Marsh,43.69106126,-83.93121461
MI,26019,Benzie,Bass Lake,44.73409035,-86.0642796
MI,26019,Benzie,Bell Lake,44.67680506,-85.87860292
MI,26019,Benzie,Betsie Lake,44.62722743,-86.23016275
MI,26019,Benzie,Beulah-Benzonia Sewage Disposal Ponds,44.62216261,-86.1200344
MI,26019,Benzie,Black Lake,44.7544338,-85.87411469
MI,26019,Benzie,Boekeloo Pond,44.7180851528169,-86.155514842573
MI,26019,Benzie,Bronson Lake,44.69095898,-85.88055055
MI,26019,Benzie,Brooks Lake,44.77020223,-85.91399999
MI,26019,Benzie,Bryan Lake,44.72613002,-85.8518252
MI,26019,Benzie,Crystal Lake,44.66164387,-86.17257599
MI,26019,Benzie,Deer Lake,44.73116907,-86.06501773
MI,26019,Benzie,Eliza Lake,44.72140123,-85.9258202
MI,26019,Benzie,Fuller Lake,44.74080682,-85.86709218
MI,26019,Benzie,Garey Lake,44.77554767,-85.93555185
MI,26019,Benzie,Grass Lake,44.60806869,-85.85225111
MI,26019,Benzie,Hartman Lake,44.75785235,-85.92891387
MI,26019,Benzie,Harvey Lake,44.71226843,-85.8801274
MI,26019,Benzie,Herendeene Lake,44.74065669,-85.86084767
MI,26019,Benzie,Holden Lake,44.76734469,-85.89509075
MI,26019,Benzie,Hooker Lake,44.69333361,-85.87675233
MI,26019,Benzie,Horseshoe Lake,44.76870216,-85.87879878
MI,26019,Benzie,Lake Ann,44.71560181,-85.84856554
MI,26019,Benzie,Lake Louise,44.65502684,-85.90418531
MI,26019,Benzie,Lake View,44.73228189,-85.862949
MI,26019,Benzie,Lime Lake,44.7545419,-85.93225648
MI,26019,Benzie,Little Platte Lake,44.70291445,-86.06895648
MI,26019,Benzie,Long Lake,44.69516462,-86.16871039
MI,26019,Benzie,Loon Lake,44.70948291,-86.13028627
MI,26019,Benzie,Lower Herring Lake,44.56428884,-86.21339345
MI,26019,Benzie,Lower Woodcock Lake,44.70346925,-85.88382929
MI,26019,Benzie,Marys Lake,44.71590764,-85.86741556
MI,26019,Benzie,Otter Lake,44.74021036,-86.06108465
MI,26019,Benzie,Parsons Lake,44.7190935669251,-85.8217399998658
MI,26019,Benzie,Peanut Lake,44.69235026,-85.84799805
MI,26019,Benzie,Pearl Lake,44.76184876,-85.91759334
MI,26019,Benzie,Pigeon Lake,44.73653641,-85.96609709
MI,26019,Benzie,Pikes Lake,44.76535453,-85.84008356
MI,26019,Benzie,Platte Lake,44.6898949,-86.0931052
MI,26019,Benzie,Ransom Lake,44.71300761,-85.82438603
MI,26019,Benzie,Round Lake,44.69308539,-86.1851228
MI,26019,Benzie,Rush Lake,44.68925349,-86.14148888
MI,26019,Benzie,Sanford Lake,44.69968883,-85.85808302
MI,26019,Benzie,Shavenaugh Lake,44.71412465,-85.86524518
MI,26019,Benzie,Shorter Lake,44.76939182,-85.8292261
MI,26019,Benzie,Stevens Lake,44.76137525,-85.87072798
MI,26019,Benzie,Sweet Lake,44.75990566,-85.88538392
MI,26019,Benzie,Tarnwood Lake,44.72052737,-85.87550406
MI,26019,Benzie,Turtle Lake,44.6162088,-85.90542312
MI,26019,Benzie,Twin Lake,44.57146421,-85.82961937
MI,26019,Benzie,Upper Herring Lake,44.56007139,-86.18212082
MI,26019,Benzie,Upper Twin Lake,44.57144947,-85.82155661
MI,26019,Benzie,Upper Woodcock Lake,44.70948707,-85.88492224
MI,26019,Benzie,Wiltz Lake,44.76931399,-85.92399894
MI,26021,Berrien,Bernhart Lake,41.97227423,-86.23389946
MI,26021,Berrien,Black Lake,42.06211729,-86.28591242
MI,26021,Berrien,Bob-A-Ron Lake,41.83790826,-86.63960899
MI,26021,Berrien,Boot Lake,41.96980857,-86.22745569
MI,26021,Berrien,Boyle Lake,41.87945397,-86.45507979
MI,26021,Berrien,Brush Lake,41.98643037,-86.22690898
MI,26021,Berrien,Burrus Lake,41.82108758,-86.41318388
MI,26021,Berrien,Clarks Lake,41.88427406,-86.40021892
MI,26021,Berrien,Clear Lake,41.83260944,-86.42135733
MI,26021,Berrien,Colvin Lake,41.89406724,-86.39141154
MI,26021,Berrien,Coveney Lake,41.88469367,-86.42702156
MI,26021,Berrien,Crescent Lake,41.8166037032816,-86.3453747751156
MI,26021,Berrien,Curtis Lake,41.97490655,-86.22653549
MI,26021,Berrien,Davidson Lake,41.76038466,-86.53217921
MI,26021,Berrien,Dayton Lake,41.79656967,-86.43307252
MI,26021,Berrien,Fernwood Pond,41.8652371195658,-86.3492255598659
MI,26021,Berrien,Garwood Lake,41.79516612,-86.47426642
MI,26021,Berrien,Grand Mere Lakes,42.00824566,-86.54436115
MI,26021,Berrien,Hagley Lake,41.85432545,-86.49556474
MI,26021,Berrien,Harris Lake,42.22279752,-86.35637894
MI,26021,Berrien,Hess Lake,41.95514759,-86.46594362
MI,26021,Berrien,Hibbard Lake,42.22765479,-86.3584498
MI,26021,Berrien,Indian Lake,41.8345613,-86.44722017
MI,26021,Berrien,Jacobs Chapel Lake,42.23409373,-86.36126639
MI,26021,Berrien,Jarvis Lake,42.06902847,-86.23726983
MI,26021,Berrien,Judy Lake,41.87164528,-86.44789829
MI,26021,Berrien,Kibler Lake,42.14427817,-86.31639124
MI,26021,Berrien,Klutes Lakes,41.76894852,-86.59512243
MI,26021,Berrien,Little Indian Lake,41.91210906,-86.28188992
MI,26021,Berrien,Little Paw Paw Lake,42.21845154,-86.28955106
MI,26021,Berrien,Long Lake,41.91666588,-86.30392944
MI,26021,Berrien,LWP Reservoir,41.8305500599483,-86.6730413568778
MI,26021,Berrien,Madron Lake,41.87351301,-86.41374871
MI,26021,Berrien,Moon Lake,41.84733125,-86.38158826
MI,26021,Berrien,Murphy Lake,41.94322719,-86.2576108
MI,26021,Berrien,North Lake,42.0147290102366,-86.5417896708875
MI,26021,Berrien,O'Brien Lake,41.97435248,-86.25166953
MI,26021,Berrien,Paw Paw Lake,42.20780492,-86.26960885
MI,26021,Berrien,Pike Lake,41.79452356,-86.40852667
MI,26021,Berrien,Pine Lake,41.83744826,-86.45962216
MI,26021,Berrien,Pipestone Lake,42.08407012,-86.24239873
MI,26021,Berrien,Riggins Lake,41.93620207,-86.26522613
MI,26021,Berrien,Round Lake,41.8370951,-86.41854106
MI,26021,Berrien,Rowe Lake,42.05823998,-86.24854065
MI,26021,Berrien,Rug Lake,41.83753675,-86.47406375
MI,26021,Berrien,Shady Lake,41.84269052,-86.46169253
MI,26021,Berrien,Sherwood Lake,42.21599385,-86.23807185
MI,26021,Berrien,Singer Lake,41.94983684,-86.45542657
MI,26021,Berrien,Smith Lake,41.95566098,-86.23076426
MI,26021,Berrien,South Lake,41.999927501473,-86.5454941305297
MI,26021,Berrien,Steinbauer Lake,41.90595854,-86.2681217
MI,26021,Berrien,Wagner Lake,41.84910291,-86.44726552
MI,26021,Berrien,Weaver Lake,41.8348353,-86.39948564
MI,26021,Berrien,Webster Lake,41.90701798,-86.30154568
MI,26021,Berrien,Yellow Lake,41.83870024,-86.44157337
MI,26023,Branch,Anderson Lake,41.76148381,-85.18032131
MI,26023,Branch,Bassett Lake,41.9072961,-85.12692051
MI,26023,Branch,Beckwith Lake,41.87202711,-84.88138864
MI,26023,Branch,Big Wells Lake,41.99908134,-85.28023914
MI,26023,Branch,Bingham Lake,41.83722917,-85.0534271
MI,26023,Branch,Blackhawk Pond,41.91076617,-85.04719722
MI,26023,Branch,Blossom Lake,42.00784147,-85.28076785
MI,26023,Branch,Bovee Lake,41.83110095,-84.87268771
MI,26023,Branch,Browns Lake,41.8091757,-84.91847607
MI,26023,Branch,Byers Lake,41.86715932,-85.03658739
MI,26023,Branch,Calhoon Lake,41.79014146,-85.18197504
MI,26023,Branch,Camp Lake,41.8528308,-84.86015078
MI,26023,Branch,Cary Lake,41.90180792,-85.10728704
MI,26023,Branch,Chester Lake,41.77640747,-85.0350444
MI,26023,Branch,Coldwater Lake,41.82119232,-84.977589
MI,26023,Branch,Cooks Lake,41.92817081,-85.11490108
MI,26023,Branch,Craig Lake,42.00675306,-85.03557665
MI,26023,Branch,Dane Lake,42.00301451,-85.27975572
MI,26023,Branch,Dorsey Lake,41.91034941,-85.12569673
MI,26023,Branch,Dragon Lake,41.79268876,-85.02918561
MI,26023,Branch,Duncan Lake,41.87225076,-85.14856661
MI,26023,Branch,East Long Lake,41.85026811,-84.96770089
MI,26023,Branch,First Lake,41.93484427,-84.89931923
MI,26023,Branch,Fish Lake,41.7923666,-85.27022923
MI,26023,Branch,Fox Lake,42.04541389,-85.02088162
MI,26023,Branch,Fulks Lake,41.97461132,-85.04910978
MI,26023,Branch,Gilead Lake,41.79549541,-85.16374642
MI,26023,Branch,Girard Lake,42.03123991,-85.02071853
MI,26023,Branch,Goodrich Lake,41.99917388,-85.29142504
MI,26023,Branch,Hodunk Pond,42.01100121,-85.05200928
MI,26023,Branch,Holmes Hollow Pond,41.86919381,-85.25477834
MI,26023,Branch,Honey Lake,41.77406308,-85.25833289
MI,26023,Branch,Hubbard Lake,42.04601214,-85.03207339
MI,26023,Branch,Huray Lake,41.8750667,-84.88085593
MI,26023,Branch,Huyck Lake,41.77849686,-84.97873233
MI,26023,Branch,Island Lake,41.90038143,-85.12124024
MI,26023,Branch,Kenyon Lake,42.04975566,-85.25153675
MI,26023,Branch,Lake Anderson,41.77275258,-84.97024876
MI,26023,Branch,Lake Bartholomew,41.87727306,-84.92963419
MI,26023,Branch,Lake Bricker,41.79461035,-84.9481849
MI,26023,Branch,Lake Hanchet,41.88167992,-84.90047355
MI,26023,Branch,Lake Lavine,41.76826392,-85.03774218
MI,26023,Branch,Lake Michiana,41.76123563,-85.06489792
MI,26023,Branch,Lake of the Woods,41.85043839,-85.04075927
MI,26023,Branch,Leatherberry Lake,42.02227792,-85.253249
MI,26023,Branch,Lehr Lake,42.0559624,-85.25152264
MI,26023,Branch,Lime Lake,41.92382482,-85.09462088
MI,26023,Branch,Little Coldwater Lake,41.80334436,-84.96104485
MI,26023,Branch,Little Long Lake,41.94548564,-85.05148566
MI,26023,Branch,Little Rose Lake,41.86313858,-85.03931925
MI,26023,Branch,Little Wells Lake,41.99759006,-85.2782269
MI,26023,Branch,Long Noble Lake,41.78816383,-85.28218524
MI,26023,Branch,Mallow Lake,41.79991179,-85.27025046
MI,26023,Branch,Marble Lake,41.90849019,-84.90383159
MI,26023,Branch,Marl Lake,42.06566848,-85.28315941
MI,26023,Branch,Matteson Lake,41.93126496,-85.20809324
MI,26023,Branch,Middle Lake,41.88914566,-84.92012286
MI,26023,Branch,Monroe Lake,41.86832517,-85.16350976
MI,26023,Branch,Morrison Lake,41.99307614,-85.0282642
MI,26023,Branch,Mud Lake,41.80772039,-85.26326371
MI,26023,Branch,Musser Lake,42.04025674,-85.01621726
MI,26023,Branch,North Lake,41.96362479,-85.03249183
MI,26023,Branch,North Pleasant Lake,41.78166442,-85.02928342
MI,26023,Branch,Oliverda Lake,42.0417182,-85.251699
MI,26023,Branch,Olney Lake,42.0468247,-85.02858452
MI,26023,Branch,Palmitere Lake,41.88457031,-85.13104347
MI,26023,Branch,Quaker Lake,42.05087122,-84.83558735
MI,26023,Branch,Red Water Lake,41.7613513,-85.10871433
MI,26023,Branch,River Lake,41.99366277,-85.28545913
MI,26023,Branch,Royer Lake,41.79311203,-85.27677764
MI,26023,Branch,Silver Lake,41.77832159,-84.99753152
MI,26023,Branch,South Lake,41.93726855,-85.03555763
MI,26023,Branch,Sprong Lake,41.89212521,-85.12172751
MI,26023,Branch,Union Lake,42.05290287,-85.18137913
MI,26023,Branch,Vincent Lake,42.06122829,-85.00849901
MI,26023,Branch,Vohs Lake,41.76059882,-85.08939228
MI,26023,Branch,West Long Lake,41.9499082,-85.04862
MI,26023,Branch,Withington Lake,41.77075734,-84.93689061
MI,26023,Branch,Wright Lake,41.86251117,-84.95111695
MI,26025,Calhoun,Ackley Lake,42.409247,-84.98391621
MI,26025,Calhoun,Beadle Lake,42.27558076,-85.14636163
MI,26025,Calhoun,Bell Lake,42.36501351,-84.75258023
MI,26025,Calhoun,Big Marsh Lake,42.39444078,-84.99270836
MI,26025,Calhoun,Bolt Lake,42.35500858,-84.75946595
MI,26025,Calhoun,Brigham Lake,42.3225636286331,-85.1214557923781
MI,26025,Calhoun,Buckhorn Lake,42.27948356,-84.91363631
MI,26025,Calhoun,Cedar Lake,42.21163775,-84.994629
MI,26025,Calhoun,Chapin Lake,42.31938816,-84.89385
MI,26025,Calhoun,Cistern Lakes,42.33271092,-84.72470239
MI,26025,Calhoun,Clark Lake,42.35595117,-84.75213517
MI,26025,Calhoun,Clear Lake,42.38923815,-85.09177734
MI,26025,Calhoun,Cole Lake,42.3132993,-85.07467594
MI,26025,Calhoun,Cotton Lake,42.21572357,-85.17224171
MI,26025,Calhoun,Crystal Lake,42.24006729,-84.98227844
MI,26025,Calhoun,Deep Lake,42.3964485,-85.09387681
MI,26025,Calhoun,Dexter Lake,42.31438965,-85.12843517
MI,26025,Calhoun,Duck Lake,42.38733256,-84.7854076
MI,26025,Calhoun,East Shed Lake,42.09103078,-84.9580879
MI,26025,Calhoun,Fish Lake,42.17998378,-84.97873434
MI,26025,Calhoun,Foster Lake,42.41870488,-85.20555662
MI,26025,Calhoun,Frier Lake,42.09233649,-84.83376631
MI,26025,Calhoun,Gardner Lake,42.3182574597167,-85.0570535287027
MI,26025,Calhoun,Garfield Lake,42.40455603,-84.9542224
MI,26025,Calhoun,Goguac Lake,42.28772297,-85.21112159
MI,26025,Calhoun,Goose Lake,42.39911883,-85.09637161
MI,26025,Calhoun,Gordon Lake,42.34975248,-84.7540454
MI,26025,Calhoun,Graham Lake,42.21951441,-85.19423827
MI,26025,Calhoun,Hall Lake,42.31713263,-85.1257189
MI,26025,Calhoun,Halls Lake,42.30851612,-84.77823104
MI,26025,Calhoun,Hamlin Lake,42.36660794,-85.20859474
MI,26025,Calhoun,Harts Lake,42.307822,-85.28366398
MI,26025,Calhoun,Heart Lake,42.07932883,-85.00650476
MI,26025,Calhoun,Homer Lake,42.13837124,-84.82326553
MI,26025,Calhoun,Howe Lake,42.4171521,-85.28260575
MI,26025,Calhoun,Hyde Lake,42.20993681,-85.07361325
MI,26025,Calhoun,Kinyon Lake,42.40318815,-84.96438382
MI,26025,Calhoun,Kirby Lake,42.38722453,-85.27173038
MI,26025,Calhoun,Klingaman Lake,42.13775905,-84.99815995
MI,26025,Calhoun,Lake of the Woods,42.3648032,-84.92587002
MI,26025,Calhoun,Lane Lake,42.36381821,-84.98765605
MI,26025,Calhoun,Lawrence Lake,42.32064655,-85.26510851
MI,26025,Calhoun,Lee Lake,42.17975223,-85.11886806
MI,26025,Calhoun,Little Cedar Lake,42.2548755416575,-85.0080984037679
MI,26025,Calhoun,Long Lake,42.19397219,-84.97406502
MI,26025,Calhoun,Lower Mill Pond,42.30518455,-85.18327475
MI,26025,Calhoun,Lyon Lake,42.18857051,-84.96669259
MI,26025,Calhoun,Maynard Lake,42.21918869,-84.94893768
MI,26025,Calhoun,Montcalm Lake,42.271717,-84.7957577
MI,26025,Calhoun,Nottawa Lake,42.15411033,-84.98530598
MI,26025,Calhoun,Pardy Lake,42.3649342,-84.9455101
MI,26025,Calhoun,Pearl Lake,42.24716309,-85.20856081
MI,26025,Calhoun,Pork Barrel Lake,42.37213429,-84.93549082
MI,26025,Calhoun,Potter Lake,42.34150535,-84.96440888
MI,26025,Calhoun,Pout Lake,42.20822924,-85.02428803
MI,26025,Calhoun,Prairie Lake,42.34488595,-84.79650341
MI,26025,Calhoun,Rothrick Lake,42.30210162,-84.90109903
MI,26025,Calhoun,Saint Marys Lake,42.37892541,-85.18183152
MI,26025,Calhoun,School Lake,42.38801953,-84.907351
MI,26025,Calhoun,Sherman Court Pond,42.27724192,-84.97365599
MI,26025,Calhoun,Silvers Lake,42.35799864,-84.75769489
MI,26025,Calhoun,Sonoma Lake,42.22586753,-85.22799944
MI,26025,Calhoun,South Shed Lake,42.08199621,-84.96697073
MI,26025,Calhoun,Spectacle Lake,42.23925968,-84.7971195
MI,26025,Calhoun,Squaw Lake,42.2134535,-84.97754732
MI,26025,Calhoun,Stuart Lake,42.23384756,-84.93960319
MI,26025,Calhoun,Thomas Lake,42.3243713124686,-85.0612566008701
MI,26025,Calhoun,Turtle Lake,42.10506273,-85.12588682
MI,26025,Calhoun,Upper Brace Lake,42.22759895,-84.94607928
MI,26025,Calhoun,Wabascon Lake,42.41269428,-85.21757241
MI,26025,Calhoun,Warner Lake,42.14912355,-85.05020579
MI,26025,Calhoun,West Shed Lake,42.0901363,-84.96714989
MI,26025,Calhoun,Whitcomb Lake,42.08016365,-84.79387003
MI,26025,Calhoun,White Lake,42.36886425,-84.73699149
MI,26025,Calhoun,Wiegands Lake,42.39855177,-85.08949324
MI,26025,Calhoun,Wilder Lake,42.08198113,-85.00588347
MI,26025,Calhoun,Wilders Pond,42.22525777,-84.90679974
MI,26025,Calhoun,Willis Lake,42.42020047,-85.00952263
MI,26025,Calhoun,Winnipeg Lake,42.3044504,-84.81133255
MI,26025,Calhoun,Wolcott Lake,42.29575643,-84.7833747
MI,26025,Calhoun,Wolf Lake,42.41393707,-85.10747473
MI,26027,Cass,Allen Lake,41.96283864,-85.77010404
MI,26027,Cass,Bair Lake,41.89455945,-85.80658612
MI,26027,Cass,Baldwins Lake,41.77781922,-85.82961951
MI,26027,Cass,Barron Lake,41.84340772,-86.18355906
MI,26027,Cass,Belas Lake,41.93877931,-85.88009026
MI,26027,Cass,Bellows Lake,41.80061178,-85.83665704
MI,26027,Cass,Birch Lake,41.87831448,-85.85631091
MI,26027,Cass,Bogart Lake,41.97607596,-85.81217757
MI,26027,Cass,Buck Lake,41.89460884,-85.85390112
MI,26027,Cass,Bunker Lake,42.0429618745836,-85.9052587404562
MI,26027,Cass,Cabin Ponds,41.9438906406187,-85.9890171771968
MI,26027,Cass,Cable Lake,42.06511392,-86.19562991
MI,26027,Cass,Carters Lake,41.8272788,-85.85215423
MI,26027,Cass,Chain Lake,41.85718634,-85.89364012
MI,26027,Cass,Christiana Lake,41.80326624,-85.9994392
MI,26027,Cass,Coberts Lake,41.80414281,-86.05102266
MI,26027,Cass,Cook Lake,42.00999386,-86.09969132
MI,26027,Cass,Cooks Lake,41.8665676753653,-85.975781969581
MI,26027,Cass,Copley Lake,42.00713209,-85.88518107
MI,26027,Cass,Coverdale Lake,41.76471246,-85.8224887
MI,26027,Cass,Cowham Lake,42.0158557,-85.88901184
MI,26027,Cass,Cranberry Lake,41.99829901,-85.76662509
MI,26027,Cass,Crooked Lake,41.84358519,-86.07573688
MI,26027,Cass,Curtis Lake,41.85285012,-85.94052405
MI,26027,Cass,Davis Lake,41.8203025,-86.02754997
MI,26027,Cass,Day Lake,41.85098166,-85.92752898
MI,26027,Cass,Dewey Lake,42.05538858,-86.18531991
MI,26027,Cass,Diamond Lake,41.90149993,-85.97950731
MI,26027,Cass,Doanne Lake,41.9052267878222,-85.8599352514054
MI,26027,Cass,Donnell Lake,41.9074103,-85.89221428
MI,26027,Cass,Driskels Lake,41.90709787,-85.79973406
MI,26027,Cass,Eagle Lake,41.80366625,-86.02575255
MI,26027,Cass,Fish Lake,42.04951475,-85.86535804
MI,26027,Cass,Fishing Spot,42.0273514733925,-85.8017525096958
MI,26027,Cass,Forked Lake,41.92912226,-85.84385451
MI,26027,Cass,Fox Lake,41.9181715709662,-85.7916762509939
MI,26027,Cass,Garver Lake,41.77925133,-86.05084315
MI,26027,Cass,Geer Lake,42.07022057,-86.09617728
MI,26027,Cass,George Lake,41.8439985,-86.04610283
MI,26027,Cass,Goff Lakes,42.01645231,-85.85343226
MI,26027,Cass,Goose Lake,41.86832156,-86.03989703
MI,26027,Cass,Grabemeyer Lake,42.05967983,-86.21507547
MI,26027,Cass,Gray Lake,41.85082505,-86.068176
MI,26027,Cass,Harwood Lake,41.92900852,-85.76925376
MI,26027,Cass,Hemlock Lake,42.06376452,-85.80722862
MI,26027,Cass,Hogback Lake,41.9017409238205,-85.8645461498394
MI,26027,Cass,Hutchens Lake,41.91609896,-85.8408081
MI,26027,Cass,Huyck Lake,42.00683186,-85.85484555
MI,26027,Cass,Indian Lake,41.99583407,-86.21182665
MI,26027,Cass,Indiana Lake,41.76062705,-85.83272447
MI,26027,Cass,Juno Lake,41.80971096,-85.98617315
MI,26027,Cass,Kaminsky Lake,41.82991564,-86.01974025
MI,26027,Cass,Kelsey Lake,41.9771788,-86.0194422
MI,26027,Cass,Kirk Lake,41.92949173,-85.8800806
MI,26027,Cass,La Grange Lake,41.95262184,-86.02900046
MI,26027,Cass,Lafferty Lake,41.80724988,-85.95012818
MI,26027,Cass,Leninger Lake,41.85888503,-85.97730181
MI,26027,Cass,Lewis Lake,41.90666261,-85.87504059
MI,26027,Cass,Lilly Lake,41.91418213,-85.84918782
MI,26027,Cass,Lime Lakes,41.90032342,-85.83982187
MI,26027,Cass,Little Fish Lake,41.98481704,-85.90420378
MI,26027,Cass,Little Wood Lake,41.85815078,-85.77196771
MI,26027,Cass,Magician Lake,42.06743625,-86.16625957
MI,26027,Cass,Mill Lake,41.98825398,-85.78117306
MI,26027,Cass,Mill Pond,41.98668675,-86.07718551
MI,26027,Cass,Mudd Lake,41.84332045,-86.15885737
MI,26027,Cass,Muld Lake,41.97214742,-85.93256251
MI,26027,Cass,Otter Lake,42.06178037,-85.85693265
MI,26027,Cass,Painter Lake,41.81790626,-85.99255396
MI,26027,Cass,Paradise Lake,41.89073533,-85.90846346
MI,26027,Cass,Pickerel Lake,41.99998444,-85.80559683
MI,26027,Cass,Pitcher Lake,42.0673554,-86.09006933
MI,26027,Cass,Pleasant Lake,41.80334965,-86.08951566
MI,26027,Cass,Priest Lake,42.03997961,-86.13701978
MI,26027,Cass,Puterbaugh Lake,41.86501752,-85.9869375
MI,26027,Cass,Robbins Lake,41.82207328,-85.82008518
MI,26027,Cass,Robinson Lake,41.85892748,-85.9835995
MI,26027,Cass,Rodgers Lake,41.94309934,-86.20429584
MI,26027,Cass,Saddlebag Lake,42.05873243,-85.86842557
MI,26027,Cass,Sharkey Lake,41.9594537891443,-85.997180678167
MI,26027,Cass,Shavehead Lake,41.84466802,-85.86670389
MI,26027,Cass,Skab Lake,41.85213052,-86.05857389
MI,26027,Cass,Skyhawk Lake,41.98567908,-85.81975031
MI,26027,Cass,Spatterdock Lake,41.87058556,-85.81953439
MI,26027,Cass,Stone Lake,41.90476503,-86.01737062
MI,26027,Cass,Streaters Mill Pond,41.98031797,-85.79973082
MI,26027,Cass,Teesdale Lake,41.83511189,-85.83050985
MI,26027,Cass,Twin Lakes,42.03396597,-86.04733127
MI,26027,Cass,Wildcat Lake,41.97073552,-85.88385429
MI,26027,Cass,Wood Lake,41.85689078,-85.77920086
MI,26029,Charlevoix,Adams Lake,45.26332452,-85.24588082
MI,26029,Charlevoix,Barnard Pond,45.24651145,-85.30296008
MI,26029,Charlevoix,Barneys Lake,45.71225401,-85.55940613
MI,26029,Charlevoix,Black Lake,45.12624248,-84.79679873
MI,26029,Charlevoix,Bows Lake,45.14948153,-84.77900679
MI,26029,Charlevoix,Boyne River Pond,45.1668327443527,-84.9197712010858
MI,26029,Charlevoix,Cunningham Lake,45.22302666,-85.3029338
MI,26029,Charlevoix,Deer Lake,45.16651673,-84.97717972
MI,26029,Charlevoix,Dyer Lake,45.23847025,-85.12094876
MI,26029,Charlevoix,Egg Lake,45.69987433,-85.53654074
MI,26029,Charlevoix,Font Lake,45.73864196,-85.54161209
MI,26029,Charlevoix,Forest Lake,45.21020851,-85.00834226
MI,26029,Charlevoix,Fox Lake,45.65116004,-85.56720595
MI,26029,Charlevoix,Green Swamp,45.72906755,-85.55579388
MI,26029,Charlevoix,Greenes Lake,45.63413707,-85.58547774
MI,26029,Charlevoix,Harwood Lake,45.21147356,-85.33201604
MI,26029,Charlevoix,Heart Lake,45.13647164,-84.81703534
MI,26029,Charlevoix,Hoffman Lake,45.13148464,-84.78020131
MI,26029,Charlevoix,Kidney Lake,45.13169354,-84.79534903
MI,26029,Charlevoix,Lake Charlevoix,45.25752027,-85.14076702
MI,26029,Charlevoix,Lake Geneserath,45.59714125,-85.53738089
MI,26029,Charlevoix,Lake Maria,45.73184092,-85.65962279
MI,26029,Charlevoix,Lake Marion,45.23060832,-85.2531352
MI,26029,Charlevoix,Little Mud Lake,45.20812006,-85.16810446
MI,26029,Charlevoix,Matchett Lake,45.21669204,-85.30512375
MI,26029,Charlevoix,Millers Marsh,45.61265897,-85.59221524
MI,26029,Charlevoix,Mitchell Lake,45.20724317,-85.3069398
MI,26029,Charlevoix,Mud Lakes,45.123626706827,-84.8038538850244
MI,26029,Charlevoix,Nowland Lake,45.23982843,-85.22035888
MI,26029,Charlevoix,Patricia Lake,45.13500053,-85.10680975
MI,26029,Charlevoix,Round Lake,45.71558283,-85.53119476
MI,26029,Charlevoix,Sixmile Lake,45.12169228,-85.20362717
MI,26029,Charlevoix,Skinner Lake,45.2208333,-85.2923214
MI,26029,Charlevoix,Standard Lake,45.19963513,-84.73597629
MI,26029,Charlevoix,Steele Lake,45.21041298,-85.12600959
MI,26029,Charlevoix,Susan Lake,45.32499102,-85.18187988
MI,26029,Charlevoix,Thumb Lake,45.19185123,-84.7642201
MI,26031,Cheboygan,Barhite Lake,45.26444415,-84.65940974
MI,26031,Cheboygan,Berry,45.3281987749573,-84.6580518015167
MI,26031,Cheboygan,Black Lake,45.46406255,-84.27121993
MI,26031,Cheboygan,Burt Lake,45.46993173,-84.66705436
MI,26031,Cheboygan,Cochran Lake,45.40635526,-84.55129956
MI,26031,Cheboygan,Corey Lake,45.28039942,-84.54752671
MI,26031,Cheboygan,Cornwall Creek Flooding,45.22044062,-84.40902777
MI,26031,Cheboygan,Cornwall Lake,45.21998325,-84.3876288
MI,26031,Cheboygan,Devereaux Lake,45.48606156,-84.45711535
MI,26031,Cheboygan,Doe Lake,45.2105022,-84.49543677
MI,26031,Cheboygan,Dog Lake,45.28480406,-84.40033917
MI,26031,Cheboygan,Dorsy Lake,45.27580391,-84.34661737
MI,26031,Cheboygan,Douglas Lake,45.5809488,-84.69626122
MI,26031,Cheboygan,Duck Lake,45.60770505,-84.34615619
MI,26031,Cheboygan,Duck Marsh,45.60265479,-84.34052426
MI,26031,Cheboygan,Echo Lake,45.2475972771401,-84.5197378837337
MI,26031,Cheboygan,Fulmer Lake,45.27024041,-84.649773
MI,26031,Cheboygan,Hackett Lake,45.24873165,-84.49979047
MI,26031,Cheboygan,Hemlock Lake,45.19969446,-84.40723867
MI,26031,Cheboygan,Holy Smoke Lake,45.26201914,-84.50139749
MI,26031,Cheboygan,Kleber Pond,45.38006658,-84.32019965
MI,26031,Cheboygan,Lake Marina,45.43277435,-84.60170381
MI,26031,Cheboygan,Lancaster Lake,45.62126345,-84.70770217
MI,26031,Cheboygan,Lance Lake,45.22953165,-84.56916804
MI,26031,Cheboygan,Little Weber Lake,45.2952830331092,-84.7295775745938
MI,26031,Cheboygan,Long Lake,45.53261825,-84.39889336
MI,26031,Cheboygan,Lost Lake,45.31012099,-84.40794535
MI,26031,Cheboygan,MacAndrews Lake,45.27749038,-84.49297294
MI,26031,Cheboygan,Malony Lake,45.70088908,-84.64474037
MI,26031,Cheboygan,Marsh Lake,45.25628357,-84.30967845
MI,26031,Cheboygan,McLavey Lake,45.28628288,-84.35462384
MI,26031,Cheboygan,Mullett Lake,45.5128994,-84.52594482
MI,26031,Cheboygan,Munro Lake,45.61559114,-84.68279615
MI,26031,Cheboygan,Nolten Lake,45.69273636,-84.72213665
MI,26031,Cheboygan,Osmun Lake,45.32485364,-84.38927683
MI,26031,Cheboygan,Penny Lake,45.68892318,-84.65763473
MI,26031,Cheboygan,Roberts Lake,45.39799149,-84.55655916
MI,26031,Cheboygan,Tower Pond,45.3572121,-84.29340241
MI,26031,Cheboygan,Twin Lake,45.7042511,-84.72785968
MI,26031,Cheboygan,Vincent Lake,45.60329188,-84.69453643
MI,26031,Cheboygan,Weber Lake,45.29739708,-84.72360511
MI,26031,Cheboygan,Wildwood Lake,45.2362569720724,-84.5541148718745
MI,26033,Chippewa,Andrus Lake,46.70157663,-85.0390112
MI,26033,Chippewa,Arbutus Lake,46.31610505,-84.91576638
MI,26033,Chippewa,Avery Lake,46.40915191,-84.77351743
MI,26033,Chippewa,Baileys Lake,45.96712468,-83.75336858
MI,26033,Chippewa,Bass Lake,45.92973402,-83.55796154
MI,26033,Chippewa,Bayou Pond,46.44665534,-84.79025302
MI,26033,Chippewa,Beaver Dam Pond,45.95912644,-83.68625466
MI,26033,Chippewa,Bender Lake,46.07170191,-84.08101902
MI,26033,Chippewa,Big Bear Ponds,46.19690976,-84.92057704
MI,26033,Chippewa,Big Trout Lake,45.99221619,-84.10704668
MI,26033,Chippewa,Boaz Lake,46.16448647,-84.93553537
MI,26033,Chippewa,Bobbygay Lake,46.21257107,-84.9273643
MI,26033,Chippewa,Boot Lake,45.97523744,-83.76443469
MI,26033,Chippewa,Browns Lake,46.75104229,-85.23177184
MI,26033,Chippewa,Cabin Lake,46.60085476,-85.17640742
MI,26033,Chippewa,Camp Ten Lakes,46.57239198,-85.14067039
MI,26033,Chippewa,Camp Ten Pond,46.19903193,-84.88839528
MI,26033,Chippewa,Caribou Lake,45.99690213,-83.99369975
MI,26033,Chippewa,Carlton Lake,46.03544167,-84.04828195
MI,26033,Chippewa,Clear Lake,45.96968566,-83.53879914
MI,26033,Chippewa,Covach Lake,46.08729389,-84.16830818
MI,26033,Chippewa,Cranberry Lake,45.97910254,-84.00876025
MI,26033,Chippewa,Crego Lake,46.26903543,-84.87919068
MI,26033,Chippewa,Dawson Lake,46.09876333,-83.64211736
MI,26033,Chippewa,Deer Lake,46.27116316,-84.22689949
MI,26033,Chippewa,Deerfoot Lake,46.28895538,-85.01741056
MI,26033,Chippewa,Delirium Pond,46.30025656,-84.73818717
MI,26033,Chippewa,Dick Pond,46.33430537,-84.90328584
MI,26033,Chippewa,Dickenson Lake,45.95260838,-83.57167709
MI,26033,Chippewa,Dishpan Lake,46.37061204,-84.86984781
MI,26033,Chippewa,Dry Lake,45.98453026,-83.61432977
MI,26033,Chippewa,Duck Lake,46.43605272,-85.05049089
MI,26033,Chippewa,Dukes Lake,46.2615365,-84.44186592
MI,26033,Chippewa,Eagle Lake,46.31076435,-84.54904349
MI,26033,Chippewa,East Soldier Lake,46.34677935,-84.85771462
MI,26033,Chippewa,Espanore Lake,45.94164591,-83.83006606
MI,26033,Chippewa,First Lake,46.0391408,-83.62208693
MI,26033,Chippewa,Foreman Lake,46.0189523,-84.11557838
MI,26033,Chippewa,Fourth Lake,46.01099677,-83.56006926
MI,26033,Chippewa,Frenchman Lake,46.18339247,-85.01618831
MI,26033,Chippewa,Fulmer Lake,46.00365303,-84.14816987
MI,26033,Chippewa,Garkinghouse Lake,46.29464984,-84.55727991
MI,26033,Chippewa,Gravel Lake,45.94621391,-83.78308269
MI,26033,Chippewa,Hartley Lake,45.99165154,-83.93096251
MI,26033,Chippewa,Hawkins Lake,46.72920912,-85.06902981
MI,26033,Chippewa,Helen Lake,45.95242252,-83.7538453
MI,26033,Chippewa,High Banks Lake,46.36417687,-84.86684273
MI,26033,Chippewa,Huckleberry Lake,46.1666883,-85.01268764
MI,26033,Chippewa,Hulbert Lake,46.32267242,-85.12207377
MI,26033,Chippewa,Isaacson Lake,45.95064355,-83.80103488
MI,26033,Chippewa,Jackson Lake,45.98540582,-83.83285751
MI,26033,Chippewa,Jarvinen Marsh Lake,45.9292192,-83.58047699
MI,26033,Chippewa,Jones Lake,45.98773108,-83.84086019
MI,26033,Chippewa,Kempaien Lake,45.96445428,-83.79881883
MI,26033,Chippewa,Kinross Lake,46.26830261,-84.50349432
MI,26033,Chippewa,Kirk Lake,46.09684788,-84.10430612
MI,26033,Chippewa,Knutsen Lake,45.94673995,-83.73794169
MI,26033,Chippewa,Laurie Lakes,46.59616673,-85.07606971
MI,26033,Chippewa,Little Avery Lake,46.40616998,-84.76606655
MI,26033,Chippewa,Little Lake,46.76098963,-85.00476342
MI,26033,Chippewa,Little Mud Lake,46.31562048,-85.10671567
MI,26033,Chippewa,Little Salt Lake,46.33538342,-84.99764879
MI,26033,Chippewa,Loyal Lake,46.00178428,-83.65398898
MI,26033,Chippewa,Mackinaw Lake,46.47897062,-85.14220059
MI,26033,Chippewa,Maki Lake,45.98190519,-83.70379207
MI,26033,Chippewa,Marl Lake,45.99909971,-83.69166354
MI,26033,Chippewa,Marsh Lakes,46.74836065,-85.05200167
MI,26033,Chippewa,McAdams Lake,46.02068098,-84.16541367
MI,26033,Chippewa,McMullan Lakes,46.74164422,-85.06592377
MI,26033,Chippewa,McNearney Lake,46.42674814,-84.95730607
MI,26033,Chippewa,Miller Lake,45.98109199,-83.69388621
MI,26033,Chippewa,Monocle Lake,46.47418998,-84.64562058
MI,26033,Chippewa,Monument Lake,46.35745475,-84.86599808
MI,26033,Chippewa,Muskrat Lake,46.26796913,-84.22775943
MI,26033,Chippewa,Naomikong Lake,46.45581479,-84.99468727
MI,26033,Chippewa,Naomikong Pond,46.46687287,-84.95610774
MI,26033,Chippewa,Nasi Lake,45.98554616,-83.68436619
MI,26033,Chippewa,North Pond,46.46205004,-84.61268829
MI,26033,Chippewa,Oldman Lake,46.47048553,-84.27861011
MI,26033,Chippewa,Pardy Pond,46.29865929,-85.06114937
MI,26033,Chippewa,Parish Lake,45.98032412,-83.84978503
MI,26033,Chippewa,Pats Lake,45.95966977,-83.7243861
MI,26033,Chippewa,Peck and Rye Lake,46.39715411,-84.96671275
MI,26033,Chippewa,Pendills Lake,46.43907665,-84.76995374
MI,26033,Chippewa,Piatt Lake,46.42234191,-85.01584043
MI,26033,Chippewa,Pine Lake,45.92674578,-83.58897483
MI,26033,Chippewa,Preacher Lake,46.59925698,-85.07401613
MI,26033,Chippewa,Proctor Lake,46.39211674,-84.93460544
MI,26033,Chippewa,Riley Lake,46.34031885,-85.11123686
MI,26033,Chippewa,Riordan Lake,46.3675803,-84.46183456
MI,26033,Chippewa,Roach Lake,46.26865732,-84.21555995
MI,26033,Chippewa,Roxbury Pond,46.47748419,-85.0110864
MI,26033,Chippewa,Salt Lake,46.33169424,-84.99280262
MI,26033,Chippewa,Sam Taylor Lake,46.05622372,-84.12682963
MI,26033,Chippewa,Seaman Lake,45.9636599,-83.82819153
MI,26033,Chippewa,Second Lake,46.05254567,-83.59576187
MI,26033,Chippewa,Shawnee Lake,46.47516287,-84.27098919
MI,26033,Chippewa,Sheephead Lake,46.64049853,-85.22867972
MI,26033,Chippewa,Shelldrake Lake,46.71621183,-85.07251605
MI,26033,Chippewa,Soldier Lake,46.34889639,-84.86617733
MI,26033,Chippewa,South Pond,46.45245167,-84.60651612
MI,26033,Chippewa,Spectacle Lake,46.46049878,-84.63353603
MI,26033,Chippewa,Spring Pond,46.00791934,-83.71849561
MI,26033,Chippewa,Squeaky Lake,45.99261414,-83.76418897
MI,26033,Chippewa,Stevens Lake,46.0188215,-83.5838984
MI,26033,Chippewa,Stringham Lake,46.00056316,-83.84312038
MI,26033,Chippewa,Stump Lake,46.36438295,-84.87507405
MI,26033,Chippewa,Sylvester Impoundment,46.29857417,-84.69143371
MI,26033,Chippewa,The Widewaters,46.74620686,-85.12552827
MI,26033,Chippewa,Third Lake,46.0310949,-83.5713356
MI,26033,Chippewa,Toivola Lake,45.95232514,-83.65057109
MI,26033,Chippewa,Toy Soldier Lake,46.34578008,-84.86108808
MI,26033,Chippewa,Trout Brook Pond,46.19095497,-84.78263635
MI,26033,Chippewa,Trout Lake,46.18281575,-85.04177391
MI,26033,Chippewa,Twomile Lake,46.75991559,-85.15722673
MI,26033,Chippewa,Vanio Lake,45.95046523,-83.70509909
MI,26033,Chippewa,Walker Lake,46.31743477,-84.98019975
MI,26033,Chippewa,Water Tank Lakes,46.6023619,-85.18298455
MI,26033,Chippewa,Weatherhogs Lake,46.75646281,-85.12463846
MI,26033,Chippewa,Wegwaas Lake,46.17791969,-85.0103117
MI,26033,Chippewa,West Lake,46.31830278,-84.99859206
MI,26033,Chippewa,Whitmarsh Lake,46.32104718,-84.98453823
MI,26033,Chippewa,Williams Lake,46.30980901,-85.04330154
MI,26033,Chippewa,Ziegler Lake,46.00986116,-84.09511614
MI,26035,Clare,Arnold Lake,44.07027824,-84.75366024
MI,26035,Clare,Bailey Lake,43.89164061,-84.65098906
MI,26035,Clare,Bear Lake,43.88860303,-84.95242178
MI,26035,Clare,Beebe Lake,43.9449475,-84.75740509
MI,26035,Clare,Bertha Lake,43.93305788,-84.89224273
MI,26035,Clare,Big Cranberry Lake,43.88111383,-85.03895815
MI,26035,Clare,Big Dollar Lake,43.94184284,-85.06123669
MI,26035,Clare,Big Mud Lake,43.9008085,-85.07746322
MI,26035,Clare,Big Norway Lake,43.98065245,-85.00936531
MI,26035,Clare,Black Louie Bayou,44.10471739,-84.96949826
MI,26035,Clare,Bluegill Lake,44.10379547,-84.77027402
MI,26035,Clare,Bluff Lake,43.83294092,-84.97696197
MI,26035,Clare,Boathouse Lake,44.0251187,-84.7237065
MI,26035,Clare,Boyles Creek,43.84823175,-85.0202296
MI,26035,Clare,Budd Lake,44.02266224,-84.79591817
MI,26035,Clare,Bungo Lake,43.94066942,-84.90965511
MI,26035,Clare,Caboose Lake,43.9194101935023,-85.0285209200309
MI,26035,Clare,Canada Lake,44.02609297,-84.70744558
MI,26035,Clare,Caner Lakes,44.05585408,-84.82222667
MI,26035,Clare,Clear Lake,43.89355122,-84.94141561
MI,26035,Clare,Cranberry Lake,44.05761626,-84.74302341
MI,26035,Clare,Cranberry Lakes,43.91015734,-84.97258984
MI,26035,Clare,Currey Lake,43.8975356955364,-85.0240679002582
MI,26035,Clare,Deadman Lake,43.83236836,-84.92458294
MI,26035,Clare,Decker Lake,44.02980054,-84.65305706
MI,26035,Clare,Deer Lake,44.02041949,-84.7579515
MI,26035,Clare,Devil Lake,43.87433593,-84.87083437
MI,26035,Clare,Dishpan Lake,43.86838659,-84.90848425
MI,26035,Clare,Doc and Tom Lake,43.93164721,-84.98599002
MI,26035,Clare,Dodge Lake,44.0210979,-84.71318999
MI,26035,Clare,Drachenburg Lake,43.99126245,-84.63547758
MI,26035,Clare,Dunham Lake,44.08474018,-84.72820692
MI,26035,Clare,Eight Point Lake,43.83982027,-85.07325743
MI,26035,Clare,Elbow Lake,44.13396691,-84.6619586
MI,26035,Clare,Eureka Lake,43.91507554,-84.87779007
MI,26035,Clare,Five Lakes,43.87370936,-84.80503068
MI,26035,Clare,Floodwood Swamp Reservoir,44.10346966,-84.91908576
MI,26035,Clare,Frost Lake,44.10343324,-84.68970037
MI,26035,Clare,Furgeson Lake,43.88583976,-84.88033114
MI,26035,Clare,Gray Lake,43.82814984,-85.015852
MI,26035,Clare,Green Pine Lake,43.91347961,-85.01750028
MI,26035,Clare,Half Moon Lake,43.90226121,-84.94961965
MI,26035,Clare,Halfmoon Lake,44.11060417,-84.76533646
MI,26035,Clare,Handy Lake,43.95055731,-84.83358048
MI,26035,Clare,Harrington Bayou,44.10841967,-84.96162901
MI,26035,Clare,Haskell Lake,44.11794103,-84.8650916
MI,26035,Clare,Hemlock Lake,43.92606503,-84.93546718
MI,26035,Clare,Howland Lake,43.99645637,-84.64977224
MI,26035,Clare,Icehouse Lake,44.02595721,-84.7169321
MI,26035,Clare,Johnny Lake,43.87835715,-84.87636152
MI,26035,Clare,Kilborne Lake,43.92516993,-84.92452924
MI,26035,Clare,Lake Enola,43.93256689,-84.7526733
MI,26035,Clare,Lake Ernestine,43.9633842,-85.00401645
MI,26035,Clare,Lake George,43.95266708,-84.93240603
MI,26035,Clare,Lake Little George,44.12114409,-84.61972721
MI,26035,Clare,Lake Shamrock,43.83159263,-84.75792537
MI,26035,Clare,Lake Taho,43.93735848,-85.04272886
MI,26035,Clare,Lake Thirteen,43.86100741,-84.85992714
MI,26035,Clare,Lindy Lake,44.09956355,-84.61026745
MI,26035,Clare,Little Long Lake,44.0263096,-84.78606552
MI,26035,Clare,Little Loon Lake,43.87840718,-84.88254929
MI,26035,Clare,Little Norway Lake,43.99245,-85.0136382
MI,26035,Clare,Little Silver Lake,43.9205528849325,-84.9700868277465
MI,26035,Clare,Little Sunrise Lake,44.09986921,-84.85722764
MI,26035,Clare,Long Lake,44.09065464,-84.76634444
MI,26035,Clare,Long Pond,43.91539472,-85.00510061
MI,26035,Clare,Loon Lake,43.90127321,-84.8212706
MI,26035,Clare,Lost Lake,43.91524456,-85.0359924
MI,26035,Clare,Lower Brennan Lake,43.96973359,-84.70801865
MI,26035,Clare,McWatty Lake,44.03359858,-84.79037722
MI,26035,Clare,Mill Pond,43.83363571,-84.87626337
MI,26035,Clare,Minnow Lake,43.84534477,-84.90558534
MI,26035,Clare,Muir Lake,43.8498026,-85.04055292
MI,26035,Clare,Mystic Lake,43.86308838,-85.04332796
MI,26035,Clare,Nestor Lakes,43.96250187,-84.65697354
MI,26035,Clare,Norway Lake,43.97140336,-84.71466849
MI,26035,Clare,Otter Lake,43.85969634,-84.84292449
MI,26035,Clare,Owl Lake,43.90986252,-84.95267061
MI,26035,Clare,Pfannes Lake,43.98141291,-84.8375153
MI,26035,Clare,Pike Lake,43.92380905,-85.01200465
MI,26035,Clare,Rice Pond,44.13858107,-84.85695189
MI,26035,Clare,Rollway Lake,44.13069066,-84.70240147
MI,26035,Clare,Round Lake,43.89661558,-84.64248935
MI,26035,Clare,Russell Lake,43.86704548,-84.95320722
MI,26035,Clare,Schiemann Lake,44.0158511,-84.65387637
MI,26035,Clare,Shingle Lake,43.9638375,-84.95188838
MI,26035,Clare,Shively Lake,43.81809288,-84.69028155
MI,26035,Clare,Shoonemaker Lake,43.89877692,-84.91127482
MI,26035,Clare,Silver Lake,43.91918037,-84.96553683
MI,26035,Clare,South Lake,43.86908239,-84.79349868
MI,26035,Clare,Spillway Lake,43.8744121996123,-85.0253398206646
MI,26035,Clare,Spring Lake,43.96705012,-85.00788697
MI,26035,Clare,Springwood Lakes,44.00989134,-84.69141111
MI,26035,Clare,Starkey Lake,44.0127772383131,-84.8997561284403
MI,26035,Clare,Surrey Lake,43.85284847,-84.91023853
MI,26035,Clare,Sutherland Lake,44.02418317,-84.77061405
MI,26035,Clare,Three Lake,43.88627304,-84.99356407
MI,26035,Clare,Thurston Lake,43.87217833,-84.86753201
MI,26035,Clare,Townline Lake,43.90271536,-84.96846193
MI,26035,Clare,Trout Lake,44.13466921,-84.63083677
MI,26035,Clare,Tuohy Lake,44.12471565,-84.68854416
MI,26035,Clare,Turbush Lake,43.9212246990306,-84.9544274954969
MI,26035,Clare,Twin Lakes,43.85604945,-85.05292239
MI,26035,Clare,Upper Brennan Lake,43.97596443,-84.70875857
MI,26035,Clare,We-E Lake,43.86031524,-84.95098424
MI,26035,Clare,West Trout Lake,43.92951749,-84.77396799
MI,26035,Clare,White Sand Lake,43.82421308,-84.86894645
MI,26035,Clare,Windover Lake,43.95681536,-84.99971641
MI,26035,Clare,Wolf Lake,43.92194307,-84.60831078
MI,26037,Clinton,Aldrich Lake,42.88693338,-84.39503065
MI,26037,Clinton,Alward Lake,42.89530551,-84.56641113
MI,26037,Clinton,Blood Lake,42.91195381,-84.38674592
MI,26037,Clinton,Brindle Lake,42.84507637,-84.4039422
MI,26037,Clinton,Burke Lake,42.80921056,-84.38711534
MI,26037,Clinton,Cedar Lake,42.9053739340689,-84.4442241220436
MI,26037,Clinton,Curtis Lake,42.93504363,-84.45367983
MI,26037,Clinton,Fox Knoll Lake,42.78667437,-84.3881026
MI,26037,Clinton,Giffels Lake,42.90100151,-84.41364434
MI,26037,Clinton,Lake Geneva,42.83387087,-84.58303024
MI,26037,Clinton,Lake Ovid,42.93679347,-84.41302971
MI,26037,Clinton,Lake Victoria,42.91817275,-84.37486231
MI,26037,Clinton,Montague Lake,42.92493003,-84.43754263
MI,26037,Clinton,Muskrat Lake,42.91105704,-84.59016217
MI,26037,Clinton,Park Lake,42.78924578,-84.44005885
MI,26037,Clinton,Perch Lake,42.79585111,-84.42643991
MI,26037,Clinton,Potter Lake,42.79287261,-84.41447174
MI,26037,Clinton,Priggooris Lake,42.7986804654973,-84.4397502342825
MI,26037,Clinton,Richmond Lake,42.9289403505153,-84.4753509389665
MI,26037,Clinton,Rose Lake,42.79440494,-84.39337289
MI,26037,Clinton,Round Lake,42.87770781,-84.44516019
MI,26037,Clinton,Whitman Lake,42.86687709,-84.39802445
MI,26039,Crawford,Barker Lake,44.62646023,-84.67230387
MI,26039,Crawford,Barnes Lake,44.83120556,-84.60287676
MI,26039,Crawford,Bear Lake,44.79261657,-84.61988094
MI,26039,Crawford,Beaver Lake,44.84743884,-84.72475764
MI,26039,Crawford,Blue Gill Lake,44.8467213,-84.70861451
MI,26039,Crawford,Bright Lake,44.72947898,-84.68482188
MI,26039,Crawford,Bull Frog Lake,44.8371369,-84.61066392
MI,26039,Crawford,Camel Lake,44.77174359,-84.75811731
MI,26039,Crawford,Chub Lake,44.75612477,-84.45177626
MI,26039,Crawford,Clear Lake,44.8094477,-84.58563601
MI,26039,Crawford,Cranberry Lake,44.79300313,-84.76070602
MI,26039,Crawford,Duck Lake,44.75390337,-84.55285398
MI,26039,Crawford,Glory Lake,44.73208855,-84.68278097
MI,26039,Crawford,Hartwick Lake,44.73596078,-84.65691955
MI,26039,Crawford,Hiscock Lake,44.53209368,-84.41581902
MI,26039,Crawford,Horseshoe Lake,44.8525889,-84.70800892
MI,26039,Crawford,Howes Lake,44.6874774,-84.81464069
MI,26039,Crawford,Hunters Lake,44.54126468,-84.40241082
MI,26039,Crawford,Jones Lake,44.78371915,-84.59255492
MI,26039,Crawford,Karen Lake,44.7291983,-84.65484026
MI,26039,Crawford,Kellogg Lake,44.53375389,-84.42187784
MI,26039,Crawford,Kneff Lakes,44.635646,-84.57637171
MI,26039,Crawford,KP Lake,44.79139112,-84.54912914
MI,26039,Crawford,Kyle Lake,44.73202494,-84.58533161
MI,26039,Crawford,Lake Margrethe,44.6495118,-84.79159778
MI,26039,Crawford,Little K P Lake,44.77927311,-84.55339986
MI,26039,Crawford,Little Shupac Lake,44.82223748,-84.468662
MI,26039,Crawford,Lonesome Lake,44.84858966,-84.53832174
MI,26039,Crawford,Lost Lake,44.8507773,-84.83935084
MI,26039,Crawford,Marsh Lake,44.85163705,-84.61193029
MI,26039,Crawford,May Lake,44.7752403,-84.76252633
MI,26039,Crawford,Mud Lake,44.53939818,-84.64832087
MI,26039,Crawford,Pickerel Lake,44.80261419,-84.37185082
MI,26039,Crawford,River Lake,44.79502087,-84.58763181
MI,26039,Crawford,Sand Hill Lake,44.71764066,-84.7622587
MI,26039,Crawford,Section One Lake,44.85459297,-84.61766933
MI,26039,Crawford,Shellenbarger Lake,44.65091258,-84.68349748
MI,26039,Crawford,Shupac Lake,44.82219164,-84.4759602
MI,26039,Crawford,Simpson Lakes,44.63759142,-84.71887474
MI,26039,Crawford,Staley Lake,44.63646108,-84.62535187
MI,26039,Crawford,Timber Lake,44.82014055,-84.59787693
MI,26039,Crawford,Wakeley Lake,44.63470435,-84.5137008
MI,26039,Crawford,West Lake,44.53025736,-84.38528658
MI,26041,Delta,Back Lake,46.06882822,-86.59609934
MI,26041,Delta,Bear Lake,46.07294605,-86.49916437
MI,26041,Delta,Billy Good Lake,46.0149133,-86.62555352
MI,26041,Delta,Bishop Lake,46.01298072,-86.81973164
MI,26041,Delta,Boufford Lake,45.77792268,-86.83482426
MI,26041,Delta,Bourgois Lake,45.97496453,-86.62629913
MI,26041,Delta,Boutlier Lake,45.8734425,-86.66567239
MI,26041,Delta,Brampton Lake,45.93304202,-87.0300779
MI,26041,Delta,Buck Fever Lake,45.75644787,-86.50813953
MI,26041,Delta,Cache Lake,45.99829858,-86.67653521
MI,26041,Delta,Camp Fortyone Lake,46.08068014,-86.5309052
MI,26041,Delta,Camp Seven Lake,46.0572172,-86.5532552
MI,26041,Delta,Carr Lake,46.07970374,-86.50645996
MI,26041,Delta,Carr Ponds,46.09479528,-86.52247313
MI,26041,Delta,Chamberlain Lake,46.13370701,-86.49302939
MI,26041,Delta,Charboneau Lake,45.72519384,-86.53963386
MI,26041,Delta,Chicago Lake,46.03644943,-86.6102284
MI,26041,Delta,Connor Lake,46.1560648,-86.65312191
MI,26041,Delta,Coolaw Lakes,45.99797224,-86.65038588
MI,26041,Delta,Cousineau Lake,45.89294461,-86.53289912
MI,26041,Delta,Dana Lake,46.1119691,-86.62577223
MI,26041,Delta,Farm Lake,45.93462937,-86.89364362
MI,26041,Delta,Fern Lake,46.04126022,-86.53671984
MI,26041,Delta,Fishery Lake,45.74067876,-86.53901604
MI,26041,Delta,Foote Lake,46.1554243,-86.49144646
MI,26041,Delta,Forty Pond,46.15424238,-86.49981313
MI,26041,Delta,Frying Pan Lake,46.00944899,-86.59768383
MI,26041,Delta,Ganamush Lake,46.10567772,-86.50644564
MI,26041,Delta,Gleason Lake,46.05111813,-86.71052043
MI,26041,Delta,Gooseneck Lake,46.06863886,-86.5491583
MI,26041,Delta,Granskog Lake,45.73263049,-86.86401579
MI,26041,Delta,Greens Lake,46.04656647,-86.79402377
MI,26041,Delta,Halfmoon Lake,45.75601973,-86.49990368
MI,26041,Delta,Halfway Lake,45.85554359,-86.4803533
MI,26041,Delta,Henderson Lakes,45.60781663,-87.22205275
MI,26041,Delta,Hidden Lake,46.15222454,-86.63976754
MI,26041,Delta,Highbridge Lake,46.11442056,-86.54236079
MI,26041,Delta,Hugoboom Lake,46.15004699,-86.60637634
MI,26041,Delta,Indian Town Lake,45.75018468,-86.83682137
MI,26041,Delta,Jackpine Lake,46.11636115,-86.52136498
MI,26041,Delta,Jones Lake,46.13845975,-86.74436785
MI,26041,Delta,Jug Lake,46.04242619,-86.59143711
MI,26041,Delta,Kenobo Lake,46.04240151,-86.6950026
MI,26041,Delta,Lake Little Sixteen,45.77515536,-86.87288182
MI,26041,Delta,Lake Minnewasca,45.87195926,-87.04367747
MI,26041,Delta,Lake Sixteen,45.77528643,-86.89787673
MI,26041,Delta,Lake Thirteen,45.86523536,-86.4764317
MI,26041,Delta,Lake Twentythree,46.11342662,-86.51755653
MI,26041,Delta,Little Moss Lake,45.92386068,-86.65732652
MI,26041,Delta,Little Pole Lake,46.15860298,-86.84108389
MI,26041,Delta,Little Stevens Lake,46.07867941,-86.57303148
MI,26041,Delta,Little Sucker Lake,45.6708306,-86.63399399
MI,26041,Delta,Lower Eighteenmile Lake,46.09710971,-86.8231756
MI,26041,Delta,Lyman Lake,46.07197796,-86.53492862
MI,26041,Delta,Mahskeekee Lake,46.02060624,-86.62089112
MI,26041,Delta,Marsh Lake,45.86971118,-86.69819953
MI,26041,Delta,McDonald Lake,46.04074052,-86.80596634
MI,26041,Delta,Merles Lake,46.08033767,-86.91488285
MI,26041,Delta,Middle Eighteenmile Lake,46.10916999,-86.82590801
MI,26041,Delta,Molly Lake,46.07571577,-86.51184603
MI,26041,Delta,Moss Lake,45.90257142,-86.65036146
MI,26041,Delta,Mowe Lake,46.14477587,-86.58000192
MI,26041,Delta,Muskrat Lake,46.15592587,-86.68649998
MI,26041,Delta,Narbon Lake,46.04060288,-86.73890167
MI,26041,Delta,No Name Lake,46.1467781,-86.49470825
MI,26041,Delta,North Lake,45.64938941,-87.19424583
MI,26041,Delta,Norway Lake,46.13095295,-86.50876532
MI,26041,Delta,Peacock Lake,46.07858629,-86.79904975
MI,26041,Delta,Peterson Lake,45.99105906,-86.85400669
MI,26041,Delta,Pike Lake,46.15522952,-86.60387886
MI,26041,Delta,Pine Lake,46.14821066,-86.76880005
MI,26041,Delta,Plumbob Lake,46.10102367,-86.63513953
MI,26041,Delta,Polack Lake,46.03576001,-86.72421121
MI,26041,Delta,Pole Creek Lake,46.14499443,-86.7758246
MI,26041,Delta,Poplar Lake,46.08164281,-86.79264263
MI,26041,Delta,Pot Lake,46.14353054,-86.49423757
MI,26041,Delta,Remington Lake,46.02563753,-86.61706602
MI,26041,Delta,Round Lake,46.15075078,-86.74402524
MI,26041,Delta,Sandstrom Lake,45.73035699,-86.93737659
MI,26041,Delta,Schaawe Lake,45.87679162,-86.93516101
MI,26041,Delta,Second Lake,45.73349412,-87.32289165
MI,26041,Delta,Shoe Pac Lake,46.0304654,-86.50349086
MI,26041,Delta,Side Lake,46.151939,-86.77698637
MI,26041,Delta,South Lake,45.63404878,-87.22037785
MI,26041,Delta,Square Lake,46.0682624,-86.50968244
MI,26041,Delta,Stevens Lake,46.08205537,-86.57831133
MI,26041,Delta,Sucker Lake,45.67681807,-86.59183818
MI,26041,Delta,Swamp Lake,46.12540974,-86.55807677
MI,26041,Delta,Upper Eighteenmile Lake,46.12643837,-86.8296274
MI,26041,Delta,Van Winkle Lake,46.05625757,-86.56769185
MI,26041,Delta,Vista Lake,46.04179011,-86.61266229
MI,26041,Delta,Waco Lake,46.04869706,-86.73719094
MI,26041,Delta,Warner Lake,45.8846149,-86.51478689
MI,26041,Delta,West Lake,46.00912295,-86.51439243
MI,26041,Delta,Wolf Lake,46.05382259,-86.51999426
MI,26043,Dickinson,Bass Lake,45.85316252,-88.07248725
MI,26043,Dickinson,Benton Lake,45.88019392,-87.90642593
MI,26043,Dickinson,Bradford Lake,45.93293686,-88.08841914
MI,26043,Dickinson,Brown Lake,45.92259155,-87.78609885
MI,26043,Dickinson,Browning Lake,45.94362088,-88.09100499
MI,26043,Dickinson,Bush Lake,46.02923441,-88.10989018
MI,26043,Dickinson,Cady Lake,46.2018851,-87.69345879
MI,26043,Dickinson,Cameron Lake,46.23837391,-88.03234151
MI,26043,Dickinson,Carney Lake,45.89565469,-87.93387239
MI,26043,Dickinson,Cassagranda Lake,46.22941756,-88.09456173
MI,26043,Dickinson,Chapin Mine,45.82558733,-88.06600076
MI,26043,Dickinson,Chapin Pit,45.8239891141401,-88.0615557488468
MI,26043,Dickinson,Cowboy Lake,45.8113422,-88.12329397
MI,26043,Dickinson,Coy Lake,46.23846596,-88.09223784
MI,26043,Dickinson,Deer Lake,45.87607329,-88.03429592
MI,26043,Dickinson,Doan Lakes,46.21175626,-88.04224069
MI,26043,Dickinson,Dyer Lake,45.89466321,-88.09312359
MI,26043,Dickinson,East Lake,45.90914714,-87.71372046
MI,26043,Dickinson,East Pond,45.9671217381037,-87.9949796992638
MI,26043,Dickinson,Edey Lake,46.19793338,-88.05660121
MI,26043,Dickinson,Edgar Lake,46.2050024,-88.05274348
MI,26043,Dickinson,Floodwood Lakes,46.2203343,-88.02555804
MI,26043,Dickinson,Fox Lake,46.10290551,-88.04887479
MI,26043,Dickinson,Fumee Lake,45.82641121,-87.97467507
MI,26043,Dickinson,Gene Pond,46.06695079,-87.85908741
MI,26043,Dickinson,Groveland Mine,45.9932649441385,-87.9821422178278
MI,26043,Dickinson,Gustafson Lake,45.87070208,-87.89197015
MI,26043,Dickinson,Hamilton Lake,45.75517542,-87.78565451
MI,26043,Dickinson,Hanbury Lake,45.78089279,-87.88063137
MI,26043,Dickinson,Hancock Creek Flowage,45.9207548012584,-87.748046390498
MI,26043,Dickinson,Harding Lake,45.8850237724953,-88.0076660663749
MI,26043,Dickinson,Hardwood Impoundment,45.99067743,-87.68204923
MI,26043,Dickinson,Hintz Lake,46.09901088,-87.74806268
MI,26043,Dickinson,Horseshoe Lake,46.14800854,-87.84610067
MI,26043,Dickinson,Island Pond,45.9761120783935,-87.9966345324731
MI,26043,Dickinson,Johns Little Lake,45.92358433,-87.93858194
MI,26043,Dickinson,Jones Pond,45.7952625012787,-88.0316869787676
MI,26043,Dickinson,Kates Lake,46.24475455,-87.6516504
MI,26043,Dickinson,Kemp Lake,46.20689271,-87.72227981
MI,26043,Dickinson,Lake Antoine,45.83713481,-88.03214799
MI,26043,Dickinson,Lake Charles,46.2371473581086,-88.0729123207833
MI,26043,Dickinson,Lake Thirtysix,46.16377553,-87.63123015
MI,26043,Dickinson,Lake Twentynine,45.91974861,-87.96061093
MI,26043,Dickinson,Lake View,45.7836875390718,-87.8979014742755
MI,26043,Dickinson,Little Badwater Lake,45.88007379,-88.0741518
MI,26043,Dickinson,Little Crystal Lake,45.94770878,-87.91571733
MI,26043,Dickinson,Little Fumee Lake,45.81978941,-87.95722698
MI,26043,Dickinson,Little Kates Lake,46.24307244,-87.67197956
MI,26043,Dickinson,Little Lost Lake,45.91686234,-87.93639481
MI,26043,Dickinson,Long Lake,46.19090006,-88.06585004
MI,26043,Dickinson,Louise Lake,45.74903796,-87.80926815
MI,26043,Dickinson,Lyons Lake,45.92837545,-87.87389518
MI,26043,Dickinson,Marsh Lake,46.04359374,-87.66397893
MI,26043,Dickinson,Mary Lake,45.75142526,-87.81961918
MI,26043,Dickinson,Miller Lake,45.87013793,-87.88213842
MI,26043,Dickinson,Moose Lake,45.93761862,-87.81419412
MI,26043,Dickinson,Necktie Lake,45.92402027,-87.79330918
MI,26043,Dickinson,Norway Lake,46.07002479,-87.83608129
MI,26043,Dickinson,O'Neil Lake,46.22535749,-87.85570576
MI,26043,Dickinson,Parlemee Lake,46.22764775,-88.01295681
MI,26043,Dickinson,Peronto Lake,46.01414082,-87.6358909
MI,26043,Dickinson,Petes Lake,45.9036233672349,-87.816417473697
MI,26043,Dickinson,Pine Creek Lake,45.8129909,-87.86985156
MI,26043,Dickinson,Railroad Lake,46.19361161,-88.04927018
MI,26043,Dickinson,Red Dam Lake,45.73698597,-87.797079
MI,26043,Dickinson,Robbins Pond,46.07482616,-88.04817615
MI,26043,Dickinson,Rock Lake,45.91040273,-87.93175801
MI,26043,Dickinson,Roosevelt Lake,45.92999387,-87.85007594
MI,26043,Dickinson,Round Lake,46.21177117,-88.07484103
MI,26043,Dickinson,Sawyer Lake,46.18174753,-88.0608424
MI,26043,Dickinson,Scott Lake,45.92399718,-87.93150731
MI,26043,Dickinson,Section Eleven Lake,46.05210723,-88.03043145
MI,26043,Dickinson,Section Nine Lake,46.05201249,-88.05527696
MI,26043,Dickinson,Silver Lake,46.20386273,-88.01859595
MI,26043,Dickinson,Sixmile Lake,46.02218104,-87.91504267
MI,26043,Dickinson,Solberg Lake,46.02717817,-87.96811852
MI,26043,Dickinson,Sonnies Pond,45.87575859,-88.06668565
MI,26043,Dickinson,South Pond,45.9545111573668,-87.979639277662
MI,26043,Dickinson,Spirit Lake,46.00003119,-88.08679007
MI,26043,Dickinson,Spring Lake,45.8773543,-88.04768848
MI,26043,Dickinson,Spruce Lake,45.99267132,-87.74433845
MI,26043,Dickinson,Star Lake,45.85387627,-88.06361375
MI,26043,Dickinson,Strawberry Lake,45.7929264676393,-87.9046478403012
MI,26043,Dickinson,Tamarack Lake,46.05047821,-88.03610935
MI,26043,Dickinson,Tobey Lake,46.05324259,-88.09540739
MI,26043,Dickinson,Toby Lake,45.9646753001532,-87.9456700581835
MI,26043,Dickinson,Toms Lake,45.8991531168579,-87.9419589484451
MI,26043,Dickinson,Twin Falls Flowage,45.88379563,-88.08935599
MI,26043,Dickinson,Van Derlin Lake,46.2146211,-87.8474358
MI,26043,Dickinson,Weber Lake,46.20011656,-88.08876191
MI,26043,Dickinson,West Mud Lake,45.81603783,-88.07889551
MI,26043,Dickinson,West Pond,45.9677020991788,-88.0142247337967
MI,26045,Eaton,Bly Lake,42.46975944,-84.72529638
MI,26045,Eaton,Boody Lake,42.58249489,-84.71055313
MI,26045,Eaton,Durk Lake,42.7360439424675,-85.0538416511159
MI,26045,Eaton,Frazier Memorial Pond,42.7664715014743,-84.7653707324529
MI,26045,Eaton,Gregg Lake,42.75160856,-84.95191446
MI,26045,Eaton,Hart Lake,42.7391708,-85.05338092
MI,26045,Eaton,Hoover Lake,42.76640243,-84.92221263
MI,26045,Eaton,Kettler Lake,42.44468647,-84.62765881
MI,26045,Eaton,King Lake,42.6216393621961,-84.7026879924323
MI,26045,Eaton,Lacey Lake,42.52935907,-84.97083284
MI,26045,Eaton,Lake Delta,42.6856658688594,-84.6583440352481
MI,26045,Eaton,Lake Interstate,42.6643448823245,-84.6859180151629
MI,26045,Eaton,Lookingglass Lake,42.73429246,-85.04934483
MI,26045,Eaton,Loomis Lake,42.42444033,-84.69740266
MI,26045,Eaton,Lost Lake,42.73738479,-85.04818906
MI,26045,Eaton,Narrow Lake,42.43383411,-84.77591503
MI,26045,Eaton,Old Lansing Pond,42.7091963074727,-84.6119918243368
MI,26045,Eaton,Old Maid's Lake,42.6806923050043,-84.6676583901398
MI,26045,Eaton,Pine Lake,42.42606415,-84.93924078
MI,26045,Eaton,Redmer Pond,42.6858880866259,-84.6673903481168
MI,26045,Eaton,Saubee Lake,42.72949766,-85.05903481
MI,26045,Eaton,Sinclair Lake,42.70360089,-84.99413734
MI,26045,Eaton,Snow Lake,42.59340186,-84.70510071
MI,26045,Eaton,Southward Lake,42.45942327,-84.82199814
MI,26045,Eaton,Steel Lake,42.44954513,-84.72842715
MI,26045,Eaton,Tamarock Lake,42.73121866,-85.05183781
MI,26045,Eaton,Taylor Lake,42.59447006,-84.70103275
MI,26045,Eaton,Willow Pond,42.6736017334266,-84.6694467118114
MI,26047,Emmet,Arnott Lake,45.62672033,-84.77640427
MI,26047,Emmet,Big Fish Pond,45.4282610657194,-84.8495678196217
MI,26047,Emmet,Canada Goose Pond,45.74237565,-84.89741337
MI,26047,Emmet,Crooked Lake,45.40837736,-84.80691803
MI,26047,Emmet,Dow Lake,45.70664952,-84.73521797
MI,26047,Emmet,Four Lakes,45.52805474,-84.89897832
MI,26047,Emmet,French Farm Lake,45.7439515,-84.76876291
MI,26047,Emmet,Galloway Lake,45.6524108443525,-84.7778814032824
MI,26047,Emmet,Lake Kathleen,45.53174588,-84.77348693
MI,26047,Emmet,Lake Paradise,45.6873218,-84.75124342
MI,26047,Emmet,Larks Lake,45.60483832,-84.92998973
MI,26047,Emmet,Lawrence Lake,45.71611829,-84.87344472
MI,26047,Emmet,Lost Lake,45.6393585874085,-84.7595147842544
MI,26047,Emmet,Mud Lake,45.39576841,-84.90161886
MI,26047,Emmet,O'Neal Lake,45.71257948,-84.88861445
MI,26047,Emmet,Round Lake,45.4069024,-84.89125738
MI,26047,Emmet,Sherett Lake,45.63681693,-84.77029758
MI,26047,Emmet,Silver Creek Pond,45.36746762,-84.80496904
MI,26047,Emmet,Sommers Lake,45.65754566,-84.7436146
MI,26047,Emmet,Spring Lake,45.39198243,-84.90814035
MI,26049,Genesee,Atlas Millpond,42.93516813,-83.52747919
MI,26049,Genesee,Barnum Lake,42.85722366,-83.71319186
MI,26049,Genesee,Bass Lake,42.80707237,-83.84590229
MI,26049,Genesee,Buckbee Lake,42.78329028,-83.8017832
MI,26049,Genesee,Buell Lake,43.2089605,-83.61637713
MI,26049,Genesee,Burroughs Lake,43.16629068,-83.55350623
MI,26049,Genesee,Byram Lake,42.80450867,-83.79021354
MI,26049,Genesee,C S Mott Lake,43.10004242,-83.62526563
MI,26049,Genesee,Case Lake,42.89809859,-83.71604787
MI,26049,Genesee,Crane Lake,42.83692193,-83.74197295
MI,26049,Genesee,Croft Lake,42.84080579,-83.85325615
MI,26049,Genesee,Crooked Lake,42.83183085,-83.69313263
MI,26049,Genesee,Cummings Lake,42.9535926,-83.51132919
MI,26049,Genesee,Dock Lake,43.16949036,-83.51658784
MI,26049,Genesee,Dollar Lake,42.84838806,-83.70698259
MI,26049,Genesee,Fenton Millpond,42.7907251434492,-83.6942157924207
MI,26049,Genesee,Flint Park Lake,43.05800568,-83.71953849
MI,26049,Genesee,Gale Lake,42.9008125,-83.51504769
MI,26049,Genesee,Gawdy Lake,43.16662391,-83.47223972
MI,26049,Genesee,Goodrich Millpond,42.91244443,-83.5058507
MI,26049,Genesee,Hanover Lake,42.98222406,-83.49827867
MI,26049,Genesee,Hasley Lake,42.9713462,-83.45866945
MI,26049,Genesee,Jones Lake,43.0246788,-83.46213941
MI,26049,Genesee,Kearsley Lake,43.0625990614414,-83.6288456417682
MI,26049,Genesee,Kearsley Reservoir,43.05715606,-83.63970784
MI,26049,Genesee,Kuhn Lake,42.90672123,-83.47454962
MI,26049,Genesee,Lake Fenton,42.8391182,-83.71669937
MI,26049,Genesee,Lake Hellene,42.9384073727572,-83.5751991194242
MI,26049,Genesee,Lake Linda,43.0734352946982,-83.5499289626781
MI,26049,Genesee,Lake Ponemah,42.81722541,-83.74330344
MI,26049,Genesee,Lillie Lake,42.7881008908462,-83.9170179064663
MI,26049,Genesee,Little Long Lake,42.85215236,-83.71131535
MI,26049,Genesee,Lobdell Lake,42.7820282,-83.8258664
MI,26049,Genesee,Long Lake,43.00778039,-83.51993836
MI,26049,Genesee,Loon Lake,42.83464413,-83.75326161
MI,26049,Genesee,Marl Lake,42.78327114,-83.76408374
MI,26049,Genesee,McCaslin Lake,42.811866,-83.85621445
MI,26049,Genesee,McCormick Lake,43.16496529,-83.52131279
MI,26049,Genesee,McCully Lake,42.83750999,-83.69887935
MI,26049,Genesee,McKane Lake,42.79604373,-83.88650095
MI,26049,Genesee,Murray Lake,42.78855638,-83.85943268
MI,26049,Genesee,Myers Lake,42.80434987,-83.88588427
MI,26049,Genesee,Nichols Lake,42.81900016,-83.6892123
MI,26049,Genesee,Otter Lake,42.82201051,-83.82978741
MI,26049,Genesee,Petts Lake,42.82414424,-83.69872095
MI,26049,Genesee,Picnic Lake,43.16195073,-83.52064506
MI,26049,Genesee,Pine Lake,42.79572326,-83.76972422
MI,26049,Genesee,Rider Lake,42.7815325099254,-83.890849094888
MI,26049,Genesee,Runoff Pond,43.0417021639762,-83.6057915196377
MI,26049,Genesee,Sand Lake,43.1704879916131,-83.5153098881211
MI,26049,Genesee,Seeley Lake,42.95827957,-83.49880349
MI,26049,Genesee,Shiawassee Lake,42.80844185,-83.82921316
MI,26049,Genesee,Shinanguag Lake,42.89541824,-83.50054938
MI,26049,Genesee,Silver Lake,42.80027667,-83.74947455
MI,26049,Genesee,Sister Lakes,43.19039382,-83.4694513
MI,26049,Genesee,Smith Lake,42.91286749,-83.61961721
MI,26049,Genesee,Softwater Lake,42.79154821,-83.83983073
MI,26049,Genesee,Squaw Lake,42.8278915,-83.74678783
MI,26049,Genesee,Thread Lake,42.99887339,-83.67066459
MI,26049,Genesee,Tupper Lake,42.81963136,-83.75753773
MI,26049,Genesee,Van Natter Lake,43.18101002,-83.48683711
MI,26049,Genesee,Westman Lake,42.7845423,-83.69379524
MI,26051,Gladwin,Big Lake Twenty,43.94300879,-84.57667031
MI,26051,Gladwin,Blue Lake,44.12227,-84.56084213
MI,26051,Gladwin,Cedar Lake,44.13792086,-84.34976794
MI,26051,Gladwin,Dollar Lake,44.14273954,-84.35293569
MI,26051,Gladwin,Elk Lake,44.1566129,-84.36034763
MI,26051,Gladwin,Frost Lake,43.99790497,-84.56649676
MI,26051,Gladwin,Grass Lake,44.1168229,-84.58442458
MI,26051,Gladwin,Greasy Jim Lake,44.08175857,-84.54762204
MI,26051,Gladwin,Haymarsh Lake,44.10570293,-84.5772409
MI,26051,Gladwin,Hoister Lake,44.14329108,-84.56607921
MI,26051,Gladwin,House Lake,44.14157345,-84.5715464
MI,26051,Gladwin,Hummerson Lake,44.00324626,-84.44999435
MI,26051,Gladwin,Indian Lake,44.15180636,-84.35244785
MI,26051,Gladwin,Island Lake,44.12310486,-84.57649114
MI,26051,Gladwin,Kerswill Lake,43.95529362,-84.56129753
MI,26051,Gladwin,Lake Contos,44.01515249,-84.56229783
MI,26051,Gladwin,Lake Four,44.15462076,-84.44612004
MI,26051,Gladwin,Lake Lancelot,44.11924575,-84.45274689
MI,26051,Gladwin,Lake Lancer,44.11096133,-84.44667164
MI,26051,Gladwin,Lake Lochbrae,44.10229096,-84.49352355
MI,26051,Gladwin,Little Lake Twenty,43.94299263,-84.5718059
MI,26051,Gladwin,McGilvery Lake,44.06953573,-84.60042635
MI,26051,Gladwin,Molasses River Flooding Number Three,43.95426781,-84.18667136
MI,26051,Gladwin,Molasses River Flooding Number Two,44.07668531,-84.22798418
MI,26051,Gladwin,Nineteen Lake,44.10287709,-84.46993679
MI,26051,Gladwin,Peach Lake,44.05082354,-84.6012754
MI,26051,Gladwin,Perch Lake,44.15572911,-84.38075567
MI,26051,Gladwin,Pratt Lake,44.02597581,-84.54744079
MI,26051,Gladwin,Puro Lake,44.03666876,-84.56284872
MI,26051,Gladwin,Ross Lake,43.88404198,-84.49748605
MI,26051,Gladwin,Round Lake,44.08621863,-84.4848759
MI,26051,Gladwin,Schoolhouse Lake,44.09498991,-84.57572731
MI,26051,Gladwin,Secord Lake,44.06351146,-84.33453255
MI,26051,Gladwin,Streaked Lake,44.12895947,-84.55467252
MI,26051,Gladwin,Swan Lake,43.96892744,-84.49728397
MI,26051,Gladwin,Trout Lake,44.13632087,-84.56538773
MI,26051,Gladwin,Wallic Lake,44.11801056,-84.51613268
MI,26051,Gladwin,Wiggins Lake,43.99642497,-84.54383545
MI,26051,Gladwin,Wixom Lake (historical),43.82596368,-84.368198
MI,26053,Gogebic,Albino Lake,46.26163959,-89.26389197
MI,26053,Gogebic,Allen Lake,46.22419268,-89.1717759
MI,26053,Gogebic,Amik Lake,46.29347857,-89.26227505
MI,26053,Gogebic,Anderson Lake,46.21531698,-89.14393539
MI,26053,Gogebic,Arnested Lake,46.31237932,-89.71959661
MI,26053,Gogebic,Banks Lake,46.20929192,-89.28707132
MI,26053,Gogebic,Banner Lake,46.32875493,-89.61271142
MI,26053,Gogebic,Barb Lake,46.32714766,-89.58921401
MI,26053,Gogebic,Basin Lake,46.25103201,-89.67344242
MI,26053,Gogebic,Bass Lake,46.30497877,-89.17480914
MI,26053,Gogebic,Bay Lake,46.24221682,-89.49556863
MI,26053,Gogebic,Beatons Lake,46.32810738,-89.36341855
MI,26053,Gogebic,Beaver Dam Lake,46.24058219,-89.17324036
MI,26053,Gogebic,Beaver Pond,46.243537,-89.0830903
MI,26053,Gogebic,Beaver Station Lake,46.2338189,-89.17449282
MI,26053,Gogebic,Bee Lake,46.17096298,-89.23897072
MI,26053,Gogebic,Bergner Lake,46.24621976,-89.51191293
MI,26053,Gogebic,Big African Lake,46.25041337,-89.39687893
MI,26053,Gogebic,Big Bateau Lake,46.18055138,-89.28374675
MI,26053,Gogebic,Big Mosquito Lake,46.24586283,-89.47049921
MI,26053,Gogebic,Birch Lake,46.1543653850846,-89.1547136463348
MI,26053,Gogebic,Black River Lake,46.33310934,-90.05278547
MI,26053,Gogebic,Bluebell Lake,46.27529584,-89.71825999
MI,26053,Gogebic,Bluegill Pond,46.27590201,-89.58650068
MI,26053,Gogebic,Bluejay Lake,46.3217227,-89.78113887
MI,26053,Gogebic,Bobcat Lake,46.35630713,-89.66989241
MI,26053,Gogebic,Bracken Lake,46.33081189,-89.04266422
MI,26053,Gogebic,Brown Lake,46.21774907,-89.47395993
MI,26053,Gogebic,Brush Lake,46.32666247,-89.237128
MI,26053,Gogebic,Buck Lake,46.32062828,-89.109404
MI,26053,Gogebic,Buckthorn Lake,46.26654777,-89.71023347
MI,26053,Gogebic,Castle Lake,46.31522158,-89.07463375
MI,26053,Gogebic,Chaney Lake,46.31984916,-89.91165803
MI,26053,Gogebic,Chickadee Lake,46.23135463,-89.22403204
MI,26053,Gogebic,Chokecherry Lake,46.27442454,-89.69431704
MI,26053,Gogebic,Cisco Lake,46.2401343,-89.44664377
MI,26053,Gogebic,Clark Lake,46.22518792,-89.32028747
MI,26053,Gogebic,Clear Lake,46.24854769,-89.27114902
MI,26053,Gogebic,Clearwater Lake,46.25623685,-89.41167616
MI,26053,Gogebic,Cloverleaf Lake,46.25469278,-89.45781233
MI,26053,Gogebic,Copper Pond,46.57567646,-89.89013411
MI,26053,Gogebic,Corey Lake,46.23187205,-89.29742212
MI,26053,Gogebic,Cornelia Lake,46.26770258,-89.50251497
MI,26053,Gogebic,Corssbill Lake,46.32348054,-89.31974131
MI,26053,Gogebic,Cowslip Lake,46.28924958,-89.31164099
MI,26053,Gogebic,Cox Lake,46.24275329,-89.42637166
MI,26053,Gogebic,Coyote Lake,46.31318206,-89.30439968
MI,26053,Gogebic,Cranberry Lake,46.23243371,-89.57007112
MI,26053,Gogebic,Crane Lake,46.32127048,-89.30276995
MI,26053,Gogebic,Crazy Bear Lake,46.3171768,-89.27953279
MI,26053,Gogebic,Crooked Lake,46.23105704,-89.28476365
MI,26053,Gogebic,Croziers Lake,46.30033321,-89.12295838
MI,26053,Gogebic,Crystal Lake,46.15674531,-89.17803269
MI,26053,Gogebic,Cub Lake,46.18253509,-89.26945914
MI,26053,Gogebic,Cup Lake,46.38057655,-89.4937759
MI,26053,Gogebic,Cutters Pond,46.26417861,-89.20384497
MI,26053,Gogebic,Cyrus Lake,46.24698186,-89.64422339
MI,26053,Gogebic,Daisy Lake,46.21624783,-89.36724585
MI,26053,Gogebic,Damon Lake,46.26829011,-89.37667494
MI,26053,Gogebic,Davis Lake,46.170869,-89.22206693
MI,26053,Gogebic,Dawn Lake,46.25563176,-89.60653027
MI,26053,Gogebic,Deer Island Lake,46.19626567,-89.26900969
MI,26053,Gogebic,Deeryard Lake,46.2666466,-89.44130322
MI,26053,Gogebic,Dellies Lake,46.24240583,-89.14410739
MI,26053,Gogebic,Devils Head Lake,46.21531378,-89.24218773
MI,26053,Gogebic,Dinner Lake,46.1999831,-89.13470427
MI,26053,Gogebic,Dorothy Lake,46.2237336,-89.34530171
MI,26053,Gogebic,Downy Lake,46.26255059,-89.66348375
MI,26053,Gogebic,Doyle Lake,46.25353142,-89.28716707
MI,26053,Gogebic,Dream Lake,46.20617868,-89.37549756
MI,26053,Gogebic,Drone Lake,46.16977349,-89.22949155
MI,26053,Gogebic,Duck Lake,46.20415365,-89.21819323
MI,26053,Gogebic,Dumbbell Lake,46.23121187,-89.46357861
MI,26053,Gogebic,Dutch Lake,46.21317279,-89.46026866
MI,26053,Gogebic,Dwarf Lake,46.16364841,-89.14096552
MI,26053,Gogebic,Eagle Lake,46.15580464,-89.13892893
MI,26053,Gogebic,East Bay Lake,46.20300597,-89.4014161
MI,26053,Gogebic,East Bear Lake,46.24191445,-89.25156549
MI,26053,Gogebic,Eel Lake,46.29622357,-89.76163851
MI,26053,Gogebic,Elbow Lake,46.35166553,-89.78181599
MI,26053,Gogebic,Elsie Lake,46.22409146,-89.34147855
MI,26053,Gogebic,Emeline Lake,46.24011787,-89.48040489
MI,26053,Gogebic,Englesby Lake,46.27480508,-88.99654269
MI,26053,Gogebic,Feather Lake,46.31818124,-89.76976068
MI,26053,Gogebic,Finger Lake,46.1190882,-89.00301425
MI,26053,Gogebic,Finn Pond,46.30988115,-89.64582114
MI,26053,Gogebic,Fisher Lake,46.19089023,-89.30372469
MI,26053,Gogebic,Fishhawk Lake,46.2164585,-89.41499617
MI,26053,Gogebic,Fleury Lake,46.23321514,-89.15089735
MI,26053,Gogebic,Flicker Lake,46.26221283,-89.66748408
MI,26053,Gogebic,Florence Lake,46.1882247,-89.29333561
MI,26053,Gogebic,Foggy Lake,46.25350797,-89.48645877
MI,26053,Gogebic,Foxpaw Lake,46.30967422,-89.81080857
MI,26053,Gogebic,Gallagher Lake,46.28217673,-89.10726181
MI,26053,Gogebic,Gaylord Lake,46.27775712,-89.68380902
MI,26053,Gogebic,Germain Lake,46.21315263,-89.26558793
MI,26053,Gogebic,Glen Lake,46.30866269,-89.77425679
MI,26053,Gogebic,Glimmerglass Lake,46.21565413,-89.32057234
MI,26053,Gogebic,Grace Lake,46.24715929,-89.46381743
MI,26053,Gogebic,Grass Lake,46.17461443,-89.12645126
MI,26053,Gogebic,Gray Lake,46.22233851,-89.4498877
MI,26053,Gogebic,Gudegast Lake,46.16881553,-89.1574792
MI,26053,Gogebic,Guides Lake,46.23879684,-89.46134012
MI,26053,Gogebic,Hartley Lake,46.32409326,-89.39219494
MI,26053,Gogebic,Hattie Lake,46.25618131,-89.37012897
MI,26053,Gogebic,Hawk Lake,46.31950434,-89.73842476
MI,26053,Gogebic,Hay Lake,46.21406814,-89.33121087
MI,26053,Gogebic,Heart Lake,46.35453158,-89.74561723
MI,26053,Gogebic,Helen Lake,46.24490675,-89.34104841
MI,26053,Gogebic,Henry Lake,46.32798484,-89.78844169
MI,26053,Gogebic,Heron Lake,46.32523968,-89.77806212
MI,26053,Gogebic,Hidden Lake,46.31293106,-89.26652905
MI,26053,Gogebic,High Lake,46.2384743,-89.27745553
MI,26053,Gogebic,Hilltop Lake,46.24021293,-89.23258912
MI,26053,Gogebic,Hogala Lake,46.16460635,-89.15816312
MI,26053,Gogebic,Hoist Lake,46.18401598,-89.15816281
MI,26053,Gogebic,Holly Lake,46.2642413,-89.6111891
MI,26053,Gogebic,Honey Lake,46.17327326,-89.24274563
MI,26053,Gogebic,Honeysuckle Lake,46.27111579,-89.7242881
MI,26053,Gogebic,Honk Lake,46.25601563,-89.55617635
MI,26053,Gogebic,Hook Lake,46.29745821,-89.87985131
MI,26053,Gogebic,Horseshoe Lake,46.25408099,-89.06666974
MI,26053,Gogebic,Hummingbird Lake,46.24365576,-89.50590003
MI,26053,Gogebic,Image Lake,46.2597395,-89.68880498
MI,26053,Gogebic,Imp Lake,46.21673282,-89.07625021
MI,26053,Gogebic,Indian Lake,46.209664,-89.38623188
MI,26053,Gogebic,Inkpot Lake,46.22879633,-89.50632078
MI,26053,Gogebic,Ishkote Lake,46.12319698,-88.99180832
MI,26053,Gogebic,Jack Lake,46.27567168,-89.65846311
MI,26053,Gogebic,Jacksnipe Lake,46.327277,-89.71045127
MI,26053,Gogebic,Jane Lake,46.2188987,-89.44176838
