st2,GEOID,NAME,lakename,lat,lon
WI,55001,Adams,17 Reservoir,43.89675026,-89.88543107
WI,55001,Adams,18 Reservoir,44.20875632,-89.73398799
WI,55001,Adams,50 Reservoir,43.99241924,-89.83242761
WI,55001,Adams,Altoona Lake 830,44.20429929,-89.7947007
WI,55001,Adams,Amey Pond,43.6471792,-89.61571422
WI,55001,Adams,Arkdale Lake,44.03062202,-89.88151996
WI,55001,Adams,Big Roche a Cri Lake,44.05817463,-89.81554259
WI,55001,Adams,Crooked Lake,43.77048485,-89.60757569
WI,55001,Adams,Deep Lake,43.78120656,-89.64543668
WI,55001,Adams,Dorro Couche Lake,44.17004269,-89.79456175
WI,55001,Adams,Easton Lake,43.84087974,-89.79620842
WI,55001,Adams,Fawn Lake,43.72388229,-89.81409419
WI,55001,Adams,Fenner Lake,43.86385673,-89.59829231
WI,55001,Adams,Friendship Lake,43.98021599,-89.8032701
WI,55001,Adams,Goose Lake,43.79776058,-89.63666762
WI,55001,Adams,Hill Lake,43.78839167,-89.61150361
WI,55001,Adams,Jordan Lake,43.74314865,-89.64717785
WI,55001,Adams,Lake Arrowhead,44.20969585,-89.84142572
WI,55001,Adams,Lake Petenwell Backwater,44.2036723662082,-89.8888640281166
WI,55001,Adams,Little Lake,43.81231168,-89.70828321
WI,55001,Adams,Mason Lake,43.65779484,-89.60794601
WI,55001,Adams,McDougall Lake,43.78897755,-89.6313062
WI,55001,Adams,McGinnis Lake,43.84236014,-89.6457456
WI,55001,Adams,Parker Lake,43.77534241,-89.63501364
WI,55001,Adams,Patrick Lake,43.88618009,-89.65884329
WI,55001,Adams,Peppermill Lake,43.78753153,-89.64893194
WI,55001,Adams,Petenwell Lake,44.13697588,-89.96383099
WI,55001,Adams,Rollers Lake,43.88690623,-89.60727486
WI,55001,Adams,Silver Lake,43.89188232,-89.90661804
WI,55001,Adams,Twin Lakes,44.20425052,-89.88539324
WI,55001,Adams,Wolf Lake,43.79552237,-89.62234181
WI,55003,Ashland,0.2 Reservoir,46.33304932,-90.78484454
WI,55003,Ashland,0.23 Reservoir,46.33290575,-90.76975795
WI,55003,Ashland,Alex Pond,46.59665583,-90.6848165
WI,55003,Ashland,Augustine Lake,46.17931861,-90.46079965
WI,55003,Ashland,Bad River Slough,46.62677902,-90.64111003
WI,55003,Ashland,Bass Lake,46.36222567,-90.7865531
WI,55003,Ashland,Bear Lake,45.99012653,-90.80517674
WI,55003,Ashland,Beaverdam Lake,46.31979501,-90.81682465
WI,55003,Ashland,Beaverdam Lake 36,46.33081581,-90.80301487
WI,55003,Ashland,Big Bay Lagoon,46.6524366,-90.71945269
WI,55003,Ashland,Blueberry Lake,46.01770726,-90.379801
WI,55003,Ashland,Bog Lake,46.85169038,-90.58752495
WI,55003,Ashland,Bullhead Lake,46.05055286,-90.57993863
WI,55003,Ashland,Cammerer Lake,46.16794738,-90.44380206
WI,55003,Ashland,Camp Four Lake,46.05309787,-90.60720019
WI,55003,Ashland,Caroline Lake,46.27235476,-90.55473507
WI,55003,Ashland,Conley Lake,46.27255015,-90.70470961
WI,55003,Ashland,Cranberry Lake,46.16295193,-90.88244187
WI,55003,Ashland,Cub Lake,45.98431793,-90.81786334
WI,55003,Ashland,Cycle Lake,46.08666065,-90.43188688
WI,55003,Ashland,Day Lake,46.18740853,-90.90637787
WI,55003,Ashland,Dead Horse Slough,46.15777043,-90.86025365
WI,55003,Ashland,Ditmans Lake,46.219143438497,-90.539632744874
WI,55003,Ashland,Dollar Lake,46.27702916,-90.60523247
WI,55003,Ashland,Dry Lake,46.22240761,-90.57449969
WI,55003,Ashland,East Twin Lake,46.18975907,-90.8570446
WI,55003,Ashland,Elm Hoist Wildlife Pond 0.5,46.49428328,-90.70825375
WI,55003,Ashland,English Lake,46.31286435,-90.76822429
WI,55003,Ashland,Eureka Lake,46.28893924,-90.57921945
WI,55003,Ashland,Gates Lake,46.09934884,-90.69147097
WI,55003,Ashland,Gilbert Lake,46.29921798,-90.85811257
WI,55003,Ashland,Gordon Lake,46.16795142,-90.61820636
WI,55003,Ashland,Hoffman Lake,45.99708767,-90.3287947
WI,55003,Ashland,John Frank Lake,46.31005187,-90.80124093
WI,55003,Ashland,Knab Lake,46.20196869,-90.595498
WI,55003,Ashland,Lake Galilee,46.28428562,-90.59318214
WI,55003,Ashland,Lake Three,46.31946646,-90.85105731
WI,55003,Ashland,Lindbergh Lake,46.0564263,-90.42180827
WI,55003,Ashland,Little Butternut Lake,46.07402855,-90.43130917
WI,55003,Ashland,Loon Lake,46.35015801,-90.64630591
WI,55003,Ashland,Lost Lake,46.51643724,-90.70883883
WI,55003,Ashland,Luebke Lake,46.05918207,-90.41197267
WI,55003,Ashland,McCarthy Lake,46.21969386,-90.80011768
WI,55003,Ashland,McKaskel Lake,46.0619897,-90.37350469
WI,55003,Ashland,McLaren Lake,46.1409315,-90.92123554
WI,55003,Ashland,Meder Lake,46.27576987,-90.64586064
WI,55003,Ashland,Meyer Lake,46.13494569,-90.53287062
WI,55003,Ashland,Mineral Lake,46.29430712,-90.82844387
WI,55003,Ashland,Moonshine Lake,46.46527305,-90.7517522
WI,55003,Ashland,Moquah Lake,46.25103921,-90.86273051
WI,55003,Ashland,Mud Lake,46.1989744,-90.88386919
WI,55003,Ashland,Murphy Lake,46.36231129,-90.65086237
WI,55003,Ashland,Muskellunge Lake,46.12104027,-90.68074383
WI,55003,Ashland,Parker Lake,46.01377513,-90.48232783
WI,55003,Ashland,Pelican Lake,46.06371377,-90.69224348
WI,55003,Ashland,Pictured Rock Lake,46.56324793,-90.68734604
WI,55003,Ashland,Pole Lake,46.14370156,-90.9083763
WI,55003,Ashland,Potter Lake,46.29760035,-90.80305579
WI,55003,Ashland,Seagels Lake,46.13457591,-90.63161536
WI,55003,Ashland,Seitz Lake,46.31393393,-90.87515791
WI,55003,Ashland,Slim Lake,46.03355584,-90.57776385
WI,55003,Ashland,Snoose Lake,45.98541885,-90.90655982
WI,55003,Ashland,Snowshoe Lake,46.27289686,-90.61665903
WI,55003,Ashland,Spillerberg Lake,46.19760957,-90.67404306
WI,55003,Ashland,Sugarbush Lake,46.54772309,-90.69653529
WI,55003,Ashland,Summit Lake,46.19419837,-90.59744615
WI,55003,Ashland,Tea Lake,46.29301652,-90.91004797
WI,55003,Ashland,Torrey Lake,46.15669435,-90.63146545
WI,55003,Ashland,Twin Lakes,46.28110601,-90.56926215
WI,55003,Ashland,Upper Clam Lake,46.15704641,-90.90689016
WI,55003,Ashland,West Twin Lake,46.1900264,-90.86688968
WI,55003,Ashland,White River Flowage,46.49633415,-90.91297809
WI,55003,Ashland,Wolf Lake,46.20009963,-90.54274811
WI,55003,Ashland,Wolfs Pond,46.55056176,-90.69971862
WI,55003,Ashland,Woodtick Lake,46.17555518,-90.86351794
WI,55003,Ashland,Zielke Lake,46.17680259,-90.61859589
WI,55005,Barron,0.3 Reservoir,45.21692931,-91.64728895
WI,55005,Barron,Anderson Lake,45.60331397,-91.92648974
WI,55005,Barron,Bailey Lake,45.31745681,-91.67324046
WI,55005,Barron,Barron Flowage Number One,45.40476063,-91.84141937
WI,55005,Barron,Barron Flowage Number Three,45.41295801,-91.86719264
WI,55005,Barron,Barron Flowage Number Three 109,45.41204618,-91.86402801
WI,55005,Barron,Bear Lake,45.63033884,-91.82209819
WI,55005,Barron,Bear Lake 60,45.61264976,-91.77729627
WI,55005,Barron,Beauty Lake,45.61489848,-92.06203314
WI,55005,Barron,Beaver Dam Lake,45.55445155,-92.04629148
WI,55005,Barron,Beaver Dam Lake 12,45.5284032,-92.01579389
WI,55005,Barron,Big Dummy Lake,45.57209362,-91.98369162
WI,55005,Barron,Big Moon Lake,45.34309435,-92.1192151
WI,55005,Barron,Blueberry Lake,45.53433605,-92.12944514
WI,55005,Barron,Bowman Lake,45.53286402,-91.93075936
WI,55005,Barron,Buck Lake,45.56171815,-91.97054496
WI,55005,Barron,Bullhead Lake,45.55690841,-92.09807417
WI,55005,Barron,Butternut Lake,45.63052602,-91.90451939
WI,55005,Barron,Cameron Flowage 5,45.41682805,-91.75645425
WI,55005,Barron,Chain Lake,45.61373229,-91.64367135
WI,55005,Barron,Chain Lakes,45.58718314,-91.93813716
WI,55005,Barron,Chetek Flowage 135,45.33796505,-91.65365728
WI,55005,Barron,Collingwood Lake,45.52699849,-92.02142102
WI,55005,Barron,Coudray Lake,45.37785256,-91.56345084
WI,55005,Barron,Cranberry Lake,45.55931542,-92.08082025
WI,55005,Barron,Crystal Bay Lake,45.42754639,-91.93791287
WI,55005,Barron,Crystal Lake,45.4829392,-92.10150804
WI,55005,Barron,Dallas Flowage,45.26197071,-91.82007492
WI,55005,Barron,Deep Lake,45.63934228,-91.97972007
WI,55005,Barron,Deer Lake,45.62695467,-91.96442238
WI,55005,Barron,Dietz Lakes,45.44960913,-91.70252585
WI,55005,Barron,Duck Lake,45.55848396,-91.99252503
WI,55005,Barron,Echo Lake,45.44593383,-92.12969658
WI,55005,Barron,Elbow Lake,45.40297432,-92.14411661
WI,55005,Barron,Firetag Lake,45.52232595,-91.89285392
WI,55005,Barron,Fish Lake,45.56053298,-91.8516872
WI,55005,Barron,Gates Lake,45.49554543,-92.07665382
WI,55005,Barron,Ginder Lake,45.52482502,-91.80920473
WI,55005,Barron,Goose Lake,45.59851303,-91.65030444
WI,55005,Barron,Granite Lake,45.5799483,-92.00685318
WI,55005,Barron,Greeley Lake,45.59779143,-91.99488683
WI,55005,Barron,Hillman Lake,45.40664693,-92.13408694
WI,55005,Barron,Hogback Lake,45.62319226,-91.93042252
WI,55005,Barron,Horseshoe Lake,45.62611941,-92.08710819
WI,55005,Barron,Jacobson Lake,45.32943887,-91.59401393
WI,55005,Barron,Johnnys Lake,45.55386544,-91.95517619
WI,55005,Barron,Kelleys Lake,45.61583523,-92.14747091
WI,55005,Barron,Kelly Lake,45.61106002,-91.8980492
WI,55005,Barron,Kidney Lake,45.57835545,-92.07971868
WI,55005,Barron,Lake 11 2 0.3,45.36359072,-91.56758273
WI,55005,Barron,Lake Chetek,45.31595526,-91.62910469
WI,55005,Barron,Lake Desair,45.54447376,-91.77849294
WI,55005,Barron,Lake Helena,45.6147566234497,-91.8348207221646
WI,55005,Barron,Lake Montanis,45.47704663,-91.70542459
WI,55005,Barron,Lake of the Woods,45.53141026,-92.15274176
WI,55005,Barron,Lake Thirty,45.58080421,-91.90126199
WI,55005,Barron,Library Lake,45.53365908,-92.02451311
WI,55005,Barron,Little Bass Lake,45.58610234,-92.0926909
WI,55005,Barron,Little Butternut Lake,45.61968986,-91.90815715
WI,55005,Barron,Little Dummy Lake,45.57846284,-91.98819272
WI,55005,Barron,Little Granite Lake,45.57277661,-91.99797743
WI,55005,Barron,Little Lake,45.39788507,-91.86679347
WI,55005,Barron,Little Moon Lake,45.34096762,-92.15264449
WI,55005,Barron,Little Sand Lake,45.56979368,-92.09134487
WI,55005,Barron,Little Sand Lake 2,45.57676359,-92.08945653
WI,55005,Barron,Little Silver Lake,45.58629118,-91.93135566
WI,55005,Barron,Loch Lonond Lake,45.5827041880945,-91.5733348659613
WI,55005,Barron,Loon Lake,45.46946205,-92.12892315
WI,55005,Barron,Lower Devils Lake,45.62626059,-91.76108952
WI,55005,Barron,Lower Spirit Lake,45.56067489,-92.07273853
WI,55005,Barron,Lower Turtle Lake,45.38868745,-92.07629263
WI,55005,Barron,Lower Vermillion Lake,45.5127674,-91.96125177
WI,55005,Barron,Lower Waterman Lake,45.62343036,-92.12238669
WI,55005,Barron,Minnow Lake,45.55885868,-91.58807503
WI,55005,Barron,Mitchell Lake,45.61928798,-91.83807822
WI,55005,Barron,Moon Lake,45.471972,-91.72078784
WI,55005,Barron,Moose Ear Lake,45.3290443,-91.57533716
WI,55005,Barron,Musket Lake,45.36523158,-92.04844717
WI,55005,Barron,North Lake,45.52929721,-92.10356384
WI,55005,Barron,Old Mill Pond,45.39423162,-92.13790212
WI,55005,Barron,Pea Viner Lake,45.55577994,-91.94858265
WI,55005,Barron,Peterson Lake,45.5199839,-91.93485055
WI,55005,Barron,Pickerel Lake,45.63003392,-91.60006168
WI,55005,Barron,Prairie Farm Flowage,45.24284595,-91.98161086
WI,55005,Barron,Prairie Lake,45.35854593,-91.68290124
WI,55005,Barron,Red Cedar Lake,45.60230683,-91.58287744
WI,55005,Barron,Redman Lake,45.5410533,-91.97905643
WI,55005,Barron,Rice Lake 230,45.50718989,-91.7247424
WI,55005,Barron,Robinson Lake,45.5813355,-91.9336348
WI,55005,Barron,Sand Lake,45.59043214,-92.10804647
WI,55005,Barron,Scott Lake,45.51863733,-92.11014126
WI,55005,Barron,Silver Lake,45.58378801,-91.92120813
WI,55005,Barron,Skinaway Lake,45.40225989,-92.15559081
WI,55005,Barron,Spider Lake,45.62833929,-91.92786086
WI,55005,Barron,Spring Lake,45.58079488,-92.03996457
WI,55005,Barron,Staples Lake,45.49760902,-92.15092622
WI,55005,Barron,Stump Lake,45.53831301,-91.73697851
WI,55005,Barron,Sweeney Pond 6,45.39204581,-91.94925489
WI,55005,Barron,Sylvan Lake,45.60941714,-91.95194221
WI,55005,Barron,Tenmile Lake,45.30067739,-91.61740418
WI,55005,Barron,The Narrows,45.33714801,-91.63180124
WI,55005,Barron,Thompson Lake,45.5534418,-91.94363938
WI,55005,Barron,Tuscobia Lake,45.55511172,-91.74455452
WI,55005,Barron,Twin Lake,45.6075874032607,-91.6395136915309
WI,55005,Barron,Upper Devils Lake,45.63525694,-91.76768364
WI,55005,Barron,Upper Turtle Lake,45.42262116,-92.09853953
WI,55005,Barron,Upper Vermillion Lake,45.52201174,-91.95049891
WI,55005,Barron,Upper Waterman Lake,45.62999536,-92.12236418
WI,55005,Barron,Wickerts Lake,45.52497754,-92.09928799
WI,55005,Barron,Wildcat Lake,45.57282407,-92.03146509
WI,55007,Bayfield,Adeline Lake,46.30260607,-91.16652098
WI,55007,Bayfield,Ahmeek Lake,46.52284073,-91.46625544
WI,55007,Bayfield,Anderson Lake,46.40370351,-91.31713036
WI,55007,Bayfield,Angus Lake,46.57051414,-91.35684287
WI,55007,Bayfield,Anodanta Lake,46.38194102,-91.23085242
WI,55007,Bayfield,Armstrong Lake,46.37128892,-91.28103215
WI,55007,Bayfield,Arrowhead Lake,46.37519322,-91.24065749
WI,55007,Bayfield,Atkins Lake,46.27819329,-91.0363944
WI,55007,Bayfield,Bailey Lake,46.6163925,-91.34347935
WI,55007,Bayfield,Balsam Pond,46.36576058,-91.29960187
WI,55007,Bayfield,Bark Bay Slough,46.8496212224947,-91.1971870683566
WI,55007,Bayfield,Barnes Lake,46.28141336,-91.4410685
WI,55007,Bayfield,Basswood Lake,46.46634766,-91.31888982
WI,55007,Bayfield,Bear Lake,46.49143536,-91.30377978
WI,55007,Bayfield,Bear Pond,46.41208353,-91.31775618
WI,55007,Bayfield,Beaver Lake,46.41851362,-91.27019837
WI,55007,Bayfield,Bell Lake,46.47880908,-91.31797308
WI,55007,Bayfield,Bellevue Lake,46.43435556,-91.27679791
WI,55007,Bayfield,Big Brook Lake,46.25798574,-91.37928056
WI,55007,Bayfield,Bismarck Lake,46.53347054,-91.41348543
WI,55007,Bayfield,Bladder Lake,46.59642492,-91.30213793
WI,55007,Bayfield,Blue Lake,46.40173626,-91.53353089
WI,55007,Bayfield,Boggy Pond,46.39437414,-91.21219231
WI,55007,Bayfield,Bony Lake,46.31759247,-91.50718696
WI,55007,Bayfield,Boris Lake,46.51187502,-91.21951637
WI,55007,Bayfield,Breakfast Lake,46.38852108,-91.53769502
WI,55007,Bayfield,Broadax Lake,46.41564393,-91.25320378
WI,55007,Bayfield,Buck Lake,46.53960899,-91.2921635
WI,55007,Bayfield,Buffalo Lake,46.16417221,-90.95326764
WI,55007,Bayfield,Bufo Lake,46.40555369,-91.29895578
WI,55007,Bayfield,Bullhead Lake,46.26332615,-91.03117484
WI,55007,Bayfield,Buskey Bay,46.52785513,-91.37493756
WI,55007,Bayfield,Cabin Lake,46.66022784,-91.1525419
WI,55007,Bayfield,Camp Lake,46.27615018,-91.38717953
WI,55007,Bayfield,Camp Nine Lake,46.39504172,-91.40470362
WI,55007,Bayfield,Camp One Lake,46.50072827,-91.26146988
WI,55007,Bayfield,Canthook Lake,46.47224942,-91.35598181
WI,55007,Bayfield,Carroll Lake,46.53985402,-91.52169593
WI,55007,Bayfield,Carson Pond,46.47058812,-91.27222519
WI,55007,Bayfield,Cat Lake,46.52038973,-91.37807843
WI,55007,Bayfield,Chelonia Lake,46.40677266,-91.27804139
WI,55007,Bayfield,Chippewa Lake,46.19964892,-90.98384453
WI,55007,Bayfield,Cisco Lake,46.36285117,-91.25163587
WI,55007,Bayfield,Claire Lake,46.40501422,-91.39823707
WI,55007,Bayfield,Clay Lake,46.39859943,-91.27509906
WI,55007,Bayfield,Club Lake,46.28823131,-91.05603969
WI,55007,Bayfield,Coburn Lake,46.27898928,-91.16248498
WI,55007,Bayfield,Coffee Lake,46.28218989,-90.94000123
WI,55007,Bayfield,Connor Lake,46.2946633,-91.4476914
WI,55007,Bayfield,Crane Lake,46.29151523,-91.23933711
WI,55007,Bayfield,Crooked Lake,46.52012557,-91.32488902
WI,55007,Bayfield,Deer Lake,46.35370959,-91.10719749
WI,55007,Bayfield,Deer Lick Lake,46.32091669,-91.15460691
WI,55007,Bayfield,Dells Lake,46.17968543,-90.98619612
WI,55007,Bayfield,Devils Lake,46.29268869,-91.4958771
WI,55007,Bayfield,Diamond Lake,46.26266201,-91.14530909
WI,55007,Bayfield,Drummond Lake,46.34392474,-91.26113791
WI,55007,Bayfield,Dry Well Lake,46.38982526,-91.30046372
WI,55007,Bayfield,Ducetts Lakes,46.40412022,-91.49381765
WI,55007,Bayfield,Eagle Lake,46.49877675,-91.35720182
WI,55007,Bayfield,East Davis Lake,46.30266426,-91.08958073
WI,55007,Bayfield,East Eightmile Lake,46.41850126,-91.46098982
WI,55007,Bayfield,Egg Lake,46.35051907,-91.26376012
WI,55007,Bayfield,Ellison Lake,46.35829392,-91.54878859
WI,55007,Bayfield,Emerson Lake,46.1678381,-91.14911247
WI,55007,Bayfield,Erick Lake,46.51466581,-91.49012915
WI,55007,Bayfield,Esox Lake,46.36960655,-91.25360188
WI,55007,Bayfield,Everett Lake,46.47012446,-91.29374039
WI,55007,Bayfield,Finger Lake,46.51140087,-91.26886862
WI,55007,Bayfield,Fire Lake,46.5778026,-91.39341505
WI,55007,Bayfield,Five Island Lake,46.51282094,-91.348561
WI,55007,Bayfield,Flakefjord Lake,46.40350437,-91.28010333
WI,55007,Bayfield,Frels Lake,46.16466242,-91.16274374
WI,55007,Bayfield,Friedbauer Lake,46.27025907,-91.09751288
WI,55007,Bayfield,Frog Lake,46.4436541,-91.31775171
WI,55007,Bayfield,Fuller Lake,46.1676794733831,-91.3826867329308
WI,55007,Bayfield,George Lake,46.37679134,-91.54018335
WI,55007,Bayfield,Getsey Lake,46.49768122,-91.29174874
WI,55007,Bayfield,Ghost Lake,46.18494324,-91.0161325
WI,55007,Bayfield,Grass Lake,46.32274191,-91.24637678
WI,55007,Bayfield,Half Moon Lake,46.55933409,-91.39741586
WI,55007,Bayfield,Hammil Lake,46.26179702,-91.30336616
WI,55007,Bayfield,Happles Lake,46.47992766,-91.36871577
WI,55007,Bayfield,Hart Lake,46.51853155,-91.3618924
WI,55007,Bayfield,Heart Lake,46.4867029,-91.28349224
WI,55007,Bayfield,Henderson Lake,46.33715044,-91.49840811
WI,55007,Bayfield,Henry Lake,46.23848007,-91.31534861
WI,55007,Bayfield,Hicks Lake,46.5701812,-91.34116306
WI,55007,Bayfield,Hidden Lake,46.18866621,-91.14713964
WI,55007,Bayfield,Hildebrand Lake,46.1628513,-91.16691588
WI,55007,Bayfield,Hildur Lake,46.49497799,-91.3376695
WI,55007,Bayfield,Hobbs Lake,46.58185685,-91.35940927
WI,55007,Bayfield,Hoist Lake,46.66711453,-91.21598918
WI,55007,Bayfield,Hollibar Lake,46.46092828,-91.26630531
WI,55007,Bayfield,Holmes Lake,46.28796698,-91.08603469
WI,55007,Bayfield,Honey Lake,46.54783971,-91.28903521
WI,55007,Bayfield,Horseshoe Lake,46.64245632,-91.17907774
WI,55007,Bayfield,Hostrawser Lake,46.54654786,-91.45558661
WI,55007,Bayfield,Idlewild Lake,46.32513197,-91.53531296
WI,55007,Bayfield,Inch Lake,46.4980834,-91.34654451
WI,55007,Bayfield,Indian Lake,46.3579616,-90.96095243
WI,55007,Bayfield,Iron Lake,46.53368359,-91.44218777
WI,55007,Bayfield,Iron River Flowage 8.37,46.56219604,-91.42813671
WI,55007,Bayfield,Jackman Lake,46.59503292,-91.3824467
WI,55007,Bayfield,Jesse Lake,46.5243564,-91.45652986
WI,55007,Bayfield,Jo Ann Lake,46.20316359,-91.23771095
WI,55007,Bayfield,Johnson Lake,46.58088344,-91.3331903
WI,55007,Bayfield,Jones Lake,46.54237013,-91.47187873
WI,55007,Bayfield,Jorgenson Lake,46.35982779,-91.30494261
WI,55007,Bayfield,Kelly Lake,46.35820286,-91.46053581
WI,55007,Bayfield,Kern Lake,46.43068957,-91.23870522
WI,55007,Bayfield,Lake Bullhead,46.48373836,-91.26805786
WI,55007,Bayfield,Lake Delta,46.47847906,-91.30030849
WI,55007,Bayfield,Lake Dinner Camp,46.27002206,-91.31990123
WI,55007,Bayfield,Lake Five,46.16714144,-90.98592946
WI,55007,Bayfield,Lake Half Moon,46.27588605,-91.30894958
WI,55007,Bayfield,Lake Holly,46.27051124,-91.30641293
WI,55007,Bayfield,Lake Horseshoe,46.27985324,-91.30150455
WI,55007,Bayfield,Lake Knotting,46.27396629,-91.11553222
WI,55007,Bayfield,Lake Lenawee,46.71261455,-91.24484574
WI,55007,Bayfield,Lake Lizzie,46.28852561,-91.10170803
WI,55007,Bayfield,Lake Louise,46.5730891,-91.10856917
WI,55007,Bayfield,Lake Millicent,46.52880703,-91.36775066
WI,55007,Bayfield,Lake Nokomis,46.52866738,-91.29122801
WI,55007,Bayfield,Lake Osborn,46.33243244,-91.11549144
WI,55007,Bayfield,Lake Owen,46.27426018,-91.23319614
WI,55007,Bayfield,Lake Ree,46.26940694,-91.12973461
WI,55007,Bayfield,Lake Ruth,46.50359476,-91.4240736
WI,55007,Bayfield,Lake Tahkodah,46.24386485,-91.22314061
WI,55007,Bayfield,Lake Two,46.45394619,-91.29799635
WI,55007,Bayfield,Lake Wilipyro,46.25086102,-91.30977217
WI,55007,Bayfield,Lamereau Lake,46.40628084,-91.42479356
WI,55007,Bayfield,Lee Lake,46.39733767,-91.31344245
WI,55007,Bayfield,Lemon Lake,46.47735658,-91.27781871
WI,55007,Bayfield,Lerche Lake,46.19780369,-91.34606422
WI,55007,Bayfield,Lester Lake,46.50061007,-91.30387856
WI,55007,Bayfield,Lindgren Lake,46.53146958,-91.50695985
WI,55007,Bayfield,Line Lake,46.41538885,-91.24802948
WI,55007,Bayfield,Little Bass Lake,46.22572111,-91.04663337
WI,55007,Bayfield,Little Hidden Lake,46.31447977,-91.18010657
WI,55007,Bayfield,Little Island Lake,46.3697545440907,-91.5043897052283
WI,55007,Bayfield,Little Rosa Lake,46.24326763,-91.30464898
WI,55007,Bayfield,Little Siskiwit Lake,46.80120264,-91.10810185
WI,55007,Bayfield,Little Star Lake,46.39652624,-91.21858518
WI,55007,Bayfield,Loon Lake,46.57050664,-91.31146004
WI,55007,Bayfield,Lost Lake,46.53475311,-91.3807937
WI,55007,Bayfield,Lower Eau Claire Lake,46.2732377,-91.55107389
WI,55007,Bayfield,Lund Lake,46.41261997,-91.26361108
WI,55007,Bayfield,Marengo Lake,46.33739365,-90.97942254
WI,55007,Bayfield,McCarry Lake,46.51735569,-91.37186452
WI,55007,Bayfield,McCloud Lake,46.15931507,-91.05115436
WI,55007,Bayfield,McGinnis Lake,46.61693519,-91.07493792
WI,55007,Bayfield,Middle Eau Claire Lake,46.29553564,-91.52140569
WI,55007,Bayfield,Mimi Lake,46.27739353,-91.5156536
WI,55007,Bayfield,Minor Lake,46.50771581,-91.40511769
WI,55007,Bayfield,Moon Lake,46.5546332,-91.40901747
WI,55007,Bayfield,Moose Lake,46.66848666,-91.15368365
WI,55007,Bayfield,Motyka Lake,46.24446044,-91.27912008
WI,55007,Bayfield,Mountain Lake,46.34599788,-91.3739545
WI,55007,Bayfield,Muck Lake,46.41335944,-91.27360705
WI,55007,Bayfield,Mud Flat Lake,46.48860814,-91.28942751
WI,55007,Bayfield,Mullenhoff Lake,46.53657236,-91.40182876
WI,55007,Bayfield,Muskellunge Lake,46.49791246,-91.37486123
WI,55007,Bayfield,Muskie Springs Lake,46.1673679,-90.96753172
WI,55007,Bayfield,Mystery Lake,46.49899185,-91.28479982
WI,55007,Bayfield,Namekagon Lake,46.22060735,-91.09527874
WI,55007,Bayfield,Nancy Lake,46.40586902,-91.41801358
WI,55007,Bayfield,Nelson Lake,46.37998844,-91.2839304
WI,55007,Bayfield,Nestle Lake,46.5076882,-91.37548087
WI,55007,Bayfield,Northeast Lake,46.27200598,-91.20597474
WI,55007,Bayfield,Nymphia Lake,46.38612596,-91.20867
WI,55007,Bayfield,Olson Lake,46.36110213,-91.02356478
WI,55007,Bayfield,Orienta Flowage 148,46.73973677,-91.47970825
WI,55007,Bayfield,Overby Lake,46.36801057,-91.24635317
WI,55007,Bayfield,Perry Lake,46.21592796,-91.26784846
WI,55007,Bayfield,Peterson Lake,46.55214533,-91.37927844
WI,55007,Bayfield,Phantom Lake,46.49197016,-91.29538204
WI,55007,Bayfield,Physa Lake,46.41463265,-91.28233239
WI,55007,Bayfield,Pickerel Lake,46.32738151,-91.51423398
WI,55007,Bayfield,Picture Lake,46.24784146,-91.28916862
WI,55007,Bayfield,Pigeon Lake,46.34227763,-91.34900615
WI,55007,Bayfield,Pike Lake,46.53636202,-91.37114245
WI,55007,Bayfield,Planorbis Lake,46.41094112,-91.27935596
WI,55007,Bayfield,Pond Lake,46.38445494,-91.32713432
WI,55007,Bayfield,Porcupine Lake,46.28680476,-91.1543882
WI,55007,Bayfield,Porter Lakes,46.21572959,-91.25268704
WI,55007,Bayfield,Pot Lake,46.35611112,-91.22081052
WI,55007,Bayfield,Pre-emption Creek Pond,46.31000986,-91.07667351
WI,55007,Bayfield,Price Lake,46.22349611,-91.27272627
WI,55007,Bayfield,Rainbow Lake,46.41984271,-91.31235399
WI,55007,Bayfield,Rana Lake,46.37114354,-91.2634334
WI,55007,Bayfield,Range Line Lake,46.16828486,-90.93030154
WI,55007,Bayfield,Reynard Lake,46.39288321,-91.28682354
WI,55007,Bayfield,Rib Lake,46.66855693,-91.2196358
WI,55007,Bayfield,Richardson Lake,46.53928131,-91.46377131
WI,55007,Bayfield,Robinson Lake,46.32716536,-91.49377962
WI,55007,Bayfield,Rock Lake,46.17653617,-91.14627129
WI,55007,Bayfield,Russell Lake,46.5385453,-91.48054278
WI,55007,Bayfield,Ryberg Lake,46.27632724,-91.19914876
WI,55007,Bayfield,Sage Lake,46.3238822,-91.15504038
WI,55007,Bayfield,Samoset Lake,46.25698116,-91.308218
WI,55007,Bayfield,Sand Bar Lake,46.36853731,-91.52893517
WI,55007,Bayfield,Sand Lake,46.46283114,-91.42371285
WI,55007,Bayfield,Sawdust Lake,46.57099192,-91.27238594
WI,55007,Bayfield,Sawmill Lake,46.48029934,-91.24653983
WI,55007,Bayfield,Siegal Lake,46.35906595,-91.11026653
WI,55007,Bayfield,Silver Lake,46.48339695,-91.37509301
WI,55007,Bayfield,Silver Sack Lake,46.6065852,-91.3282695
WI,55007,Bayfield,Simpson Lake,46.56467993,-91.45887183
WI,55007,Bayfield,Siskiwit Lake,46.79525394,-91.13320191
WI,55007,Bayfield,Smear Lake,46.24950448,-91.32162466
WI,55007,Bayfield,South Porter Lake,46.2120405680424,-91.2471651071989
WI,55007,Bayfield,Southwest Lake,46.24991197,-91.16712666
WI,55007,Bayfield,Spirit Lake,46.4754025,-91.31298943
WI,55007,Bayfield,Square Lake,46.44768246,-91.35417089
WI,55007,Bayfield,Star Lake,46.38972984,-91.22508739
WI,55007,Bayfield,Steckbaur Lake,46.58682581,-91.35234824
WI,55007,Bayfield,Steelhead Lake,46.4657712,-91.3494652
WI,55007,Bayfield,Stewart Lake,46.28906773,-91.29772825
WI,55007,Bayfield,Stratton Ponds,46.38587425,-91.28635045
WI,55007,Bayfield,Sugar Bush Lake,46.25552765,-91.20649606
WI,55007,Bayfield,Summit Lake,46.6176921,-91.16028598
WI,55007,Bayfield,Sunken Camp Lake,46.65938737,-91.17949323
WI,55007,Bayfield,Swede Lake,46.483259,-91.31221759
WI,55007,Bayfield,Sweet Lake,46.32982934,-91.44959379
WI,55007,Bayfield,Taylor Lake,46.26001478,-91.04728536
WI,55007,Bayfield,Teacup Lake,46.43040561,-91.26294728
WI,55007,Bayfield,Tomahawk Lake,46.3642055541742,-91.5205840144141
WI,55007,Bayfield,Toothpick Lake,46.50399196,-91.30093124
WI,55007,Bayfield,Topside Lake,46.5645209,-91.31085793
WI,55007,Bayfield,Totagatic Lake,46.16805233,-91.40309563
WI,55007,Bayfield,Tower Lake,46.43057405,-91.3134752
WI,55007,Bayfield,Trail Lake,46.1620682955946,-91.1743710215132
WI,55007,Bayfield,Trapper Lake,46.26224855,-91.09139226
WI,55007,Bayfield,Travers Lake,46.40179806,-91.42061289
WI,55007,Bayfield,Trout Lake,46.49110709,-91.37525169
WI,55007,Bayfield,Tub Lake,46.50321712,-91.27543547
WI,55007,Bayfield,Turtle Lake,46.37521468,-91.53031321
WI,55007,Bayfield,Twin Bear Lake,46.50583462,-91.36729172
WI,55007,Bayfield,Twin Lake,46.35546061,-91.44048813
WI,55007,Bayfield,Upper Eau Claire Lake,46.3106484,-91.47771455
WI,55007,Bayfield,Wabigon Lake,46.3847622,-91.30945434
WI,55007,Bayfield,Wanoka Lake,46.54519575,-91.28185439
WI,55007,Bayfield,Wentzel Lake,46.55838855,-91.31596925
WI,55007,Bayfield,West Davis Lake,46.30013122,-91.09793615
WI,55007,Bayfield,West Eightmile Lake,46.42308948,-91.47974908
WI,55007,Bayfield,White Bass Lake,46.17381295,-90.93738128
WI,55007,Bayfield,Wilderness Lake,46.40806904,-91.40872872
WI,55007,Bayfield,Wiley Lake,46.22714089,-91.30637778
WI,55007,Bayfield,Wishbone Lake,46.39063405,-91.27905864
WI,55007,Bayfield,Wolf Lake,46.49511581,-91.25496139
WI,55007,Bayfield,Wright Lake,46.51995075,-91.47857359
WI,55009,Brown,Ashwaubomay Lake,44.4652698953359,-88.0591358432796
WI,55009,Brown,Harbor Lights Lake,44.6257115102727,-88.0246675275361
WI,55009,Brown,Hidden Lake,44.6223151261999,-88.0942631691687
WI,55009,Brown,Lake Jessie,44.6151792070205,-88.0420654777964
WI,55009,Brown,Lake Largo,44.5222242528475,-87.9146222471916
WI,55009,Brown,Lilly Lake,44.42599989,-87.85273952
WI,55009,Brown,Middle Lake,44.42159819,-87.84994753
WI,55009,Brown,Third Lake,44.41878849,-87.8441796
WI,55011,Buffalo,0.24 Reservoir,44.34403059,-91.86643889
WI,55011,Buffalo,02 Reservoir,44.5003944988003,-91.7167861316324
WI,55011,Buffalo,1.3 Reservoir,44.33885531,-91.85861458
WI,55011,Buffalo,1.4 Reservoir,44.33391959,-91.86568706
WI,55011,Buffalo,1.5 Reservoir,44.34722404,-91.86000391
WI,55011,Buffalo,1.8 Reservoir,44.3789123262743,-91.9455452846832
WI,55011,Buffalo,3.9 Reservoir,44.33255303,-91.88602029
WI,55011,Buffalo,5.1 Reservoir,44.25986927,-91.82413876
WI,55011,Buffalo,Bensel Pond,44.19085583,-91.78559128
WI,55011,Buffalo,Duck Lake,44.49109583,-92.04413328
WI,55011,Buffalo,Lizzy Pauls Pond,44.26259835,-91.86546469
WI,55011,Buffalo,Mirror Lake,44.57260399,-91.66851561
WI,55011,Buffalo,Stump Lake,44.55547065,-92.02208564
WI,55011,Buffalo,Truedale Lake,44.39659305,-92.01157234
WI,55013,Burnett,0.4 Reservoir,45.74578251,-92.30207302
WI,55013,Burnett,2 Reservoir,46.12943601,-92.23394345
WI,55013,Burnett,Amsterdam Slough Flowage,45.83980018,-92.43468247
WI,55013,Burnett,Ann Lake,45.90949685,-92.26430597
WI,55013,Burnett,Austin Lake,45.88847798,-92.27165668
WI,55013,Burnett,Barren Spring No 1,46.0996231899475,-92.0932940961184
WI,55013,Burnett,Bartash Lake,45.94298145,-92.19839244
WI,55013,Burnett,Bashaw Lake,45.7744275,-92.14112011
WI,55013,Burnett,Behr Lake,45.93896886,-92.08317202
WI,55013,Burnett,Benach Lake,45.92770501,-92.25569258
WI,55013,Burnett,Benoit Lake,45.88893148,-92.08954353
WI,55013,Burnett,Berg Lake,46.01437302,-92.28286072
WI,55013,Burnett,Big Bear Lake,46.0169933,-92.15301925
WI,55013,Burnett,Big Doctor Lake,45.7943161,-92.39851452
WI,55013,Burnett,Big Sand Lake,45.82458499,-92.21950942
WI,55013,Burnett,Big Trade Lake,45.67040843,-92.61695666
WI,55013,Burnett,Birch Island Lake,45.94993913,-92.14710434
WI,55013,Burnett,Black Lake,45.72797467,-92.44550337
WI,55013,Burnett,Blomberg Lake,45.81171227,-92.46567973
WI,55013,Burnett,Bluff Lake,45.96276913,-92.48522805
WI,55013,Burnett,Bogey Lake,45.97080412,-92.18146625
WI,55013,Burnett,Boner Lake,45.94158139,-92.17451128
WI,55013,Burnett,Bradley Lake,46.10758724,-92.05184949
WI,55013,Burnett,Bricher Lake,45.96496971,-92.3432105
WI,55013,Burnett,Briggs Lake,46.00275608,-92.2631088
WI,55013,Burnett,Buffalo Lake,45.94631343,-92.3888741
WI,55013,Burnett,Burlingame Lake,46.01090143,-92.29756018
WI,55013,Burnett,Cadotte Lake,45.97280354,-92.17205733
WI,55013,Burnett,Canute Creek Flowage,45.70978452,-92.69246678
WI,55013,Burnett,Chase Lake,45.92681867,-92.46765884
WI,55013,Burnett,Clam Lake,45.79297876,-92.32535937
WI,55013,Burnett,Clam River Flowage,45.93147596,-92.52126314
WI,55013,Burnett,Clear Lake,45.76688448,-92.38459318
WI,55013,Burnett,Clubhouse Lake,45.93995713,-92.05753678
WI,55013,Burnett,Conners Lake,45.91131191,-92.30303894
WI,55013,Burnett,Coruick Lake,45.9477553,-92.19692208
WI,55013,Burnett,County Trunk O Flowage,45.68622081,-92.79494108
WI,55013,Burnett,Crescent Lake,45.94987259,-92.10278804
WI,55013,Burnett,Culbertson Lake,45.96806607,-92.21371672
WI,55013,Burnett,Dahlberg Lake,45.92798553,-92.27389032
WI,55013,Burnett,Danbury Flowage,45.9619634,-92.39761954
WI,55013,Burnett,Deep Lake,45.93768529,-92.06369125
WI,55013,Burnett,Deer Lake,46.04286318,-92.17631386
WI,55013,Burnett,Des Moines Lake,45.99660239,-92.13500508
WI,55013,Burnett,Devils Lake,45.90927922,-92.33776916
WI,55013,Burnett,Dike 1 Flowage,45.86073574,-92.60354438
WI,55013,Burnett,Dike 2 Flowage,45.86314203,-92.62858119
WI,55013,Burnett,Dike 4 Flowage,45.84212998,-92.65807752
WI,55013,Burnett,Dike 6 Flowage,45.84601539,-92.67438117
WI,55013,Burnett,Doctor Lake,45.78734394,-92.41652617
WI,55013,Burnett,Dogtown Lake,46.06377791,-92.15128807
WI,55013,Burnett,Dubois Lake,45.91030561,-92.07994011
WI,55013,Burnett,Duck Lake,45.9997715189428,-92.0831290035094
WI,55013,Burnett,Dueholm Flowage,45.69548124,-92.73186985
WI,55013,Burnett,Dunham Lake,45.75641452,-92.4719098
WI,55013,Burnett,Durand Lake,45.92452285,-92.0983981
WI,55013,Burnett,Echo Lake,45.92866397,-92.35954696
WI,55013,Burnett,Elbow Lake,45.73897204,-92.39983811
WI,55013,Burnett,Erickson Flowage,45.83201561,-92.67946024
WI,55013,Burnett,Falk Lake,45.97851965,-92.31851435
WI,55013,Burnett,Fawn Lake,46.0336235,-92.17965918
WI,55013,Burnett,Fenton Lake,46.03541114,-92.19703774
WI,55013,Burnett,Ferry Lake,46.0128667,-92.12524968
WI,55013,Burnett,Floyd Lake,46.02356269,-92.2259528
WI,55013,Burnett,Fremstadt Lake,45.94457415,-92.35640481
WI,55013,Burnett,Frog Lake,46.02603885,-92.08606106
WI,55013,Burnett,Fuhrman Lake,45.87962892,-92.64831674
WI,55013,Burnett,Gabrielson Lake,45.64656478,-92.61238115
WI,55013,Burnett,Gaslyn Lake,45.89990155,-92.11674503
WI,55013,Burnett,Glendenning Lake,45.80538884,-92.0421219
WI,55013,Burnett,Godfrey Lake,45.72966572,-92.34365434
WI,55013,Burnett,Goose Lake,45.97251099,-92.07143136
WI,55013,Burnett,Green Lake,45.91361876,-92.19451725
WI,55013,Burnett,Greenwood Lake,46.04929573,-92.15193996
WI,55013,Burnett,Gull Lake,45.98493532,-92.30243636
WI,55013,Burnett,Ham Lake,45.96615371,-92.26839977
WI,55013,Burnett,Hanscom Lake,45.97594569,-92.14368128
WI,55013,Burnett,Hay Creek Flowage,45.80379334,-92.67363377
WI,55013,Burnett,Hayden Lake,45.98182113,-92.35404919
WI,55013,Burnett,Holmes Lake,45.65828501,-92.64875016
WI,55013,Burnett,Horseshoe Lake,45.86217597,-92.27923016
WI,55013,Burnett,Hunters Lake,45.73506413,-92.49630188
WI,55013,Burnett,Indian Lake,45.75902067,-92.53100817
WI,55013,Burnett,Isaac Lake,45.71906315,-92.63708015
WI,55013,Burnett,Kapes Lake,45.77985011,-92.37557519
WI,55013,Burnett,Keizer Lake,45.9194550723056,-92.2722834831706
WI,55013,Burnett,Kent Lake,45.75784295,-92.24611397
WI,55013,Burnett,Kreiner Lake,45.96931348,-92.42242264
WI,55013,Burnett,Lake 36 16,45.89959173,-92.03333982
WI,55013,Burnett,Lake Thirty Two,45.64799337,-92.11283654
WI,55013,Burnett,Lang Lake,45.95406005,-92.22423822
WI,55013,Burnett,Larson Lake,45.79025609,-92.36981354
WI,55013,Burnett,Lind Lake,45.75027006,-92.43533924
WI,55013,Burnett,Lindy Lake,45.95407102,-92.0478186
WI,55013,Burnett,Lipsett Lake,45.87253563,-92.04923156
WI,55013,Burnett,Little Bear Lake,45.9894533,-92.16070357
WI,55013,Burnett,Little Deer Lake,45.73118381,-92.35557594
WI,55013,Burnett,Little Dunham Lake,45.74465727,-92.46888291
WI,55013,Burnett,Little Elbow Lake,45.7312295705179,-92.3871417151135
WI,55013,Burnett,Little Holmes Lake,45.65656747,-92.65838204
WI,55013,Burnett,Little Mallard Lake,45.89048492,-92.17405547
WI,55013,Burnett,Little McGraw Lake,46.11618849,-92.18023525
WI,55013,Burnett,Little Round Lake,46.01285417,-92.2256689
WI,55013,Burnett,Little Trade Lake,45.68023068,-92.60101986
WI,55013,Burnett,Little Wood Lake,45.74715141,-92.53722109
WI,55013,Burnett,Little Yellow Lake,45.92922251,-92.43077727
WI,55013,Burnett,Logging Creek Flowage 6,45.69113276,-92.74030876
WI,55013,Burnett,Lone Star Lake,45.93190376,-92.36534525
WI,55013,Burnett,Love Lake,45.97331301,-92.32893974
WI,55013,Burnett,Lower Clam Lake,45.82640679,-92.32187818
WI,55013,Burnett,Lower Twin Lake,45.90850866,-92.14478014
WI,55013,Burnett,Lucerne Lake,46.00102091,-92.11032348
WI,55013,Burnett,Mallard Lake,45.89953359,-92.17773614
WI,55013,Burnett,Mallard Slough,45.81923763,-92.28678657
WI,55013,Burnett,McElroy Lake,46.05206439,-92.14456473
WI,55013,Burnett,McGraw Lake,46.15319251,-92.1726828
WI,55013,Burnett,McKenzie Lake,45.9182922,-92.03854488
WI,55013,Burnett,Memory Lake 152,45.77999702,-92.68628422
WI,55013,Burnett,Middle McKenzie Lake,45.9431571,-92.0409692
WI,55013,Burnett,Minerva Lake,45.98805354,-92.32626829
WI,55013,Burnett,Mingo Lake,45.94596359,-92.34135764
WI,55013,Burnett,Miniature Lake,46.01554861,-92.10995811
WI,55013,Burnett,Minnow Lake,45.97055142,-92.30919541
WI,55013,Burnett,Mollete Lake,45.90353465,-92.2107928
WI,55013,Burnett,Money Lake,45.86651721,-92.29524451
WI,55013,Burnett,Monson Lake,45.89556458,-92.6004975
WI,55013,Burnett,Mud Hen Lake,45.7771216,-92.48150242
WI,55013,Burnett,Muskrat Lake,45.74193696,-92.54167844
WI,55013,Burnett,Myre Lake,45.95092118,-92.23724932
WI,55013,Burnett,Myrick Lake,46.02250895,-92.18236197
WI,55013,Burnett,Mystery Lake,45.96037038,-92.05418431
WI,55013,Burnett,Nicaboyne Lake,45.98646643,-92.08021546
WI,55013,Burnett,North Fork Flowage,45.8354158,-92.58974011
WI,55013,Burnett,North Lang Lake,45.98180438,-92.21648973
WI,55013,Burnett,North Twin Lake,45.77387944,-92.23013752
WI,55013,Burnett,Oak Lake,45.93383977,-92.12826703
WI,55013,Burnett,Our Lake,45.97438623,-92.30417869
WI,55013,Burnett,Owl Lake,45.81490782,-92.27397602
WI,55013,Burnett,Paulson Flowage,45.8500716087206,-92.531728638044
WI,55013,Burnett,Peacock Lake,45.69413761,-92.11953281
WI,55013,Burnett,Perch Lake,45.90366752,-92.06075159
WI,55013,Burnett,Phantom Lake,45.82357239,-92.64853392
WI,55013,Burnett,Phernetton Lake,45.94225409,-92.24076523
WI,55013,Burnett,Pickle Lake,45.6622741,-92.60497217
WI,55013,Burnett,Pike Lake,45.83094498,-92.29051297
WI,55013,Burnett,Places Lake,45.68674679,-92.1008681
WI,55013,Burnett,Point Lake,45.92130186,-92.24171227
WI,55013,Burnett,Pokegama Lake,45.77934681,-92.20130616
WI,55013,Burnett,Poquettes Lake,45.80964929,-92.07127837
WI,55013,Burnett,Pratt Lake,45.89816144,-92.19124069
WI,55013,Burnett,Prinel Lake,46.03110177,-92.08534247
WI,55013,Burnett,Put Lake,45.76613446,-92.31698172
WI,55013,Burnett,Rahn Lake,45.93703829,-92.46414627
WI,55013,Burnett,Reed Lake,45.89988644,-92.56972832
WI,55013,Burnett,Reisinger Lake,45.87586744,-92.62253194
WI,55013,Burnett,Richart Lake,46.11284537,-92.05884658
WI,55013,Burnett,Robie Lake,46.0176595,-92.29534969
WI,55013,Burnett,Rohr Lake,45.80445823,-92.24642492
WI,55013,Burnett,Rooney Lake,45.96094846,-92.07447156
WI,55013,Burnett,Saginaw Lake,46.06245735,-92.10351054
WI,55013,Burnett,Sandberg Flowage,45.83274559,-92.57156619
WI,55013,Burnett,Schaaf Lake,46.01773856,-92.21592387
WI,55013,Burnett,Shoal Lake,45.95761168,-92.1887581
WI,55013,Burnett,Smith Lake,45.89342165,-92.06626598
WI,55013,Burnett,South Refuge Flowage,45.84910401,-92.62245928
WI,55013,Burnett,South Twin Lake,45.76925085,-92.23043723
WI,55013,Burnett,Spencer Lake,45.73789925,-92.18494646
WI,55013,Burnett,Spirit Lake,45.71363499,-92.5513943
WI,55013,Burnett,Spring Lake,45.70515033,-92.03235926
WI,55013,Burnett,Staples Lake,46.0460412183787,-92.2746023988755
WI,55013,Burnett,Stone Lake,46.010079,-92.25907856
WI,55013,Burnett,Stulen Lake,46.05859768,-92.11592686
WI,55013,Burnett,Sunfish Lake,45.87029103,-92.27892515
WI,55013,Burnett,Tabor Lake,46.02837238,-92.281888
WI,55013,Burnett,Tamarack Lake,45.81446284,-92.29921188
WI,55013,Burnett,Tanda Lake,45.94660237,-92.27310357
WI,55013,Burnett,Taylor Lake,45.81185897,-92.28978185
WI,55013,Burnett,Temple Lake,45.86186844,-92.15877988
WI,55013,Burnett,Thatcher Lake,46.03507707,-92.16786389
WI,55013,Burnett,Tobe Lake,45.75266617,-92.70769547
WI,55013,Burnett,Tomoe Lake,45.91030234,-92.26895449
WI,55013,Burnett,Tucker Lake,45.83943592,-92.26785614
WI,55013,Burnett,Twentysix Lake,46.00690993,-92.21819101
WI,55013,Burnett,Upper Hay Creek Flowage,45.813143139366,-92.6688915464519
WI,55013,Burnett,Upper North Fork Flowage,45.86253254,-92.55219496
WI,55013,Burnett,Upper Phantom Flowage,45.83931015,-92.61725088
WI,55013,Burnett,Upper Twin Lake,45.92060687,-92.13535387
WI,55013,Burnett,Viola Lake,45.81780769,-92.25133617
WI,55013,Burnett,Ward Lake,45.75701298,-92.41848676
WI,55013,Burnett,Warner Lake,45.79842967,-92.22201587
WI,55013,Burnett,Webb Lake,46.03770992,-92.13453668
WI,55013,Burnett,Whiskey Creek Flowage,45.8034692,-92.65704063
WI,55013,Burnett,Wilson Lake,45.80547707,-92.49484017
WI,55013,Burnett,Windigo Lake,46.0470960250768,-92.1589191779299
WI,55013,Burnett,Wood Lake,45.74114664,-92.58198938
WI,55013,Burnett,Yellow Lake,45.91905343,-92.39856887
WI,55013,Burnett,Zalensky Pond,45.88274422,-92.6014158
WI,55015,Calumet,Becker Lake,44.1308869,-88.04771836
WI,55015,Calumet,Boot Lake,44.14646137,-88.04504796
WI,55015,Calumet,Butterfly Pond,44.1685628277647,-88.2921935750583
WI,55015,Calumet,Chilton Millpond 75,44.02561286,-88.16702977
WI,55015,Calumet,Grass Lake,44.1492705,-88.06123015
WI,55015,Calumet,Hayton Pond 104,44.02442596,-88.12138429
WI,55015,Calumet,Palisades Pond Lake,44.1742227447554,-88.2773118741092
WI,55015,Calumet,Round Lake,44.15278685,-88.04911032
WI,55015,Calumet,Schildhauer Pond,43.95251799,-88.06498525
WI,55017,Chippewa,Ace-In-The-Hole Lake,45.23082308,-91.40969996
WI,55017,Chippewa,Axhandle Lake,45.2778588,-91.48312254
WI,55017,Chippewa,Barr Lake,45.17412158,-91.31342518
WI,55017,Chippewa,Bass Lakes,45.1996205,-91.31692195
WI,55017,Chippewa,Big Buck Lake,45.16980386,-91.34592074
WI,55017,Chippewa,Black Lake,45.17566667,-91.30730246
WI,55017,Chippewa,Bob Lake,45.16402375,-91.32077319
WI,55017,Chippewa,Bog Lake,45.2720588,-91.34926752
WI,55017,Chippewa,Boiler Lake,45.22210894,-91.26213325
WI,55017,Chippewa,Boot Lake,45.09620566,-91.32948493
WI,55017,Chippewa,Bradley Lake,45.26555132,-91.34819759
WI,55017,Chippewa,Burnt Wagon Lake,45.18251603,-91.34397036
WI,55017,Chippewa,Cadott Flowage 351,44.95522287,-91.14200987
WI,55017,Chippewa,Cadotte Lake,45.2917216,-91.38958715
WI,55017,Chippewa,Calkins Lake,45.26827692,-91.44193571
WI,55017,Chippewa,Calkins North Lake,45.2324057,-91.38283528
WI,55017,Chippewa,Camp Lake,45.29099607,-91.33124445
WI,55017,Chippewa,Cather Lake,45.27891282,-91.47083121
WI,55017,Chippewa,Chapman Lake,44.9648417,-90.94366015
WI,55017,Chippewa,Cindy Lake,44.91345654,-91.32994591
WI,55017,Chippewa,Cornell Lake,45.11766356,-91.33794706
WI,55017,Chippewa,Dam Lake,45.22014556,-91.37447709
WI,55017,Chippewa,Deer Lake,45.20587045,-91.30222209
WI,55017,Chippewa,Dog Island Lake,45.20792693,-91.33077964
WI,55017,Chippewa,Dorothy Lake,45.2246002,-91.30183862
WI,55017,Chippewa,Dumke Lake,45.2189382,-91.35667514
WI,55017,Chippewa,Eagle Lake,45.17505328,-91.36975037
WI,55017,Chippewa,Evans Lake,45.17255417,-91.35300968
WI,55017,Chippewa,Evergreen Lake,45.17331465,-91.30564307
WI,55017,Chippewa,Finley Lake,45.10091594,-91.29191881
WI,55017,Chippewa,Firth Lake,45.20241916,-91.21324317
WI,55017,Chippewa,Fishpole Lake,45.19491072,-91.33857025
WI,55017,Chippewa,Foster Lake,45.25408409,-91.32998474
WI,55017,Chippewa,Fur Farm Lake,45.22991604,-91.37929803
WI,55017,Chippewa,Glen Lock Lake,44.96198993,-91.40006135
WI,55017,Chippewa,Granger Lake,45.27234743,-91.44190101
WI,55017,Chippewa,Hallie Golf  Course Pond,44.8820249862273,-91.4530158899723
WI,55017,Chippewa,Hallie Pond,44.8902308053738,-91.4462580803238
WI,55017,Chippewa,Hartnan Lake,45.1027531,-91.33874249
WI,55017,Chippewa,Harwood Lakes,45.22189258,-91.3283373
WI,55017,Chippewa,Hay Lake,45.19024881,-91.3297287
WI,55017,Chippewa,Hay Meadow Flowage,45.18082686,-91.32015551
WI,55017,Chippewa,Hemlock Lake,45.16856253,-91.36643361
WI,55017,Chippewa,Henneman Lake,45.25661336,-91.37132953
WI,55017,Chippewa,Highland Lake,45.20948743,-91.35734935
WI,55017,Chippewa,Himple Lake,45.13216987,-91.32071194
WI,55017,Chippewa,Hodge Lake,45.23039399,-91.40333413
WI,55017,Chippewa,Howe Lake,45.08859305,-91.31466372
WI,55017,Chippewa,Jacks Lake,45.28190052,-91.3971836
WI,55017,Chippewa,Jeanstow Lake,45.21914697,-91.42585783
WI,55017,Chippewa,Jerome Lake,45.23244465,-91.24270506
WI,55017,Chippewa,Jim Lake,45.07315628,-91.33767138
WI,55017,Chippewa,Kettle Lake,45.20110245,-91.33643833
WI,55017,Chippewa,Knickerbocker Lake,45.22268924,-91.37560352
WI,55017,Chippewa,Lake Como 48.25,45.10866172,-91.50377249
WI,55017,Chippewa,Lake Hallie,44.88051662,-91.4435705
WI,55017,Chippewa,Lake Hallie 2,44.88055571,-91.4432932
WI,55017,Chippewa,Lake Wissota,44.95002706,-91.31698176
WI,55017,Chippewa,LaRose Lake,45.26091397,-91.22709759
WI,55017,Chippewa,Larrabee Lake,45.24413408,-91.43169503
WI,55017,Chippewa,Leo Joerg Lake,45.27529784,-91.38497189
WI,55017,Chippewa,Little Bass Lake,45.26461361,-91.47745927
WI,55017,Chippewa,Little Buck Lake,45.16520455,-91.34388888
WI,55017,Chippewa,Little Pine Lake,45.2840511,-91.48245947
WI,55017,Chippewa,Little Plummer Lake,45.21489816,-91.35419838
WI,55017,Chippewa,Logger Lake,45.23930246,-91.38083261
WI,55017,Chippewa,Loon Lake,45.24739409,-91.46701545
WI,55017,Chippewa,Lost Lake,45.28653568,-91.41010186
WI,55017,Chippewa,Lowers Lake,45.22993586,-91.27555673
WI,55017,Chippewa,Lowland Lake,45.20712665,-91.36193891
WI,55017,Chippewa,Mallard Flowage,45.21149226,-91.03358512
WI,55017,Chippewa,Mary Jane Lake,45.16431825,-91.35922758
WI,55017,Chippewa,McDonald Lake,45.28343727,-91.46517002
WI,55017,Chippewa,Meadows Lake,45.22788711,-91.2622072
WI,55017,Chippewa,Metcalf Lake,45.2059062,-91.33863337
WI,55017,Chippewa,Moon Lake,45.17597501,-91.35750529
WI,55017,Chippewa,North of North Shattuck Lake,45.22864739,-91.42171403
WI,55017,Chippewa,North Shattuck Lake,45.22441445,-91.4209169
WI,55017,Chippewa,Number Four Lake,45.27822506,-91.36494654
WI,55017,Chippewa,Number One Lake,45.20290619,-91.33406644
WI,55017,Chippewa,Number Three Lake,45.2751931,-91.36601924
WI,55017,Chippewa,Number Two Lake,45.27332888,-91.3663359
WI,55017,Chippewa,Nut Lake,45.19933486,-91.2785316
WI,55017,Chippewa,O'Neil Creek Flowage Number One,45.20233237,-91.35659062
WI,55017,Chippewa,O'Neil Flowage 0.2,45.19588949,-91.35838929
WI,55017,Chippewa,Odd Lake,45.17764023,-91.30692077
WI,55017,Chippewa,Old Abe Lake,45.06873847,-91.25637862
WI,55017,Chippewa,Oliver Lakes,45.15151106,-91.31397846
WI,55017,Chippewa,Otter Lake 27,45.07117083,-90.94270501
WI,55017,Chippewa,Paisley's Pond,45.2665675614907,-91.0226049938227
WI,55017,Chippewa,Parker Lake,45.08873784,-91.29159391
WI,55017,Chippewa,Pauls Lake,45.2021884,-91.28281559
WI,55017,Chippewa,Payne Lake,45.22775988,-91.41666118
WI,55017,Chippewa,Pheffercorn Lake,45.04529835,-91.2531492
WI,55017,Chippewa,Pickerel Lake,45.19400521,-91.30480985
WI,55017,Chippewa,Picnic Lake,45.20706287,-91.27873345
WI,55017,Chippewa,Pike Lake,45.0788589,-91.07874208
WI,55017,Chippewa,Planning Lake,45.18722397,-91.27448982
WI,55017,Chippewa,Plummer Lake,45.21733497,-91.34655137
WI,55017,Chippewa,Popple Lake,45.05641636,-91.30240291
WI,55017,Chippewa,Popple Point Lake,45.16792242,-91.33222528
WI,55017,Chippewa,Rassmusson Lake,45.21184871,-91.34650359
WI,55017,Chippewa,Rat Lake,45.2027265,-91.33885098
WI,55017,Chippewa,Rattz Lake,45.19718313,-91.34603713
WI,55017,Chippewa,Riley Lake,45.24568636,-91.36146421
WI,55017,Chippewa,Roedecker Lake,45.25825127,-91.12398072
WI,55017,Chippewa,Roger Lake,45.20442063,-91.33129305
WI,55017,Chippewa,Ruby Lake,45.27215477,-91.46216077
WI,55017,Chippewa,Salisbury Lake,45.2375649,-91.44518035
WI,55017,Chippewa,Sand Lake,45.17647547,-91.3485567
WI,55017,Chippewa,Schoolhouse Lake,45.28023666,-91.45049901
WI,55017,Chippewa,Silver Bass Lake,45.17162638,-91.30163601
WI,55017,Chippewa,Snake Lake,45.23985142,-91.40062841
WI,55017,Chippewa,South Shattuck Lake,45.21753727,-91.41567844
WI,55017,Chippewa,Spence Lake,45.28737713,-91.31652908
WI,55017,Chippewa,Spring Creek Flowage Number One,45.20876163,-91.25088948
WI,55017,Chippewa,Stanley Lake,45.16746468,-91.33924336
WI,55017,Chippewa,Sunfish Lake,45.17370155,-91.30277139
WI,55017,Chippewa,Tallman Lake,45.26535747,-91.35965929
WI,55017,Chippewa,Tamarack lake,45.1779286374785,-91.3325468108339
WI,55017,Chippewa,Taylor Lake,45.23717391,-91.38532293
WI,55017,Chippewa,Tilden Millpond,44.99203921,-91.42388423
WI,55017,Chippewa,Town Line Lake,45.21326097,-91.37021368
WI,55017,Chippewa,Tram Lake,45.19427591,-91.32518081
WI,55017,Chippewa,Triple Lakes,45.24487723,-91.36873627
WI,55017,Chippewa,Turk Lake,45.2764386,-91.46296244
WI,55017,Chippewa,Two Island Lake,45.23520507,-91.39571847
WI,55017,Chippewa,Upper Twin Lake,45.09532289,-91.3081575
WI,55017,Chippewa,Wesley Lake,45.28144804,-91.14303254
WI,55017,Chippewa,West Lake,45.20584954,-91.3703134
WI,55017,Chippewa,Willow Creek Flowage Number One,45.25294652,-91.28923269
WI,55017,Chippewa,Willow Creek Flowage Number Three,45.24542416,-91.26986305
WI,55017,Chippewa,Willow Creek Flowage Number Two,45.25013401,-91.27434889
WI,55017,Chippewa,Withrow Lake,45.06558973,-90.97009504
WI,55017,Chippewa,Worden Lake,45.26109224,-91.26273466
WI,55019,Clark,0.3 Reservoir,44.79380259,-90.73113161
WI,55019,Clark,1.95 Reservoir,44.45356207,-90.46121728
WI,55019,Clark,Emerson Lake,44.52803177,-90.89514811
WI,55019,Clark,Iron Run Flowage,44.7097597,-90.88304063
WI,55019,Clark,Kalepp Lake,45.00808965,-90.36040385
WI,55019,Clark,Klecker Pond,44.4363791204886,-90.7001975086894
WI,55019,Clark,Lake 10-7 4,44.57448602,-90.85727477
WI,55019,Clark,Lake 22-13,44.62815408,-90.8445263
WI,55019,Clark,Lake 24 6 SWR 17,44.55071061,-90.81580146
WI,55019,Clark,Lake Arbutus,44.42374521,-90.70819773
WI,55019,Clark,Lake McCarron,44.9989803245833,-90.3342101573123
WI,55019,Clark,Mead Lake,44.79112635,-90.75690034
WI,55019,Clark,Owen Pond 5,44.9516371,-90.56786684
WI,55019,Clark,Rock Dam Lake,44.7283146,-90.84205021
WI,55019,Clark,Sherwood Lake,44.42799095,-90.37628768
WI,55019,Clark,Snyder Lake,44.57785837,-90.72022407
WI,55019,Clark,Snyder Lake 46,44.57334326,-90.72300895
WI,55019,Clark,Sportsman Lake,44.98161126,-90.56908274
WI,55019,Clark,Spruce Lake,44.71860829,-90.88655833
WI,55019,Clark,Washwood Pond,44.42656971,-90.43566611
WI,55021,Columbia,37 Reservoir,43.49644919,-89.26685168
WI,55021,Columbia,Alder Pond,43.30662018,-89.65617346
WI,55021,Columbia,Becker Lake,43.61179695,-89.26920349
WI,55021,Columbia,Breneman Lake,43.54325977,-89.33549038
WI,55021,Columbia,Bridal Pond,43.5386369971103,-89.4744206604486
WI,55021,Columbia,Corning Lake,43.62304061,-89.65311315
WI,55021,Columbia,Crandalls Bay,43.63460944,-89.77289406
WI,55021,Columbia,Crystal Lake,43.53103824,-89.25400133
WI,55021,Columbia,Cuff Lake,43.60849077,-89.30323956
WI,55021,Columbia,Curtis Lake,43.48541747,-89.33488941
WI,55021,Columbia,Dates Millpond,43.63780273,-89.36613817
WI,55021,Columbia,French Creek Wildlife Area Pool Number 1,43.6127452955101,-89.3880602606341
WI,55021,Columbia,French Creek Wildlife Area Pool Number 2,43.6245522794666,-89.4054798754394
WI,55021,Columbia,Fulton Pond,43.42944397,-89.44139943
WI,55021,Columbia,Grassy Lake,43.42424558,-89.16968562
WI,55021,Columbia,Hawkos Pond,43.40450663,-89.22267404
WI,55021,Columbia,Indian trails fishing pond,43.5523057152637,-89.3231202352221
WI,55021,Columbia,Lake Columbia,43.47095861,-89.42239378
WI,55021,Columbia,Lake George,43.5222092,-89.38100552
WI,55021,Columbia,Lake Lee,43.63782616,-89.76842729
WI,55021,Columbia,Lake Wisconsin,43.37101645,-89.60306332
WI,55021,Columbia,Lantz Pond,43.3054461,-89.61457092
WI,55021,Columbia,Lazy Lake,43.39844722,-89.041219
WI,55021,Columbia,Lost Lake,43.47864722,-89.53202193
WI,55021,Columbia,Park Lake,43.54690466,-89.28750154
WI,55021,Columbia,Pickerel Lake,43.46097469,-89.49387893
WI,55021,Columbia,Ryan Pond,43.32596105,-89.67060638
WI,55021,Columbia,Schoenberg Marsh,43.34870612,-89.30635144
WI,55021,Columbia,Silver Lake,43.55153023,-89.47606935
WI,55021,Columbia,Silver Springs Pond,43.46882924,-89.17641862
WI,55021,Columbia,Spring Lake,43.54000811,-89.3044861
WI,55021,Columbia,Swan Lake,43.54495824,-89.36487808
WI,55021,Columbia,Tarrant Lake,43.54519286,-89.1039923
WI,55021,Columbia,Weeting Lake,43.63076888,-89.64093099
WI,55021,Columbia,West Lake,43.54204963,-89.32637186
WI,55021,Columbia,Willow Mill Pond,43.48878147,-89.2239806
WI,55021,Columbia,Wyona Lake,43.49782137,-89.30098061
WI,55023,Crawford,Clear Lake,43.17753818,-90.67403459
WI,55023,Crawford,Garnet Lake,43.01156938,-91.14888967
WI,55023,Crawford,Lake Winneshiek,43.32729786,-91.10700009
WI,55023,Crawford,Marais Lake,43.09884293,-91.15858164
WI,55023,Crawford,McGregor Lake,43.03569791,-91.16397436
WI,55023,Crawford,Sunfish Lake,43.07288427,-91.1705001
WI,55023,Crawford,Upper Marais,43.08271138,-91.15311828
WI,55025,Dane,Apache Pond,43.0260412354499,-89.4524493310609
WI,55025,Dane,Autumn Pond,43.1311558518958,-89.5941206390575
WI,55025,Dane,Barbian Pond,43.2005990688481,-89.5160851265173
WI,55025,Dane,Bass Lake,42.88553639,-89.25696468
WI,55025,Dane,Brandenburg Lake,43.19495996,-89.59238812
WI,55025,Dane,Cherokee Lake,43.15818419,-89.37686704
WI,55025,Dane,Cherrywood Pond,43.0563284717495,-89.592771295092
WI,55025,Dane,Coyle Pond,43.0565931041295,-89.6037298284598
WI,55025,Dane,Crystal Lake,43.29039369,-89.62304326
WI,55025,Dane,Curtis Pond,43.0371776296036,-89.4334425024805
WI,55025,Dane,Diedrich Pond,43.2007227081876,-89.55537437983
WI,55025,Dane,Dunkirk Millpond 442,42.88278754,-89.21207714
WI,55025,Dane,Dunn's Marsh,43.0234967752469,-89.4532762797075
WI,55025,Dane,Fish Lake,43.28753833,-89.65221306
WI,55025,Dane,Fishers Lake,43.21484372,-89.81606554
WI,55025,Dane,Fishing Pond,42.9764753959697,-89.2190204453875
WI,55025,Dane,Graber Pond,43.11941003,-89.50751796
WI,55025,Dane,Harlan Hills East Pond,43.0250467323472,-89.4388392715674
WI,55025,Dane,Indian Lake,43.18979493,-89.63000091
WI,55025,Dane,Island Lake,42.9266298,-89.29348274
WI,55025,Dane,King Lake,42.855433441021,-89.3568999164088
WI,55025,Dane,Lake Barney,42.94662392,-89.40960177
WI,55025,Dane,Lake Belle View,42.86452375,-89.53724947
WI,55025,Dane,Lake Harriett,42.92647188,-89.44785669
WI,55025,Dane,Lake Kegonsa,42.964591,-89.25364807
WI,55025,Dane,Lake Melvin,43.2513788385552,-89.4973313878256
WI,55025,Dane,Lake Mendota,43.10499973,-89.41993645
WI,55025,Dane,Lake Monona,43.06832259,-89.35814086
WI,55025,Dane,Lake Windsor,43.2053517295746,-89.344882581915
WI,55025,Dane,Lake Wingra,43.05350313,-89.41944622
WI,55025,Dane,Lost Lake,43.1211825211847,-89.455542236303
WI,55025,Dane,Marshall Millpond 72,43.17469641,-89.07126729
WI,55025,Dane,Morse Pond,43.01946844,-89.5344304
WI,55025,Dane,Odana Pond,43.0456065370231,-89.4669069253778
WI,55025,Dane,Pond 2,43.0388612101653,-89.4245161550173
WI,55025,Dane,Rice Lake,42.89831811,-89.03292019
WI,55025,Dane,Rockdale Millpond 134,42.98011126,-89.02514918
WI,55025,Dane,Salmo Pond,43.1192523873881,-89.6912863765687
WI,55025,Dane,Shoveler's Sink,43.0628902167749,-89.6049904650096
WI,55025,Dane,Spring Trail Pond,43.0499858497451,-89.4364718090857
WI,55025,Dane,Stewart Lake 2,43.02007366,-89.74105711
WI,55025,Dane,Stoughton Millpond 429,42.91396885,-89.22105173
WI,55025,Dane,Strickers Pond,43.08711583,-89.50953517
WI,55025,Dane,Sunfish Pond,43.2167948464585,-89.3507159267087
WI,55025,Dane,Sweet Lake,42.88751398,-89.03475222
WI,55025,Dane,Teal Pond,43.0408857194919,-89.4242902982577
WI,55025,Dane,Tenney Park Lagoon,43.092101820948,-89.3688657361727
WI,55025,Dane,Tiedemans Pond,43.0905266,-89.50474894
WI,55025,Dane,Token Creek Pond (historical),43.20231099,-89.28549356
WI,55025,Dane,Turtle Lake,42.88282674,-89.03265026
WI,55025,Dane,Verona Nature Center Pond,42.9973056452808,-89.5407694225517
WI,55025,Dane,Villa De Medici Lagoon,43.113331460021,-89.4688986119773
WI,55025,Dane,Village Center Pond,43.1873517873046,-89.4500294673596
WI,55025,Dane,Virgin Lake,42.92869793,-89.24466482
WI,55025,Dane,Warner Park Lagoon,43.1289766234163,-89.3738054757851
WI,55025,Dane,Waterloo Millpond 87,43.17347015,-89.01551624
WI,55025,Dane,Whalen Pond,42.9773536876718,-89.5253580778258
WI,55027,Dodge,144 Reservoir,43.51959809,-88.41754338
WI,55027,Dodge,Alderley Millpond,43.21999565,-88.44904239
WI,55027,Dodge,Burnett Flowage,43.51260048,-88.67285344
WI,55027,Dodge,Chub Lake,43.22369894,-88.892286
WI,55027,Dodge,Collins Lake,43.27261215,-88.42475721
WI,55027,Dodge,Crystal Lake,43.45451697,-88.80307011
WI,55027,Dodge,Fox Lake,43.58484483,-88.92356794
WI,55027,Dodge,Fox Lake 52,43.56879277,-88.91260689
WI,55027,Dodge,Karstens Pond 1,43.43112122,-88.54534096
WI,55027,Dodge,Kekoskee Millpond 182,43.52273788,-88.56641639
WI,55027,Dodge,Lake Emily,43.62718058,-88.96884253
WI,55027,Dodge,Lomira Pond,43.5880369761854,-88.4421686854572
WI,55027,Dodge,Lost Lake,43.44358256,-88.96999823
WI,55027,Dodge,Lower Mayville Millpond 174,43.50396396,-88.54071199
WI,55027,Dodge,Mill Pond,43.34055593,-89.00834274
WI,55027,Dodge,Mud Lake,43.23312377,-88.87869148
WI,55027,Dodge,Neosho Millpond,43.31003029,-88.50451174
WI,55027,Dodge,Osborne Park Pond,43.4546645413221,-88.6223648702944
WI,55027,Dodge,Sinissippi Lake,43.37199093,-88.61580377
WI,55027,Dodge,Steamboat Channel,43.50184908,-88.64860413
WI,55029,Door,Arbter Lake,44.89358432,-87.22765322
WI,55029,Door,Big Marsh,45.3671102,-86.86592674
WI,55029,Door,Bradley Lake,44.84792323,-87.38368574
WI,55029,Door,Clark Lake,44.93652577,-87.20334635
WI,55029,Door,Dunes Lake,44.86616471,-87.26002414
WI,55029,Door,Europe Lake,45.27262082,-86.9863583
WI,55029,Door,Forestville Flowage,44.69938738,-87.49966639
WI,55029,Door,Kangaroo Lake,45.03488835,-87.15853676
WI,55029,Door,Large Dry Dock,44.8432079075852,-87.3846773736988
WI,55029,Door,Little Lake,45.4100164,-86.94130055
WI,55029,Door,Lost Lake,45.00533774,-87.25583159
WI,55029,Door,Mackaysee Lake,45.19321212,-87.34375191
WI,55029,Door,Pinney Lake,44.83435776,-87.29682435
WI,55029,Door,Schwartz Lake,44.88592293,-87.22905067
WI,55029,Door,Thorp Pond,45.0710571,-87.22867118
WI,55029,Door,Upper Lost Lake,45.01828179,-87.25606956
WI,55029,Door,Zoo Lake,45.17642608,-87.07878255
WI,55031,Douglas,Alexander Lake,46.21884042,-91.68132468
WI,55031,Douglas,Amnicon Lake,46.47774941,-92.06104751
WI,55031,Douglas,Anderson Lake,46.46455399,-91.6951398
WI,55031,Douglas,Apple Lake,46.2171198105067,-91.9029194628573
WI,55031,Douglas,Arrowhead Lake,46.21854574,-91.84262347
WI,55031,Douglas,Bear Lake,46.39524595,-92.09594499
WI,55031,Douglas,Beauregard Lake,46.34193732,-91.58977781
WI,55031,Douglas,Beglinger Lake,46.22012247,-91.84829903
WI,55031,Douglas,Big Lake,46.47982093,-91.59934319
WI,55031,Douglas,Black Fox Lake,46.36283782,-91.61019955
WI,55031,Douglas,Black Lake,46.37028911,-92.28950986
WI,55031,Douglas,Bluegill Lake,46.21118887,-91.86035118
WI,55031,Douglas,Bond Lake,46.18340704,-91.87451684
WI,55031,Douglas,Boot Lake,46.33855377,-91.63053733
WI,55031,Douglas,Breitzman Lake,46.45779926,-92.21368582
WI,55031,Douglas,Buffalo Lake,46.16717168,-91.83885025
WI,55031,Douglas,Catherine Lake,46.34404071,-91.55582209
WI,55031,Douglas,Cheney Lake,46.38135203,-91.7007151
WI,55031,Douglas,Clear Lake,46.21328337,-91.84555582
WI,55031,Douglas,Clyde Lake,46.17789671,-91.7039956
WI,55031,Douglas,Coffee Lake,46.45779352,-91.72473474
WI,55031,Douglas,Cranberry Creek Flowage 8.3,46.44868555,-91.95223687
WI,55031,Douglas,Cream Lake,46.45060373,-91.72410409
WI,55031,Douglas,Crooked Lake,46.2003654,-91.65158923
WI,55031,Douglas,Crotty Lake,46.16262398,-91.7724027
WI,55031,Douglas,Crystal Lake,46.18788503,-91.95129029
WI,55031,Douglas,Deer Print Lake,46.3599137,-91.61937191
WI,55031,Douglas,Dowling Lake,46.47404982,-92.04486874
WI,55031,Douglas,Eau Claire River Flowage 33,46.23333169,-91.77340389
WI,55031,Douglas,Ferguson Lake,46.33648948,-91.8582014
WI,55031,Douglas,Flamang Lake,46.32793701,-91.69445629
WI,55031,Douglas,Flat Lake,46.32407634,-91.73327721
WI,55031,Douglas,Frahm Lake,46.17014285,-91.71863963
WI,55031,Douglas,Gander Lake,46.45431341,-91.72952804
WI,55031,Douglas,Gilbert Lake,46.4030942,-91.78857828
WI,55031,Douglas,Goose Lake,46.22359976,-91.60989187
WI,55031,Douglas,Grover Lake,46.22365619,-91.77616549
WI,55031,Douglas,Harriet Lake,46.21952542,-91.79696091
WI,55031,Douglas,Haugen Lake,46.2225733,-91.66514603
WI,55031,Douglas,High Life Lake,46.37344855,-91.57711821
WI,55031,Douglas,Hoodoo Lake,46.52652986,-91.59263126
WI,55031,Douglas,Hopkins Lake,46.37013406,-91.56120323
WI,55031,Douglas,Horseshoe Lake,46.46528333,-91.67482111
WI,55031,Douglas,Interfalls Lake,46.53321357,-92.12009942
WI,55031,Douglas,Island Lake,46.35359295,-91.76792108
WI,55031,Douglas,Jack Pine Lake,46.37021922,-91.60802292
WI,55031,Douglas,Kreide Lake,46.2131166,-91.8159618
WI,55031,Douglas,Lake Minnesuing,46.46758546,-91.74487173
WI,55031,Douglas,Lake Nebagamon,46.50252921,-91.70129627
WI,55031,Douglas,Lake Newman,46.47944368,-92.02125076
WI,55031,Douglas,Lake of the Woods,46.37848034,-91.76447626
WI,55031,Douglas,Lake Seventeen,46.38392345,-92.15056357
WI,55031,Douglas,Leader Lake,46.19413816,-91.86242951
WI,55031,Douglas,Little Simms Lake,46.25373519,-91.66939526
WI,55031,Douglas,Little Steele Lake,46.51934378,-91.73353432
WI,55031,Douglas,Lower Ox Lake,46.30568214,-91.76639694
WI,55031,Douglas,Lucius Lake,46.49047886,-91.59902687
WI,55031,Douglas,Lund Lake,46.3182773,-91.5795622
WI,55031,Douglas,Lydon Lake,46.50046126,-91.71499064
WI,55031,Douglas,Lyman Lake,46.45668525,-91.98396586
WI,55031,Douglas,Mahogany Marsh Lake,46.23285504,-91.63564481
WI,55031,Douglas,Metzger Lake,46.31809452,-91.68814068
WI,55031,Douglas,Mills Lake,46.40617508,-91.76277651
WI,55031,Douglas,Minnow Lake,46.53341771,-91.67809741
WI,55031,Douglas,Moose Branch Flowage,46.34050309,-91.98343596
WI,55031,Douglas,Moose Lake,46.41833971,-91.92491149
WI,55031,Douglas,Mulligan Lake,46.20828969,-91.69404959
WI,55031,Douglas,Murray Lake,46.37332642,-91.56601454
WI,55031,Douglas,Muskrat Lake,46.3453371,-91.75386243
WI,55031,Douglas,Olson Meadows Flowage,46.3262606406931,-91.78000336325
WI,55031,Douglas,One Buck Lake,46.48002008,-92.01643445
WI,55031,Douglas,One Mile Lake,46.2272909,-91.80722502
WI,55031,Douglas,Paradise Lake,46.36926473,-91.59689074
WI,55031,Douglas,Park Creek Pond,46.34989558,-91.82188216
WI,55031,Douglas,Person Lake,46.1902451,-91.96764283
WI,55031,Douglas,Peterson Lake,46.16045382,-91.81649283
WI,55031,Douglas,Pickerel Lake,46.19191177,-91.8797972
WI,55031,Douglas,Pickle Pond,46.7175447626498,-92.0599797757614
WI,55031,Douglas,Pine Lake,46.50790585,-91.65302773
WI,55031,Douglas,Poplar River Pond 28,46.57839991,-91.79228421
WI,55031,Douglas,Radigan Flowage 41,46.22263515,-92.22324126
WI,55031,Douglas,Rainbow Lake,46.22718706,-91.83456308
WI,55031,Douglas,Red Lake,46.17936166,-91.76447943
WI,55031,Douglas,Reichuster Lake,46.49055226,-92.09765766
WI,55031,Douglas,Robinson Lake,46.527171693883,-91.6850100045779
WI,55031,Douglas,Rock Lake,46.3431274,-91.617119
WI,55031,Douglas,Rush Lake,46.48916522,-91.55495133
WI,55031,Douglas,Saint Croix Flowage,46.2560865,-91.87125474
WI,55031,Douglas,Sand Lake,46.37891583,-91.57259145
WI,55031,Douglas,Saunders Pond,46.5073300556696,-91.6004941683505
WI,55031,Douglas,Sauntrys Pocket Lake,46.23186292,-91.68901187
WI,55031,Douglas,Sawyer Lake,46.17811081,-91.66948886
WI,55031,Douglas,Scott Lake,46.23157775,-91.92511396
WI,55031,Douglas,Scout Lake,46.46835712,-92.00134353
WI,55031,Douglas,Scully Lake,46.5290544582069,-91.6823306777355
WI,55031,Douglas,Shoberg Lake,46.39504772,-91.68784742
WI,55031,Douglas,Simms Lake,46.26397858,-91.67468888
WI,55031,Douglas,Smith Lake,46.39659211,-91.7090055
WI,55031,Douglas,Snake Lake,46.19497893,-91.6679554
WI,55031,Douglas,Snipe Lake,46.21945349,-91.90805121
WI,55031,Douglas,Spider Lake,46.23094363,-91.89928265
WI,55031,Douglas,Stateline Flowage 3,46.29651848,-92.29153346
WI,55031,Douglas,Steele Lake,46.5132859,-91.76288911
WI,55031,Douglas,Sullivan Lake,46.18676348,-91.77556948
WI,55031,Douglas,Summit Lake,46.47579069,-92.24715803
WI,55031,Douglas,Sunfish Lake,46.47130612,-91.6749268
WI,55031,Douglas,Swenson Lake,46.28547043,-91.70376031
WI,55031,Douglas,Thorn Lake,46.22502863,-91.65569629
WI,55031,Douglas,Three Bucks Lakes,46.45924463,-91.94475195
WI,55031,Douglas,Two Mile Lake,46.21568,-91.80408082
WI,55031,Douglas,Upper Ox Lake,46.29156123,-91.70432849
WI,55031,Douglas,Wascott Lake,46.18085693,-91.82769818
WI,55031,Douglas,Webb Lake,46.23778375,-91.89451223
WI,55031,Douglas,Whisky Lake,46.46212021,-91.66787488
WI,55031,Douglas,Whitefish Lake,46.21390358,-91.87219062
WI,55031,Douglas,Whiteside Lake,46.30284622,-91.65156863
WI,55031,Douglas,Wilson Lake,46.21174653,-91.95590825
WI,55031,Douglas,Yoekel Lake,46.15903374,-91.82185232
WI,55033,Dunn,Big Lake,44.70428345,-91.91641062
WI,55033,Dunn,Lake Eau Galle,44.7099266,-92.01492357
WI,55033,Dunn,Lake Menomin,44.89244077,-91.91257318
WI,55033,Dunn,Long Lake,44.70963236,-91.90765734
WI,55033,Dunn,Old Elk Lake,44.82854596,-91.7276308
WI,55033,Dunn,Rock Falls Millpond,44.71657693,-91.69699609
WI,55033,Dunn,Sneen Lake,44.76895524,-91.70648711
WI,55033,Dunn,Tainter Lake,44.97750413,-91.85609267
WI,55033,Dunn,Tainter Lake 1667,44.91911022,-91.88284568
WI,55033,Dunn,Wallace Lake,44.72494954,-91.87626305
WI,55035,Eau Claire,Altoona Lake 883,44.81494594,-91.42324978
WI,55035,Eau Claire,Bullis Pond,44.7795293330368,-91.4441049163923
WI,55035,Eau Claire,Coon Fork Lake,44.69530702,-91.01376373
WI,55035,Eau Claire,Dells Millpond,44.71883612,-91.14586008
WI,55035,Eau Claire,Dells Pond,44.82890022,-91.49157673
WI,55035,Eau Claire,Elk Creek Lake,44.81799841,-91.64989382
WI,55035,Eau Claire,Fairchild Pond,44.60800736,-90.95029675
WI,55035,Eau Claire,Fall Creek Pond,44.76673629,-91.28225234
WI,55035,Eau Claire,Lake Eau Claire,44.7608466,-91.10179481
WI,55035,Eau Claire,Powell Lake,44.76173901,-91.64294529
WI,55037,Florence,Baird Lake,45.94460219,-88.18249141
WI,55037,Florence,Barrens Lake,45.8590481165867,-88.1010402340673
WI,55037,Florence,Beaver Pond,45.83171564,-88.65356006
WI,55037,Florence,Bell Lake,45.95130729,-88.42911098
WI,55037,Florence,Bessie Babbet Lake,45.89324559,-88.34408951
WI,55037,Florence,Birch Lake,45.94058752,-88.51143792
WI,55037,Florence,Boot Lake,45.95568485,-88.41783982
WI,55037,Florence,Buckskin Lake,45.78586211,-88.36599141
WI,55037,Florence,Bush Lake,45.7655553,-88.30582631
WI,55037,Florence,Camp Thirteen Lake,45.94035393,-88.43830172
WI,55037,Florence,Cosgrove Lake,45.89387437,-88.16525584
WI,55037,Florence,Cruiser Lake,45.93105905,-88.44880537
WI,55037,Florence,Dorothy Lake,45.87657356,-88.46814458
WI,55037,Florence,Edith Lake,45.94363269,-88.42474742
WI,55037,Florence,Ellwood Lake,45.85830736,-88.14237144
WI,55037,Florence,Emily Lake,45.87449055,-88.28339559
WI,55037,Florence,Fay Lake,45.86726844,-88.63763328
WI,55037,Florence,Fischer Lake,45.7257767,-88.10601938
WI,55037,Florence,Fisher Lake,45.9195175,-88.24581538
WI,55037,Florence,Frog Lake,45.85779244,-88.12752663
WI,55037,Florence,Grandma Lake,45.81623929,-88.61291235
WI,55037,Florence,Grass Lake,45.88777717,-88.32904999
WI,55037,Florence,Grub Hoe Lake,45.87021794,-88.54493889
WI,55037,Florence,Haley Lake,45.87005545,-88.46447366
WI,55037,Florence,Halls Lake,45.80859056,-88.30570343
WI,55037,Florence,Halsey Lake,45.84803472,-88.63281183
WI,55037,Florence,Hauserman Lake,45.81696501,-88.20565631
WI,55037,Florence,Hemlock Lake,45.95507397,-88.54665925
WI,55037,Florence,Hord Lake,45.75682504,-88.23984464
WI,55037,Florence,Hoskin Lake,45.75291565,-88.08197563
WI,55037,Florence,Jaquet Lake,45.79003891,-88.62448838
WI,55037,Florence,Johnson Pond,45.90935088,-88.63282881
WI,55037,Florence,Jutra Lake,45.82573011,-88.32837493
WI,55037,Florence,Keyes Lake,45.89902647,-88.30611961
WI,55037,Florence,Kieper Lake,45.90693905,-88.47337634
WI,55037,Florence,Lake Anna,45.87856742,-88.16113738
WI,55037,Florence,Lake Nona,45.73312893,-88.54693738
WI,55037,Florence,Lake of Dreams,45.90894138,-88.62065866
WI,55037,Florence,Lake Seventeen,45.86264327,-88.51977657
WI,55037,Florence,Lauterman Lake,45.91795412,-88.51144248
WI,55037,Florence,Little Boot Lake,45.95086469,-88.41418373
WI,55037,Florence,Little Porcupine Lake,45.91096273,-88.53018237
WI,55037,Florence,Little Riley Lake,45.94379241,-88.46012622
WI,55037,Florence,Little Van Zile Lake,45.72532216,-88.66561519
WI,55037,Florence,Long Lake,45.83875286,-88.67552971
WI,55037,Florence,Loon Lake,45.88687955,-88.31224955
WI,55037,Florence,Lost Lake,45.87988308,-88.55932634
WI,55037,Florence,Lund Lake,45.75691169,-88.39864243
WI,55037,Florence,Marlow Lake,45.93259315,-88.21167269
WI,55037,Florence,Marm Lake,45.78046028,-88.25869194
WI,55037,Florence,Mirror Lake,45.77500201,-88.31945143
WI,55037,Florence,Montgomery Lake,45.9141443,-88.16413611
WI,55037,Florence,Morgan Lake,45.77458562,-88.54404352
WI,55037,Florence,Mulberry Lake,45.8474532436578,-88.3624662465377
WI,55037,Florence,No Bottom Lake,45.73529095,-88.0799359
WI,55037,Florence,Olson Lake,45.94186809,-88.332717
WI,55037,Florence,Patten Lake,45.85417479,-88.41985941
WI,55037,Florence,Perch Lake,45.93204786,-88.50057349
WI,55037,Florence,Pickerel Lake,45.9656615,-88.42200719
WI,55037,Florence,Pine River Flowage,45.83272682,-88.26559824
WI,55037,Florence,Porcupine Lake,45.93496971,-88.59089447
WI,55037,Florence,Price Lake,45.85675174,-88.39938405
WI,55037,Florence,Reisner Lake,45.88904745,-88.62304037
WI,55037,Florence,Riley Lake,45.93984866,-88.45613435
WI,55037,Florence,Robago Lake,45.88792108,-88.4475996
WI,55037,Florence,Savage Lake,45.88268561,-88.46282688
WI,55037,Florence,Scout Lake,45.77429315,-88.30817708
WI,55037,Florence,Sea Lion Lake,45.87743372,-88.32286228
WI,55037,Florence,Seidel Lake,45.8675842,-88.35189179
WI,55037,Florence,Sevenmile Lake,45.91771662,-88.37230269
WI,55037,Florence,Silverdollar Lake,45.92562484,-88.51181096
WI,55037,Florence,Spread Eagle Chain of Lakes,45.89376742,-88.13230302
WI,55037,Florence,Spruce Lake,45.88107868,-88.5475523
WI,55037,Florence,Trout Springs,45.9794650287723,-88.5944069686906
WI,55037,Florence,West Bass Lake,45.77841983,-88.33492619
WI,55037,Florence,West Lake,45.89928,-88.14588717
WI,55037,Florence,Wheeler Lake,45.79218333,-88.51589537
WI,55037,Florence,Whisker Lake,45.95688927,-88.44093279
WI,55037,Florence,Wisconsin Slough,45.9837656370771,-88.6169562627188
WI,55037,Florence,Wolf Pond,45.89561346,-88.65717605
WI,55037,Florence,Woods Creek Pond 45,45.82892382,-88.37930453
WI,55039,Fond du Lac,Auburn Lake,43.59873225,-88.20670758
WI,55039,Fond du Lac,Birchwood Lake,43.64676896,-88.19987681
WI,55039,Fond du Lac,Buttermilk Lake,43.59190226,-88.20644903
WI,55039,Fond du Lac,Butzke Lake,43.59759953,-88.22042601
WI,55039,Fond du Lac,Campbellsport Millpond,43.60217474,-88.26733209
WI,55039,Fond du Lac,Cedar Lake,43.6604802,-88.19088481
WI,55039,Fond du Lac,Devils Lake,43.74405164,-88.3924697
WI,55039,Fond du Lac,Dickman Lake,43.59068983,-88.22916745
WI,55039,Fond du Lac,Forest Lake,43.60761734,-88.167192
WI,55039,Fond du Lac,Giltners Lake,43.86021572,-88.22115434
WI,55039,Fond du Lac,Gothic Millpond,43.84313917,-88.83064492
WI,55039,Fond du Lac,Kettle Moraine Lake,43.65325629,-88.21031417
WI,55039,Fond du Lac,Lake Bernice,43.56705056,-88.30272368
WI,55039,Fond du Lac,Lake De Neveu,43.73209975,-88.39471039
WI,55039,Fond du Lac,Little Mud Lake,43.61302083,-88.16190747
WI,55039,Fond du Lac,Long Lake,43.67504595,-88.17055663
WI,55039,Fond du Lac,Mallard Hole Lake,43.59871839,-88.1724066
WI,55039,Fond du Lac,Mauthe Lake,43.60218564,-88.18144002
WI,55039,Fond du Lac,Mischos Pond,43.80688456,-88.18504048
WI,55039,Fond du Lac,Mud Lake,43.65694107,-88.22322966
WI,55039,Fond du Lac,Mullet Lake,43.72998822,-88.22896716
WI,55039,Fond du Lac,Mullet Marsh 15 Reservoir,43.75027037,-88.190027
WI,55039,Fond du Lac,Paulys Lake,43.82302811,-88.17980493
WI,55039,Fond du Lac,Pine Lake,43.7861608355625,-88.4037279994274
WI,55039,Fond du Lac,Raspberry Lake,43.67779157,-88.57028425
WI,55039,Fond du Lac,Senn Lake,43.56187119,-88.32633435
WI,55039,Fond du Lac,Spruce Lake,43.66935332,-88.19998382
WI,55039,Fond du Lac,Twin Lakes,43.6885463,-88.35077496
WI,55039,Fond du Lac,Wolf Lake,43.8644077,-88.20813619
WI,55039,Fond du Lac,Zach's Jeep Final Resting Place,43.693882319865,-88.1722205662104
WI,55041,Forest,Arbutus Lake,45.40135097,-88.86134228
WI,55041,Forest,Atkins Lake,45.65546105,-89.04563466
WI,55041,Forest,Bailey Lake,45.82882222,-89.03155287
WI,55041,Forest,Bass Lake,45.45290979,-88.69791526
WI,55041,Forest,Bastile Lake,45.82667936,-88.74610558
WI,55041,Forest,Bear Lake,45.51239458,-88.52613053
WI,55041,Forest,Big Cub Lake,45.51232056,-88.51976127
WI,55041,Forest,Birch Lake,45.56906512,-88.63804063
WI,55041,Forest,Bishop Lake,45.48779657,-89.01414981
WI,55041,Forest,Bluegill Lake,45.37923525,-88.56410506
WI,55041,Forest,Bobs Lake,45.6180867,-88.71361809
WI,55041,Forest,Bogbrook Lake,45.40251214,-88.78360162
WI,55041,Forest,Bose Lake,45.92757502,-88.96668584
WI,55041,Forest,Bradley Lake,45.49133189,-88.82371463
WI,55041,Forest,Briss Lake,45.92675359,-88.89340471
WI,55041,Forest,Brule Springs,45.9687220191537,-88.9589099112572
WI,55041,Forest,Bug Lake,45.57845915,-88.82668603
WI,55041,Forest,Butternut Lake,45.91169699,-88.98880619
WI,55041,Forest,Camp One Springs,45.45703366,-88.57903182
WI,55041,Forest,Camp Six Lake,45.59451048,-88.43257226
WI,55041,Forest,Camp Three Lake,45.62865909,-88.60039595
WI,55041,Forest,Cavour Pond,45.64887524,-88.60623209
WI,55041,Forest,Chuks Lake,45.95854451,-88.6883837
WI,55041,Forest,Clark Lake,45.4514466,-88.86001958
WI,55041,Forest,Clear Lake,45.58126349,-88.90973379
WI,55041,Forest,Cloud Lake,45.44691348,-88.43826176
WI,55041,Forest,Cook Lake,45.45157446,-88.84956734
WI,55041,Forest,Coyote Creek Impoundment,45.64675604,-88.99052401
WI,55041,Forest,Crane Lake,45.41153652,-88.89227517
WI,55041,Forest,Crawford Lake,45.43121948,-88.85729436
WI,55041,Forest,Crystal Lake,45.37911914,-88.92537562
WI,55041,Forest,Curve Lake,45.42670339,-88.54882396
WI,55041,Forest,Dawson Lake,45.57802644,-88.78049102
WI,55041,Forest,Deep Hole Lake,45.46012679,-88.90404011
WI,55041,Forest,Deep Lake,45.42150487,-88.5515502
WI,55041,Forest,Deer Lake Flowage,45.43376048,-88.47618409
WI,55041,Forest,Devils Lake,45.54764545,-88.83364186
WI,55041,Forest,Donut Lake,45.4906181175444,-88.8136469163057
WI,55041,Forest,Duck Lake,45.46931326,-88.90289736
WI,55041,Forest,Echo Lake,45.91386759,-89.03627832
WI,55041,Forest,Eds Lake,45.48438859,-88.79823692
WI,55041,Forest,Eugene Lake,45.46854366,-88.66764388
WI,55041,Forest,Evergreen Lake,45.44499977,-88.44809012
WI,55041,Forest,Finnerty Lake,45.49271543,-88.69965133
WI,55041,Forest,Forest Lake,45.71863697,-88.43818835
WI,55041,Forest,Four Ducks Lake,45.89441736,-88.98836966
WI,55041,Forest,Franklin Lake,45.93553251,-89.0013975
WI,55041,Forest,Furbush Lake,45.80885944,-89.01565264
WI,55041,Forest,Gem Lake,45.42539719,-88.54188143
WI,55041,Forest,Gertrude Lake,45.92066825,-89.0015934
WI,55041,Forest,Goose Lake,45.56690288,-88.42939349
WI,55041,Forest,Grass Lake,45.39637648,-88.87072519
WI,55041,Forest,Ground Hemlock Lake,45.47456786,-88.86279433
WI,55041,Forest,Ham Lake,45.49799676,-88.67061142
WI,55041,Forest,Hardwood Lake,45.50862092,-88.77289073
WI,55041,Forest,Harmony Lake,45.90174271,-88.99970482
WI,55041,Forest,Harriet Lake,45.8971111,-88.99294242
WI,55041,Forest,Hay Meadow Flowage 7,45.8688209892336,-89.0350108442855
WI,55041,Forest,Hiles Millpond,45.72602539,-88.96814914
WI,55041,Forest,Himley Lake,45.45916769,-88.75178615
WI,55041,Forest,Horseshoe Lake,45.48394168,-88.82732143
WI,55041,Forest,Howell Lake,45.94694365,-88.93380683
WI,55041,Forest,Indian Camp Lake,45.91211443,-88.94574015
WI,55041,Forest,Indian Lake,45.43299054,-88.55334142
WI,55041,Forest,Johnson Spring,45.4827356551083,-88.5681827655648
WI,55041,Forest,Johnson Springs,45.5872291936807,-88.7716398903207
WI,55041,Forest,Julia Lake,45.79558227,-89.04318074
WI,55041,Forest,Jungle Lake,45.45488511,-88.83332358
WI,55041,Forest,Kaine Lake,46.03962092,-88.90308966
WI,55041,Forest,Kazmier Lake,45.5126239,-88.65978942
WI,55041,Forest,Killborn Lake,45.97251339,-88.75154453
WI,55041,Forest,Kimberly Lake,45.45264225,-88.86525696
WI,55041,Forest,King Lake,45.42088758,-88.42842654
WI,55041,Forest,Lake Gordon,45.70515406,-88.51486568
WI,55041,Forest,Lake Laura,45.70559603,-88.50116162
WI,55041,Forest,Lake Lucerne,45.52687898,-88.84646262
WI,55041,Forest,Langer Lake,45.56895793,-88.62244512
WI,55041,Forest,Lily Lake,45.42827231,-88.8371468
WI,55041,Forest,Lilypad Lake,45.93530118,-88.73236816
WI,55041,Forest,Little Birch Lake,45.56921883,-88.66028074
WI,55041,Forest,Little Cub Lake,45.50796367,-88.53627378
WI,55041,Forest,Little Long Lake,45.42501898,-88.77121621
WI,55041,Forest,Little Marshall Lake,45.67844062,-88.90196269
WI,55041,Forest,Little Popple Lake,45.50074132,-88.77300059
WI,55041,Forest,Little Rice Lake,45.60414105,-89.00534644
WI,55041,Forest,Little Riley Lake,45.53896109,-88.75813527
WI,55041,Forest,Little Sand Lake,45.46997198,-88.91916446
WI,55041,Forest,Little Star Lake,45.49400061,-88.79139857
WI,55041,Forest,Little Wapoose Lake,45.90989685,-88.70320506
WI,55041,Forest,Logger Lake,45.67577372,-88.56047939
WI,55041,Forest,Lone Wolf Lake,45.89156762,-88.9739209
WI,55041,Forest,Ludington Lake,45.47701212,-88.76992092
WI,55041,Forest,Luna Lake,45.90562802,-88.96001754
WI,55041,Forest,Mainline Lake,45.91090753,-88.74145101
WI,55041,Forest,Marsh Number Ten,45.69606745,-88.72826193
WI,55041,Forest,Marshall Lake,45.68367777,-88.90012187
WI,55041,Forest,May Lake,45.97992456,-88.83601248
WI,55041,Forest,McKinley Lake,45.92384694,-88.97443488
WI,55041,Forest,Metonga Lake,45.54092319,-88.90414575
WI,55041,Forest,Midget Lake,45.50029488,-88.79440949
WI,55041,Forest,Mole Lake,45.47919272,-88.97688366
WI,55041,Forest,Mud Lake Number One,45.49042477,-88.67149469
WI,55041,Forest,Mud Lake Number Two,45.48643076,-88.64631773
WI,55041,Forest,Oak Lake,45.47507721,-88.93586047
WI,55041,Forest,Onimish Lake,45.96248244,-88.77393363
WI,55041,Forest,Otter Lake,45.43517344,-88.52706756
WI,55041,Forest,Pat Shay Lake,45.89139641,-89.0327861
WI,55041,Forest,Peanut Lake,45.44933993,-88.5239954
WI,55041,Forest,Peshtigo Lake,45.58608604,-88.89606204
WI,55041,Forest,Pickerel Lake,45.39638641,-88.90892341
WI,55041,Forest,Piledriver Lake,45.57019728,-88.60077244
WI,55041,Forest,Pine Lake,45.67673072,-88.98085094
WI,55041,Forest,Popple Lake,45.50163856,-88.76383665
WI,55041,Forest,Purdy Lake,45.57094529,-88.61030454
WI,55041,Forest,Quartz Lake,45.94902024,-88.9577906
WI,55041,Forest,Ramsdell Lake,45.98161722,-88.71785131
WI,55041,Forest,Range Line Lake,45.42662799,-88.67776308
WI,55041,Forest,Revolver Lake,45.59188818,-88.46210383
WI,55041,Forest,Rice Lake,45.49344972,-88.97242152
WI,55041,Forest,Richardson Lake,45.44410467,-88.71738343
WI,55041,Forest,Riley Lake,45.53734268,-88.77896948
WI,55041,Forest,Ritter Lake,45.8790473821648,-88.8302226291985
WI,55041,Forest,Robbins Lake,45.7534046,-89.0176203
WI,55041,Forest,Roberts Lake,45.45656388,-88.78899803
WI,55041,Forest,Robinson Lake,46.02836426,-88.93294066
WI,55041,Forest,Rogers Lake,45.80067255,-88.82623376
WI,55041,Forest,Ross Lake,45.68623606,-88.63677239
WI,55041,Forest,Round Lake,45.49397352,-88.68025649
WI,55041,Forest,Roxy Lake,45.41915553,-88.76493401
WI,55041,Forest,Saint Johns Lake,45.43977594,-88.87740942
WI,55041,Forest,Scattered Rice Lake,45.57187515,-88.68538245
WI,55041,Forest,Scott Lake,45.77173773,-89.01762252
WI,55041,Forest,Seal Lake,45.41303756,-88.52560145
WI,55041,Forest,Shabodock Lake,45.54992386,-88.58157617
WI,55041,Forest,Shelp Lake,45.77854961,-89.01801518
WI,55041,Forest,Shiner Lake,45.39695601,-88.64000046
WI,55041,Forest,Shoe Lake,45.42750674,-88.75098161
WI,55041,Forest,Silver Lake,45.5571495,-88.70722495
WI,55041,Forest,Skunk Lake,45.483425,-88.90558992
WI,55041,Forest,Stevens Lake,45.92600651,-88.70273547
WI,55041,Forest,Sunfish Lake,45.94655825,-88.98419515
WI,55041,Forest,Surprise Lake,45.56610298,-88.90128695
WI,55041,Forest,Tee Lake,45.50019213,-88.81160645
WI,55041,Forest,Three Johns Lake,45.92318529,-88.98028856
WI,55041,Forest,Trump Lake,45.47610038,-88.65646197
WI,55041,Forest,Turtle Lake,45.40202132,-88.51380876
WI,55041,Forest,Valley Lake,45.50063956,-88.44938704
WI,55041,Forest,Van Zile Lake,45.72162659,-88.675689
WI,55041,Forest,Wabikon Lake,45.55868374,-88.77828197
WI,55041,Forest,Waite Lake,45.86601348,-88.83757151
WI,55041,Forest,Walsh Lake,45.45101425,-88.87158378
WI,55041,Forest,Wapoose Lake,45.9133893,-88.69849523
WI,55041,Forest,White Deer Lake,45.90035401,-88.96655998
WI,55041,Forest,Whiteye Lake,45.58359954,-88.9976578
WI,55041,Forest,Wildcat Creek Impoundment,45.65844645,-89.01966855
WI,55041,Forest,Windfall Lake,45.39054955,-88.75635215
WI,55041,Forest,Wolf Lake,45.81753747,-89.02149755
WI,55041,Forest,Woodbury Lake,45.79469324,-89.02028802
WI,55041,Forest,Woods Lake,45.48551177,-88.69603856
WI,55041,Forest,Wyman Lake,45.50816955,-88.82016593
WI,55041,Forest,Zarling Lake,45.43753234,-88.73863398
WI,55043,Grant,0.37 Reservoir,42.87739894,-90.75338401
WI,55043,Grant,0.49 Reservoir,42.83065911,-90.46394029
WI,55043,Grant,Bullhead Slough,43.0947793366906,-90.8026508194679
WI,55043,Grant,Dead Lake,43.10053843,-90.79764618
WI,55043,Grant,Dixon Lake,43.19597194,-90.47889236
WI,55043,Grant,Gassner Lake,42.91962503,-91.13393744
WI,55043,Grant,Long Slough,42.68733632,-90.933136
WI,55043,Grant,O'Leary Lake,42.54059903,-90.63852231
WI,55043,Grant,Sand Cut,42.69112615,-90.95082713
WI,55043,Grant,Snyder Slough,42.6688319,-90.81977465
WI,55043,Grant,State Line Slough,42.88048611,-91.09197017
WI,55043,Grant,Woodman Lake,43.10509127,-90.7951373
WI,55045,Green,Albany Lake 471,42.7197252,-89.44154431
WI,55045,Green,Beckman Lake 4,42.58213256,-89.77099946
WI,55045,Green,Decatur Lake,42.65168176,-89.41687258
WI,55045,Green,Lake Motesian,42.7444342290466,-89.5975083274946
WI,55045,Green,Zander Lake,42.58182934,-89.76772166
WI,55047,Green Lake,Dog Lake,43.71344293,-89.08145762
WI,55047,Green Lake,Grand Lake,43.68938078,-89.12186212
WI,55047,Green Lake,Grand River Flowage,43.7205105695538,-89.2298148925057
WI,55047,Green Lake,Green Lake,43.8107257,-89.00005103
WI,55047,Green Lake,Green Lake 115,43.84536583,-88.96521884
WI,55047,Green Lake,Heart Lake,43.72346793,-89.08397429
WI,55047,Green Lake,Lake Maria,43.64746666,-89.0015607
WI,55047,Green Lake,Little Green Lake,43.73681496,-88.98456258
WI,55047,Green Lake,Little Twin Lake,43.7965837171118,-88.9695641354025
WI,55047,Green Lake,Mill Pond (historical),43.6868662,-89.0408213
WI,55047,Green Lake,Puckaway Lake,43.75654601,-89.17040102
WI,55047,Green Lake,Twin Lakes,43.79244812,-88.98004165
WI,55049,Iowa,2.25 Reservoir,43.06613741,-89.93044718
WI,55049,Iowa,Avoca Lake,43.19069676,-90.31122347
WI,55049,Iowa,Black Hawk Lake,43.02108019,-90.28494653
WI,55049,Iowa,Cox Hollow Lake,43.0112187,-90.10991962
WI,55049,Iowa,Goodwiler Lake,43.19152621,-90.4198562
WI,55049,Iowa,Halverson Lake,43.04512273,-90.09412843
WI,55049,Iowa,Kendal Lake,43.19634328,-90.38837709
WI,55049,Iowa,Long Lake,43.19404772,-90.39653239
WI,55049,Iowa,Lower Taliesin Lake 12,43.13882374,-90.06758815
WI,55049,Iowa,Ludden Lake,42.87618578,-90.19959566
WI,55049,Iowa,Round Hole,43.18768422,-90.40725501
WI,55051,Iron,0.09 Reservoir,46.45152545,-90.27675355
WI,55051,Iron,Allen Lake,46.16054049,-89.99426544
WI,55051,Iron,Altman Lake,46.13735629,-90.20145534
WI,55051,Iron,American Lake,46.27225946,-90.01926352
WI,55051,Iron,Barrel Spring Lake,46.26402887,-90.07904035
WI,55051,Iron,Bear Lake,46.20095473,-90.0900217
WI,55051,Iron,Bearskull Lake,46.00505899,-90.06777972
WI,55051,Iron,Beaver Pond,46.46940922,-90.43073259
WI,55051,Iron,Belding Lake,46.17818255,-89.98307486
WI,55051,Iron,Big Pine Lake,45.98432498,-90.06399213
WI,55051,Iron,Birch Lake,46.04202192,-89.95761141
WI,55051,Iron,Black Lake,46.01786492,-89.94905826
WI,55051,Iron,Bluegill Lake,46.17399399,-90.0756307
WI,55051,Iron,Boot Lake,46.03911346,-90.14092218
WI,55051,Iron,Brush Lake,46.16221125,-90.01328517
WI,55051,Iron,Camp Twelve Lake,46.27384034,-89.9631055
WI,55051,Iron,Cap Henry Lake,46.01203564,-90.02183274
WI,55051,Iron,Catherine Lake,46.22499769,-89.95931959
WI,55051,Iron,Cedar Lake,46.20808887,-89.95364695
WI,55051,Iron,Charnley Lake,46.01986545,-90.1510613
WI,55051,Iron,Cille Lake,46.20662708,-90.08231374
WI,55051,Iron,Clear Lake,46.2434652,-90.01707833
WI,55051,Iron,Courtland Lake,46.23607277,-90.12140874
WI,55051,Iron,Cramer Lake,46.22009015,-90.09087256
WI,55051,Iron,Crystal Lake,46.16511008,-90.1113857
WI,55051,Iron,Cub Lake,46.11003603,-89.99136454
WI,55051,Iron,Davis Lake,46.16276751,-90.14042567
WI,55051,Iron,Dead Horse Lake,46.12512857,-90.17768023
WI,55051,Iron,Deer Lake,46.13098694,-90.09981451
WI,55051,Iron,Deertail Lake,46.23388554,-90.02100375
WI,55051,Iron,Dollar Lake,46.17689563,-90.1535528
WI,55051,Iron,Doud Lake,46.01217341,-89.94219147
WI,55051,Iron,Dumbell Lake,46.29013296,-89.93044425
WI,55051,Iron,DuPage Lake,46.17223111,-89.97622106
WI,55051,Iron,Echo Lake,46.18205023,-90.06076236
WI,55051,Iron,Emerson Lake,46.01617554,-90.06270753
WI,55051,Iron,Ess Lake,46.03049627,-90.13421197
WI,55051,Iron,Fat Lake,46.02281643,-89.93621754
WI,55051,Iron,Fawn Lake,46.05662301,-90.15456925
WI,55051,Iron,Feely Lake,46.16570439,-90.11993186
WI,55051,Iron,Ferry Lake,46.0142518,-90.08285787
WI,55051,Iron,Fierek Lake,46.1419339,-90.11989236
WI,55051,Iron,Fifteen Lake,46.2951845,-90.34478805
WI,55051,Iron,First Black Lake,46.15947937,-90.18480619
WI,55051,Iron,Fisher Lake,46.24382766,-89.96790219
WI,55051,Iron,Flannagan Lake,46.1529417,-90.08540914
WI,55051,Iron,Forest Wonder Lake,46.14682853,-90.28719511
WI,55051,Iron,Fox Lake,46.13959641,-90.20927072
WI,55051,Iron,French Lake,46.03427708,-90.15314584
WI,55051,Iron,Frog Lake,46.11949163,-90.01130306
WI,55051,Iron,Geyser Lake,46.18883503,-90.02319497
WI,55051,Iron,Gile Flowage 70,46.39828395,-90.22745653
WI,55051,Iron,Goose Lake,46.03858634,-90.07704212
WI,55051,Iron,Grand Portage Lake,46.17311535,-90.04941702
WI,55051,Iron,Grant Lake,46.1125115,-90.07717923
WI,55051,Iron,Grey Lake,46.0156388,-89.9298415
WI,55051,Iron,Harper Lake,46.16469817,-90.00661144
WI,55051,Iron,Hawk Lake,46.25839993,-89.99740075
WI,55051,Iron,Hay Creek Flowage,46.00982596,-90.26548951
WI,55051,Iron,Hay Lake,45.98172285,-90.29815759
WI,55051,Iron,Hazel Lake,46.20244864,-90.08459062
WI,55051,Iron,Hewitt Lake,46.30056493,-89.97667536
WI,55051,Iron,Hill Lake,46.27594745,-89.97525326
WI,55051,Iron,Hobbs Lake,46.18913314,-90.05042903
WI,55051,Iron,Horseshoe Lake,46.26544996,-90.2551052
WI,55051,Iron,Hourglass Lake,46.02007584,-90.06019534
WI,55051,Iron,Jankewitz Lake,46.21619152,-90.12179464
WI,55051,Iron,Jeannie Lake,46.29104438,-89.96365753
WI,55051,Iron,Judd Lake,46.1847281,-89.99997204
WI,55051,Iron,July Lake,46.13833772,-90.11218999
WI,55051,Iron,June Lake,46.13510994,-90.10884941
WI,55051,Iron,Kelly Lake,46.15771309,-89.98173959
WI,55051,Iron,Keough Lake,46.02453964,-90.13012528
WI,55051,Iron,Kinder Lake,46.19885031,-90.05643988
WI,55051,Iron,Krupka Lake,46.16007538,-90.09588011
WI,55051,Iron,Kyle Lake,46.13416331,-90.16362773
WI,55051,Iron,La Blonde Flowage 1,46.46186633,-90.20071761
WI,55051,Iron,Lac de Beaumont,46.21156734,-90.1242893
WI,55051,Iron,Lake Barbara,46.25934488,-90.06476332
WI,55051,Iron,Lake Dorothy,46.26199845,-90.07406859
WI,55051,Iron,Lake Evelyn,46.27113205,-90.07893297
WI,55051,Iron,Lake Lavina,46.43145755,-90.18611619
WI,55051,Iron,Lake Nine,46.04366892,-90.24459842
WI,55051,Iron,Lake of the Falls,46.16244602,-90.17109496
WI,55051,Iron,Lake One,46.28787208,-90.21077158
WI,55051,Iron,Lake Six,46.2322633,-90.29249978
WI,55051,Iron,Lake Tahoe,46.16595965,-90.0841413
WI,55051,Iron,Lake Ten,46.25340848,-90.08030526
WI,55051,Iron,Leach Lake,46.04438135,-90.05482503
WI,55051,Iron,Lehto Lake,46.01801283,-90.04143985
WI,55051,Iron,Lipp Lake,46.14260944,-90.1604865
WI,55051,Iron,Little Bear Lake,46.10191444,-89.97594195
WI,55051,Iron,Little Cap Henry Lake,46.01969696,-90.01887157
WI,55051,Iron,Little Martha Lake,46.18773905,-90.02947911
WI,55051,Iron,Little Moose Lake,46.22298919,-90.21657121
WI,55051,Iron,Little Muskie Lake,46.00534928,-90.14474503
WI,55051,Iron,Little Oak Lake,46.2937929,-89.9963967
WI,55051,Iron,Little Oxbow Lake,46.22167897,-90.04355155
WI,55051,Iron,Little Pike Lake,46.15456978,-90.08946371
WI,55051,Iron,Little Pine Lake,46.25450827,-90.13120628
WI,55051,Iron,Little Turtle Flowage,46.14118759,-90.08888243
WI,55051,Iron,Long Lake,46.25985216,-90.02602111
WI,55051,Iron,Lower Springstead Lake,46.01067407,-90.13055007
WI,55051,Iron,Maki Lake,46.29125765,-90.52771312
WI,55051,Iron,Margaret Lake,46.1932405,-90.00550205
WI,55051,Iron,Martha Lake,46.1725207,-90.03209578
WI,55051,Iron,Marty Lake,45.99217682,-90.14721666
WI,55051,Iron,May Lake,46.20914331,-90.09065563
WI,55051,Iron,McCarthy Lake,46.29293701,-90.54183968
WI,55051,Iron,McDermott Lake,46.00299282,-90.16081602
WI,55051,Iron,Mercer Lake,46.16079841,-90.06603757
WI,55051,Iron,Minnow Lake,46.08264941,-90.26682271
WI,55051,Iron,Mirror Lake,46.0524627,-90.05205997
WI,55051,Iron,Moose Lake,46.23183799,-90.22204036
WI,55051,Iron,Munnomin Lake,46.00164014,-89.95435702
WI,55051,Iron,Muskie Lake,46.02140911,-90.10681688
WI,55051,Iron,Mystery Lake,46.01492124,-90.16300387
WI,55051,Iron,Negani Lake,46.00017871,-89.97642149
WI,55051,Iron,Negro Lakes,46.28863348,-89.98401117
WI,55051,Iron,Net Lake,46.19426308,-90.01511224
WI,55051,Iron,Nokomis Lake,46.10776495,-90.16600885
WI,55051,Iron,Norma Lake,46.02024456,-90.15931785
WI,55051,Iron,North Bass Lake,46.19479256,-89.96197518
WI,55051,Iron,North Grant Lake,46.12289575,-90.06859614
WI,55051,Iron,Norway Pine Lake,46.17178515,-89.98755742
WI,55051,Iron,O'Brien Lake,46.29772123,-90.39795112
WI,55051,Iron,Oak Lake,46.28632499,-89.99779838
WI,55051,Iron,Obadash Lake,46.27693925,-90.19997349
WI,55051,Iron,One Man Lake,46.13759476,-90.12406466
WI,55051,Iron,Oriole Lake,46.24986437,-89.93092031
WI,55051,Iron,Owl Lake,46.28324515,-89.97214612
WI,55051,Iron,Oxbow Lake,46.2144921,-90.04327868
WI,55051,Iron,Pardee Lake,46.27906623,-89.93163741
WI,55051,Iron,Paul Lake,46.1898992,-90.04306237
WI,55051,Iron,Payment Lake,46.18916374,-90.00894322
WI,55051,Iron,Pike Lake,46.17472807,-90.11961839
WI,55051,Iron,Pine Lake,46.26098799,-90.13937325
WI,55051,Iron,Plantation Lake,46.2094708,-90.00796379
WI,55051,Iron,Pleasant Lake,46.25583728,-90.35119965
WI,55051,Iron,Plunkett Lake,46.14217599,-89.98204963
WI,55051,Iron,Popko Lake,46.14075101,-90.1731666
WI,55051,Iron,Randall Lake,46.02809101,-90.02378129
WI,55051,Iron,Reimer Lake,46.04837737,-90.08388751
WI,55051,Iron,Reservation Line Lake,45.99151065,-89.98812965
WI,55051,Iron,Ruby Lake,46.26732682,-90.28511192
WI,55051,Iron,Ruth Lake,46.1014799,-90.17812737
WI,55051,Iron,Sack Lake,46.27421734,-90.3223336
WI,55051,Iron,San Domingo Lake,46.16344247,-90.04967934
WI,55051,Iron,Sand Lake,46.10658072,-90.17715081
WI,55051,Iron,Sandy Beach Lake,46.10614352,-89.97131016
WI,55051,Iron,Saxon Falls Flowage,46.5391769,-90.36682826
WI,55051,Iron,Second Black Lake,46.15494306,-90.19068352
WI,55051,Iron,Sells Lake,46.203222,-90.03712897
WI,55051,Iron,Shine Lake,46.25127344,-90.36798386
WI,55051,Iron,Shirley Lake,46.30265903,-90.4404384
WI,55051,Iron,Sister Lakes,46.05030514,-90.16080729
WI,55051,Iron,Smith Lake,46.18100376,-90.11968116
WI,55051,Iron,South Bass Lake,46.16401115,-89.9657486
WI,55051,Iron,Spider Lake,46.21294556,-90.02770554
WI,55051,Iron,Spinnet Lake,46.29282618,-89.97457905
WI,55051,Iron,Spring Lake,46.19860446,-90.0280426
WI,55051,Iron,Stone Lake,46.02472509,-90.1226936
WI,55051,Iron,Tamarack Lake,46.1803035,-89.99974978
WI,55051,Iron,Teal Lake,46.02890401,-90.11137692
WI,55051,Iron,Third Black Lake,46.1480321,-90.18377291
WI,55051,Iron,Thomas Lake,46.0129817,-89.98067938
WI,55051,Iron,Trude Lake,46.11431674,-90.15476327
WI,55051,Iron,Turtle-Flambeau Flowage,46.07505927,-90.17993447
WI,55051,Iron,Upper Springstead Lake,46.0173768,-90.13031481
WI,55051,Iron,Upson Lake,46.38965093,-90.43952011
WI,55051,Iron,Vincent Lake,46.04047755,-90.17975461
WI,55051,Iron,Viola Lake,46.2193259,-90.03682629
WI,55051,Iron,Virgin Lake,46.28025847,-89.98978957
WI,55051,Iron,Voss Lake,46.14103447,-90.0981643
WI,55051,Iron,Wallace Lake,46.18751758,-89.99970482
WI,55051,Iron,West Randall Lake,46.0314044,-90.03587372
WI,55051,Iron,Wilson Lake,46.1172667,-90.11537939
WI,55051,Iron,Woodson Lake,46.16415601,-89.99164512
WI,55053,Jackson,0.94 Reservoir,44.2962195,-90.99161264
WI,55053,Jackson,1.18 Reservoir,44.32931788,-90.99322433
WI,55053,Jackson,16 Reservoir,44.2240578,-90.3289801
WI,55053,Jackson,60 Reservoir,44.1862052923597,-90.7360745462431
WI,55053,Jackson,Battle Point Flowage,44.31084385,-90.60831955
WI,55053,Jackson,Big Bear Flowage,44.31448883,-90.64087865
WI,55053,Jackson,Black Duck Flowage,44.29483472,-90.57276052
WI,55053,Jackson,Black River Flowage 1610,44.29680709,-90.84610457
WI,55053,Jackson,Cranberry Flowage,44.26099024,-90.80121304
WI,55053,Jackson,Deer Lake,44.21169913,-90.34981159
WI,55053,Jackson,Douglas Pond,44.13509079,-90.99347229
WI,55053,Jackson,Dry Land Flowage,44.35873281,-90.69595536
WI,55053,Jackson,Funmaker Flowage,44.34129121,-90.69970913
WI,55053,Jackson,Glenn Creek Pond,44.2047188,-90.65430548
WI,55053,Jackson,Goodyear Lake,44.22397315,-90.40193626
WI,55053,Jackson,Harkner Flowage,44.1845831,-90.59542426
WI,55053,Jackson,Horse Shoe Lake,44.15450881,-90.92463812
WI,55053,Jackson,Horseshoe Lake,44.07495916,-91.13938109
WI,55053,Jackson,Hunters Peak Reservoir,44.23665266,-90.35882333
WI,55053,Jackson,Juleane Reservoir,44.24540403,-90.35740425
WI,55053,Jackson,Lake 21-7 8,44.37549376,-90.39537416
WI,55053,Jackson,Lake 23 15 6,44.19166556,-90.57972916
WI,55053,Jackson,Lake 27-1 6,44.18941322,-90.58550948
WI,55053,Jackson,Lee Lake 15,44.18767958,-90.6473756
WI,55053,Jackson,Little Bear Flowage,44.31424964,-90.65514708
WI,55053,Jackson,Little Thunder Flowage,44.32929682,-90.60125412
WI,55053,Jackson,Lowe Creek Pond,44.36009608,-91.02547692
WI,55053,Jackson,Lower Wilson Marsh Flowage,44.31274365,-90.63764482
WI,55053,Jackson,Mallard Flowage,44.28985688,-90.58986345
WI,55053,Jackson,Northfield Lake,44.4891948,-91.11374794
WI,55053,Jackson,Oakwood Lake,44.44965399,-90.84354896
WI,55053,Jackson,Partridge Crop Flowage,44.31667399,-90.5767835
WI,55053,Jackson,Pigeon Creek Flowage,44.21160362,-90.61348624
WI,55053,Jackson,Potter Flowage,44.30182868,-90.51650964
WI,55053,Jackson,Potter Flowage 58,44.29808027,-90.51618498
WI,55053,Jackson,Range Line Flowage,44.31102182,-90.55999637
WI,55053,Jackson,Rangeline Flowage 8,44.30875332,-90.56533636
WI,55053,Jackson,Robinson Pond,44.18808827,-90.62409906
WI,55053,Jackson,Sawdust Marsh,44.18852178,-90.48386967
WI,55053,Jackson,Schwartz Pool,44.33345334,-90.6238998
WI,55053,Jackson,Seventeen Flowage,44.3092437,-90.57594358
WI,55053,Jackson,Seventeen Reservoir,44.3084401646586,-90.5869695551664
WI,55053,Jackson,Sharptail Flowage,44.21502678,-90.630015
WI,55053,Jackson,Squaw Mound Flowage,44.28283694,-90.6555627
WI,55053,Jackson,Staffon Flowage,44.3467637,-90.64229266
WI,55053,Jackson,Stevens Lake,44.10165593,-90.99741237
WI,55053,Jackson,Tanner Flowage,44.28121829,-90.57739379
WI,55053,Jackson,Teal Flowage,44.33130426,-90.6962741
WI,55053,Jackson,Trow Lake,44.4402189,-90.82671019
WI,55053,Jackson,Turtle Pond Lake,44.4367871788467,-90.9203259310848
WI,55053,Jackson,Wazee Lake,44.2899976692618,-90.722797906924
WI,55053,Jackson,Weber Flowage,44.29495936,-90.59057021
WI,55053,Jackson,White Tail Flowage,44.31957921,-90.60524182
WI,55053,Jackson,Wildcat Flowage,44.26528261,-90.62832424
WI,55053,Jackson,Wilson Marsh Flowage,44.30771456,-90.63153612
WI,55053,Jackson,Wyman Lake,44.16598896,-90.61062791
WI,55055,Jefferson,Bass Pond,42.9070538929665,-88.7164786817239
WI,55055,Jefferson,Bean Lake,43.05818469,-88.94464921
WI,55055,Jefferson,Big L,42.9071104492816,-88.7128978295878
WI,55055,Jefferson,Blue Spring Lake,42.85939657,-88.60024595
WI,55055,Jefferson,Cushman Pond,42.96262788,-88.66584606
WI,55055,Jefferson,Duck Pond,42.9062852685445,-88.7214996847497
WI,55055,Jefferson,Goose Lake,43.049689,-88.58245219
WI,55055,Jefferson,Goose Pond,42.9035532822486,-88.717186043847
WI,55055,Jefferson,Green Isle Lake,42.92828593,-88.68660856
WI,55055,Jefferson,Hahns Lake,43.13550817,-88.78319249
WI,55055,Jefferson,Haumerson Pond,42.92359247,-88.82772213
WI,55055,Jefferson,Heiden Pond,43.17591077,-88.72535914
WI,55055,Jefferson,Hoopers Millpond 16,43.09250259,-88.88435263
WI,55055,Jefferson,Hope Lake,43.02485942,-88.98408583
WI,55055,Jefferson,Lake Koshkonong,42.87241903,-88.96120444
WI,55055,Jefferson,Lake Ripley,43.00096095,-88.99172972
WI,55055,Jefferson,Lake Victoria,43.17508848,-88.72291114
WI,55055,Jefferson,Little L,42.9075406198969,-88.7125161127135
WI,55055,Jefferson,Pritchards Pond,42.8682460991372,-88.8913383649015
WI,55055,Jefferson,Red Cedar Lake,42.97683476,-88.98355759
WI,55055,Jefferson,Rock Lake,43.07833032,-88.93037283
WI,55055,Jefferson,Rome Pond,42.97985419,-88.6100115
WI,55055,Jefferson,Show Pond,42.9070016561664,-88.711335273372
WI,55055,Jefferson,Spring Lake 38,42.88020424,-88.57307335
WI,55055,Jefferson,Upper Spring Lake,42.88753664,-88.55320707
WI,55057,Juneau,0.1 Reservoir,43.77875644,-90.25273536
WI,55057,Juneau,0.2 Reservoir,43.79927434,-90.19894931
WI,55057,Juneau,0.36 Reservoir,43.81183887,-90.28462556
WI,55057,Juneau,0.48 Reservoir,43.69030875,-90.08639519
WI,55057,Juneau,0.58 Reservoir,43.67414279,-90.09947555
WI,55057,Juneau,2 Reservoir,44.22185855,-90.22103549
WI,55057,Juneau,6 Reservoir,44.19302822,-90.18628224
WI,55057,Juneau,7 Reservoir,44.19298669,-90.21265958
WI,55057,Juneau,Beaver Flowage,44.16111,-90.26504549
WI,55057,Juneau,Castle Rock Lake,43.93202423,-89.97877533
WI,55057,Juneau,Decorah Lake,43.80722526,-90.08499153
WI,55057,Juneau,Eagle Nest Flowage,44.07820476,-90.26350534
WI,55057,Juneau,Goose Pool,44.14521522,-90.19611055
WI,55057,Juneau,Greenhead Flowage,44.23216357,-90.21292894
WI,55057,Juneau,Kid's Fishing Pond,43.9502214026636,-90.0018749013952
WI,55057,Juneau,Kingston Flowage,44.20809979,-90.28476202
WI,55057,Juneau,Meadow Valley Flowage,44.22386771,-90.23915039
WI,55057,Juneau,Necedah Lake,44.03369572,-90.07151013
WI,55057,Juneau,New Lisbon Lake,43.88544426,-90.16267795
WI,55057,Juneau,Number Nineteen Pool,44.18627149,-90.19729551
WI,55057,Juneau,Number Thirteen Pool,44.17063622,-90.17693063
WI,55057,Juneau,Number Twenty-eight Pool,44.2141726,-90.16967906
WI,55057,Juneau,Number Two Pool,44.06882321,-90.18061602
WI,55057,Juneau,Pool Number Twentyseven,44.21547859,-90.19208002
WI,55057,Juneau,Portion of Meadow Valley Flowage,44.23149962,-90.22352031
WI,55057,Juneau,Portion of Meadow Valley Flowage 24,44.22378461,-90.26448029
WI,55057,Juneau,Rynearson Flowage 1,44.05884809,-90.1583023
WI,55057,Juneau,Suk and Cerney Flowage,44.04747621,-90.18042732
WI,55057,Juneau,Trout Lake,43.67819856,-89.85197066
WI,55057,Juneau,Wonder Lake,43.7220008147891,-89.880506763379
WI,55059,Kenosha,Barber Pond,42.52410291,-88.05364677
WI,55059,Kenosha,Bass Pond,42.6236106755094,-88.1305667465858
WI,55059,Kenosha,Benedict Lake,42.53540174,-88.30356799
WI,55059,Kenosha,Benet Lake,42.50307033,-88.06971822
WI,55059,Kenosha,Burr Oak Lake,42.6538141170815,-88.1115946368194
WI,55059,Kenosha,Camp Lake,42.52056967,-88.14433839
WI,55059,Kenosha,Center Lake,42.53797064,-88.13342765
WI,55059,Kenosha,Cigar Pond,42.6274136536399,-88.1779950551131
WI,55059,Kenosha,Cross Lake,42.49682126,-88.08710882
WI,55059,Kenosha,Dyer Lake,42.60566388,-88.29530635
WI,55059,Kenosha,Elizabeth Lake,42.50660294,-88.27097898
WI,55059,Kenosha,Flanagan Lake,42.61131637,-88.17927118
WI,55059,Kenosha,Four Dollar Flowage,42.6345987659716,-88.1718552626876
WI,55059,Kenosha,Friendship Lake,42.64247982,-88.08630038
WI,55059,Kenosha,George Lake,42.52656951,-88.03818396
WI,55059,Kenosha,Hooker Lake,42.55922058,-88.10100847
WI,55059,Kenosha,Juniper Lake,42.6497513310572,-88.1203764205644
WI,55059,Kenosha,Lake Andrea,42.5310209681958,-87.9199162822732
WI,55059,Kenosha,Lake Elizabeth,42.4969001061257,-87.9578018138633
WI,55059,Kenosha,Lake Mary,42.52368454,-88.25623729
WI,55059,Kenosha,Lake Victoria,42.5139697152792,-88.2520857522034
WI,55059,Kenosha,League Lake,42.58672607,-88.102548
WI,55059,Kenosha,Lilly Lake,42.56324941,-88.21252499
WI,55059,Kenosha,Montgomery Lake,42.55203123,-88.08686162
WI,55059,Kenosha,Mud Lake,42.50156123,-88.03678974
WI,55059,Kenosha,Paasch Lake,42.51290404,-88.049909
WI,55059,Kenosha,Paddock Lake,42.5731233,-88.10108976
WI,55059,Kenosha,Peat Lake,42.49829505,-88.15849431
WI,55059,Kenosha,Powers Lake,42.54637264,-88.29810212
WI,55059,Kenosha,Rock Lake,42.50156193,-88.1156363
WI,55059,Kenosha,Silver Lake,42.5508365,-88.15380294
