st2,GEOID,NAME,lakename,lat,lon
VT,50001,Addison,Abbey Pond,44.03325034,-73.05976399
VT,50001,Addison,Aimee's Pond,44.2420315026346,-73.1417382621974
VT,50001,Addison,Baldwin Pond,44.22745112,-73.05190215
VT,50001,Addison,Cedar Lake,44.25039204,-73.13338568
VT,50001,Addison,Choate Pond,43.77891594,-73.26862747
VT,50001,Addison,Dow Pond,44.01475934,-73.09763932
VT,50001,Addison,Fern Lake,43.86700633,-73.06980975
VT,50001,Addison,Fortier Pond,43.778475,-73.24321618
VT,50001,Addison,Gilmore Pond,44.08834779,-73.03678275
VT,50001,Addison,Higgins Pond,44.09681905,-73.06565557
VT,50001,Addison,Johnson Pond,43.76644028,-73.22358247
VT,50001,Addison,Kaolin Pond,44.1919273189357,-73.1232316661217
VT,50001,Addison,Lake Dunmore,43.90257326,-73.07524094
VT,50001,Addison,Middlebury Water Supply,44.0733715,-73.06068603
VT,50001,Addison,Mud Pond,43.76551224,-73.2697047
VT,50001,Addison,North Pond,44.10356653,-73.04693696
VT,50001,Addison,Pleiad Lake,43.93393178,-72.95831052
VT,50001,Addison,Red Rock Pond,44.0583458852769,-73.2803497754112
VT,50001,Addison,Silver Lake,43.89089066,-73.05255284
VT,50001,Addison,Skylight Pond,43.98670702,-72.93579814
VT,50001,Addison,Spruce Pond,43.7629236,-73.2778905
VT,50001,Addison,Sucker Brook Reservoir,43.9020798993925,-73.0412673105829
VT,50001,Addison,Sugar Hill Reservoir,43.91207566,-73.00230953
VT,50001,Addison,Swamp Pond,43.85424183,-73.1480073
VT,50001,Addison,Vergennes Watershed,44.15773865,-73.13870801
VT,50003,Bennington,Adams Reservoir,42.88637892,-73.03974289
VT,50003,Bennington,Barber Pond,42.79900988,-73.19315815
VT,50003,Bennington,Barbos Lake,43.14505829,-73.14791393
VT,50003,Bennington,Beaver Meadow,42.76781312,-72.98962248
VT,50003,Bennington,Beebe Pond,43.0525406,-73.03267578
VT,50003,Bennington,Big Pond,42.89120509,-73.06841596
VT,50003,Bennington,Billings Pond,42.89549029,-73.00845459
VT,50003,Bennington,Bourn Pond,43.10573629,-73.00191906
VT,50003,Bennington,Branch Pond,43.08108835,-73.01925116
VT,50003,Bennington,Bugbee Mill Pond,42.88080087,-73.0775063
VT,50003,Bennington,Bullhead Pond,43.20900751,-73.01715442
VT,50003,Bennington,Dorset Quarry,43.2362844289745,-73.0830531530317
VT,50003,Bennington,Dufresne Pond,43.18033736,-73.0282138
VT,50003,Bennington,Emerald Lake,43.27533503,-73.006026
VT,50003,Bennington,Equinox Pond,43.15576,-73.08939551
VT,50003,Bennington,Gale Meadows Pond,43.17178234,-72.87441675
VT,50003,Bennington,Gettysburg Quarry,43.2462255856271,-73.0696575131207
VT,50003,Bennington,Griffith Lake,43.30358515,-72.95916273
VT,50003,Bennington,Hapgood Pond,43.25396755,-72.89035106
VT,50003,Bennington,Hopper Pond,43.15044383,-73.15104714
VT,50003,Bennington,Howe Pond,42.78460093,-72.98600376
VT,50003,Bennington,Ice Pond,42.8669039022911,-73.1735956927213
VT,50003,Bennington,Intervale Pond,43.1375807274651,-72.8856683748213
VT,50003,Bennington,Lake Hancock,42.82450155,-73.1287594
VT,50003,Bennington,Lake Madeleine,43.16286558,-73.14304998
VT,50003,Bennington,Lake Paran,42.93266713,-73.23264428
VT,50003,Bennington,Lake Shaftsbury,43.02043748,-73.18241693
VT,50003,Bennington,Little Mud Pond,43.13396523,-72.98331258
VT,50003,Bennington,Lye Brook Meadows,43.08756718,-73.02848724
VT,50003,Bennington,Millers Pond,43.03896665,-73.16531998
VT,50003,Bennington,North Bennington Reservoir,42.96457924,-73.15908419
VT,50003,Bennington,Pickerel Pond,43.20663661,-73.01927752
VT,50003,Bennington,Prentiss Pond,43.25191485,-73.1052668
VT,50003,Bennington,Red Mill Pond,42.8895875,-73.02795452
VT,50003,Bennington,Searsburg Reservoir,42.9038678,-72.95056133
VT,50003,Bennington,South Stream Pond,42.81207525,-73.1804311
VT,50003,Bennington,South Village Pond,43.22799183,-73.01330911
VT,50003,Bennington,Stamford Pond,42.82219469,-73.06533595
VT,50003,Bennington,Stratton Mountain Lake,43.12263063,-72.89787782
VT,50003,Bennington,Trout Pond,43.1700554164284,-73.0636701661979
VT,50003,Bennington,Windsor Pond,42.74506861,-72.98122548
VT,50003,Bennington,Yaw Pond,42.84711924,-73.01312708
VT,50005,Caledonia,Beaver Pond,44.28061153,-72.2548933
VT,50005,Caledonia,Beck Pond,44.7292028,-71.9179171
VT,50005,Caledonia,Bruce Pond,44.64052997,-72.18796336
VT,50005,Caledonia,Center Pond,44.71339292,-71.92020949
VT,50005,Caledonia,Chandler Pond,44.53447835,-72.09559622
VT,50005,Caledonia,Coburn Pond,44.25321442,-72.08598698
VT,50005,Caledonia,Coles Pond,44.50866139,-72.21569569
VT,50005,Caledonia,Connecticut River Reservoir,44.33356767,-71.98662323
VT,50005,Caledonia,Cow Hill Pond,44.38242971,-72.20203546
VT,50005,Caledonia,Danville Reservoir,44.4194435,-72.16916596
VT,50005,Caledonia,Ewell Pond,44.36093603,-72.16308395
VT,50005,Caledonia,Flagg Pond,44.56516551,-72.20743909
VT,50005,Caledonia,Fosters Pond,44.32850998,-72.21060304
VT,50005,Caledonia,Goslant Pond,44.30271855,-72.30406213
VT,50005,Caledonia,Grays Pond,44.49610841,-71.99031453
VT,50005,Caledonia,Hardwick Center Pond,44.53762276,-72.31804641
VT,50005,Caledonia,Harvey Lake,44.29395895,-72.13823919
VT,50005,Caledonia,Jewett Pond,44.2824546,-72.13128552
VT,50005,Caledonia,Johnson Pond,44.49113739,-71.8674207
VT,50005,Caledonia,Keiser Pond,44.38641984,-72.17231272
VT,50005,Caledonia,Kings Pond,44.69778237,-72.0181146
VT,50005,Caledonia,Kirby Pond,44.50876586,-71.91559336
VT,50005,Caledonia,Lake Groton,44.26985912,-72.26489521
VT,50005,Caledonia,Levi Pond,44.26611717,-72.22744197
VT,50005,Caledonia,Library Pond,44.5346481703907,-72.0243444245752
VT,50005,Caledonia,Lily Pond,44.52267251,-71.99186297
VT,50005,Caledonia,Little Elligo Pond,44.57838474,-72.3638803
VT,50005,Caledonia,Long Pond,44.67622663,-72.14496271
VT,50005,Caledonia,Lyford Pond,44.4452966,-72.24831322
VT,50005,Caledonia,Marl Pond,44.69971937,-72.05968938
VT,50005,Caledonia,McLam Pond,44.25223157,-72.11066092
VT,50005,Caledonia,Newark Pond,44.7166591,-71.98227611
VT,50005,Caledonia,Noyes Pond,44.22767205,-72.31009545
VT,50005,Caledonia,Osmore Pond,44.30849413,-72.27859914
VT,50005,Caledonia,Peacham Pond,44.33079331,-72.25934926
VT,50005,Caledonia,Pigeon Pond,44.24734115,-72.32854588
VT,50005,Caledonia,Ricker Pond,44.24616674,-72.24405217
VT,50005,Caledonia,Round Pond,44.67665898,-72.15205372
VT,50005,Caledonia,Sarah Moores Pond,44.32390388,-72.07109503
VT,50005,Caledonia,Sawdust Pond,44.73174453,-71.97037237
VT,50005,Caledonia,Stannard Pond,44.52926615,-72.16655604
VT,50005,Caledonia,Stiles Pond,44.41623938,-71.9396441
VT,50005,Caledonia,Stuart Pond,44.50591728,-72.01411217
VT,50005,Caledonia,Symes Pond,44.24423735,-72.10198659
VT,50005,Caledonia,Ticklenaked Pond,44.18821727,-72.09916769
VT,50005,Caledonia,Tuttle Pond,44.55804858,-72.30940706
VT,50005,Caledonia,Vail Pond,44.70478413,-72.07250822
VT,50005,Caledonia,Walker Pond,44.74080768,-71.91716077
VT,50005,Caledonia,Wardens Pond,44.33016354,-72.07848353
VT,50005,Caledonia,Waterman Pond,44.49354332,-72.12335272
VT,50007,Chittenden,Arrowhead Mountain Lake,44.66974172,-73.1021965
VT,50007,Chittenden,Barge Canal,44.4673917785932,-73.2177926856256
VT,50007,Chittenden,Barnyard Pond,44.3158855952854,-72.9415433331459
VT,50007,Chittenden,Cattail Pond,44.316069521355,-72.941209087433
VT,50007,Chittenden,Colchester Pond,44.55350925,-73.11967546
VT,50007,Chittenden,Duck Pond,44.37725544,-73.26008298
VT,50007,Chittenden,Fishing Pond,44.5162020167076,-72.9442199083333
VT,50007,Chittenden,Gillett Pond,44.35391971,-72.9641228
VT,50007,Chittenden,Half Moon Cove,44.533407987618,-73.2550230598799
VT,50007,Chittenden,Indian Brook Reservoir,44.53498843,-73.09854648
VT,50007,Chittenden,Lake Iroquois,44.37006438,-73.08435816
VT,50007,Chittenden,Lily Pad Pond,44.50768905,-73.16197828
VT,50007,Chittenden,Long Pond,44.67434661,-73.19136667
VT,50007,Chittenden,Lower Pond,44.35101502,-73.08542555
VT,50007,Chittenden,Mill Pond,44.54163071,-73.15205687
VT,50007,Chittenden,Milton Pond,44.63476034,-73.06319339
VT,50007,Chittenden,Mud Pond,44.4148499101071,-73.0784121197097
VT,50007,Chittenden,Preston Pond,44.42377716,-72.90878448
VT,50007,Chittenden,Richmond Pond,44.41735439,-72.94658619
VT,50007,Chittenden,Shelburne Pond,44.38693751,-73.15985167
VT,50007,Chittenden,Underhill Pond,44.5088650171585,-72.8935689047762
VT,50007,Chittenden,Westford Pond,44.59569726,-73.06458005
VT,50007,Chittenden,Winooski Upper Reservoir,44.49866719,-73.17141197
VT,50009,Essex,Back Pond,44.81479598,-71.8683364
VT,50009,Essex,Beecher Pond,44.81179118,-71.84996155
VT,50009,Essex,Bog Pond,44.54628089,-71.82899043
VT,50009,Essex,Cow Mountain Pond,44.56181055,-71.70204681
VT,50009,Essex,Dennis Pond,44.72949205,-71.65789859
VT,50009,Essex,Dutton Pond,44.63996159,-71.60819479
VT,50009,Essex,Forest Lake,44.98490915,-71.68171878
VT,50009,Essex,Great Averill Pond,44.98432557,-71.70283811
VT,50009,Essex,Halfway Pond,44.97880303,-71.90197531
VT,50009,Essex,Hancock Pond,44.7568669,-71.89940832
VT,50009,Essex,Island Pond,44.80447897,-71.86798792
VT,50009,Essex,Lewis Pond,44.8829864,-71.78050442
VT,50009,Essex,Little Averill Pond,44.95570965,-71.71572419
VT,50009,Essex,Little Cow Pond,44.56168679,-71.69511146
VT,50009,Essex,Little Wheeler Pond,44.71549723,-71.63458249
VT,50009,Essex,Maidstone Lake,44.64772261,-71.64887903
VT,50009,Essex,McConnell Pond,44.8181089,-71.80393466
VT,50009,Essex,Mile Pond,44.77787258,-71.79896199
VT,50009,Essex,Miles Pond,44.44707244,-71.81126064
VT,50009,Essex,Moose Bog,44.7630250365267,-71.7396313698338
VT,50009,Essex,Mud Ponds,44.82814203,-71.92931075
VT,50009,Essex,Neal Pond,44.4905504,-71.6925811
VT,50009,Essex,Norton Pond,44.93705086,-71.8644389
VT,50009,Essex,Notch Pond,44.73992801,-71.7176243
VT,50009,Essex,Nulhegan Pond,44.79025119,-71.8169796
VT,50009,Essex,Paul Stream Pond,44.69025216,-71.62374833
VT,50009,Essex,Shadow Lake,44.40018879,-71.87142861
VT,50009,Essex,South American Pond,44.7052473,-71.74450153
VT,50009,Essex,Spectacle Pond,44.80014919,-71.85061233
VT,50009,Essex,Stevens Pond,44.5981821,-71.57079977
VT,50009,Essex,Sukes Pond,44.75457486,-71.89694368
VT,50009,Essex,Tuttle Pond,44.7060874,-71.62896693
VT,50009,Essex,West Mountain Pond,44.688898,-71.66313366
VT,50009,Essex,Wheeler Pond,44.70875149,-71.64072795
VT,50011,Franklin,Adams Pond,44.88008991,-72.72198164
VT,50011,Franklin,Big Marsh Slough,44.97213187,-73.14412103
VT,50011,Franklin,Browns Pond,44.80986562,-72.79042146
VT,50011,Franklin,Bullis Pond,44.9657123,-72.96536208
VT,50011,Franklin,Burleson Pond,44.97377752,-72.79642453
VT,50011,Franklin,Cutler Pond,44.98665758,-73.03759987
VT,50011,Franklin,Enosburg Falls Reservoir,44.93877753,-72.7810373
VT,50011,Franklin,Fairfield Pond,44.85468917,-72.98958429
VT,50011,Franklin,Guillmettes Pond,44.96095766,-72.6716177
VT,50011,Franklin,Halfmoon Pond,44.69715006,-72.93014451
VT,50011,Franklin,Kings Hill Pond,44.73690582,-72.78503142
VT,50011,Franklin,Lake Carmi,44.97232902,-72.87554023
VT,50011,Franklin,Little Pond,44.95668814,-72.82718989
VT,50011,Franklin,Lost Lake,44.76831977,-73.09274291
VT,50011,Franklin,Metcalf Pond,44.72906612,-72.88354921
VT,50011,Franklin,Proper Pond,45.00303598,-73.05480359
VT,50011,Franklin,Saint Albans Reservoir North,44.7642753,-73.06169651
VT,50011,Franklin,Saint Albans Reservoir South,44.75677879,-73.06341604
VT,50011,Franklin,Silver Lake,44.71074068,-73.06065704
VT,50013,Grand Isle,Eagle Pond,44.93553971,-73.26163362
VT,50013,Grand Isle,Lake Champlain,44.59115192,-73.30634417
VT,50015,Lamoille,Beaver Lake,44.6066355,-72.52620837
VT,50015,Lamoille,Belding Pond,44.6167941,-72.71076553
VT,50015,Lamoille,Belvidere Pond,44.76703843,-72.59942247
VT,50015,Lamoille,Big Muddy Pond,44.75586719,-72.60127704
VT,50015,Lamoille,Clear Pond,44.61646815,-72.50284572
VT,50015,Lamoille,Collins Pond,44.62154,-72.50431626
VT,50015,Lamoille,Corez Pond,44.75942667,-72.52259263
VT,50015,Lamoille,Green River Reservoir,44.63222701,-72.51946238
VT,50015,Lamoille,Gut Pond,44.69247072,-72.52133193
VT,50015,Lamoille,Hardwood Flats,44.47793705,-72.50182825
VT,50015,Lamoille,Hardwood Pond,44.46800151,-72.49950791
VT,50015,Lamoille,Joes Pond,44.50587811,-72.61958034
VT,50015,Lamoille,Keeler Pond,44.57494705,-72.39968383
VT,50015,Lamoille,Lake Eden,44.71881999,-72.5059165
VT,50015,Lamoille,Lake Elmore,44.53424298,-72.52498145
VT,50015,Lamoille,Lake Lamoille,44.57009681,-72.60817922
VT,50015,Lamoille,Lake Mansfield,44.47211694,-72.81625813
VT,50015,Lamoille,Lake of the Clouds,44.54859198,-72.81073589
VT,50015,Lamoille,Little Elmore Pond,44.49808975,-72.53161442
VT,50015,Lamoille,Little Pond,44.45990418,-72.49675422
VT,50015,Lamoille,Lower Pond,44.6401290937613,-72.6744967873647
VT,50015,Lamoille,Molly Pond,44.49983976,-72.6398582
VT,50015,Lamoille,Perch Pond,44.61069892,-72.49798622
VT,50015,Lamoille,Ritterbush Pond,44.74646805,-72.59963778
VT,50015,Lamoille,Round Pond,44.70646652,-72.52599358
VT,50015,Lamoille,Rush Pond,44.67101454,-72.53162797
VT,50015,Lamoille,Russ Pond,44.46252173,-72.53070105
VT,50015,Lamoille,Schofield Pond,44.64873907,-72.53256311
VT,50015,Lamoille,South Pond,44.68819819,-72.52710296
VT,50015,Lamoille,Sterling Pond,44.55608278,-72.77442752
VT,50015,Lamoille,Wapanacki Lake,44.55870225,-72.39997272
VT,50015,Lamoille,Wolcott Pond,44.56532567,-72.42045717
VT,50015,Lamoille,Zack Woods Pond,44.61033504,-72.50203871
VT,50017,Orange,Baker Pond,44.06762019,-72.63532783
VT,50017,Orange,Bernajean Pond,43.7888149176533,-72.2305650403275
VT,50017,Orange,Blodgett Pond,44.02908989,-72.10449723
VT,50017,Orange,Bog Pond,43.95299023,-72.14630437
VT,50017,Orange,Childs Pond,43.81916943,-72.19080036
VT,50017,Orange,Cutter Pond,44.09145297,-72.54899788
VT,50017,Orange,Eastman Pond,44.13120176,-72.17385761
VT,50017,Orange,Halls Lake,44.08621172,-72.12326094
VT,50017,Orange,Harriman Pond,44.10293228,-72.07947452
VT,50017,Orange,Holdens Pond,44.04133092,-72.58864545
VT,50017,Orange,Jones Pond,44.04338333,-72.49482941
VT,50017,Orange,Keyser Pond,43.95022509,-72.4363428
VT,50017,Orange,Lake Abenaki,43.8323084,-72.23492479
VT,50017,Orange,Lake Champagne,43.9459823974521,-72.6022740270293
VT,50017,Orange,Lake Fairlee,43.88807572,-72.22646602
VT,50017,Orange,Lake Morey,43.9227579,-72.15101885
VT,50017,Orange,Lamson Pond,44.06413381,-72.6109441
VT,50017,Orange,Limehurst Pond,44.10149481,-72.54966283
VT,50017,Orange,Long Pond,44.10434545,-72.1661173
VT,50017,Orange,Lower Orange Reservoir,44.16267673,-72.42328647
VT,50017,Orange,Middle Brook Pond,43.91769152,-72.23651542
VT,50017,Orange,Miller Pond,43.8929024,-72.30573763
VT,50017,Orange,Muddy Pond,44.10883899,-72.16630046
VT,50017,Orange,Norford Lake,43.80086552,-72.3041661
VT,50017,Orange,North Pond,44.04757884,-72.61793155
VT,50017,Orange,Norwich Reservoir,44.15704044,-72.21892342
VT,50017,Orange,Pickles Pond,43.99753629,-72.60767292
VT,50017,Orange,Private Pond,43.9849988095547,-72.1680079446984
VT,50017,Orange,Randolph Reservoir,43.93338243,-72.66793675
VT,50017,Orange,Riddel Pond,44.14082075,-72.34959773
VT,50017,Orange,Rood Pond,44.07665982,-72.58715816
VT,50017,Orange,Round Pond,44.1051012,-72.15888542
VT,50017,Orange,South Pond,44.0407185,-72.62154706
VT,50017,Orange,Staples Pond,44.08568072,-72.562687
VT,50017,Orange,Strafford Town Pond,43.8309439067895,-72.3691572044554
VT,50017,Orange,Sunset Lake,44.04200055,-72.60505314
VT,50017,Orange,Tenney Pond,44.15993875,-72.11317196
VT,50017,Orange,The Fish Pond,44.09209017,-72.06319954
VT,50017,Orange,Thurman W. Dix Reservoir,44.18588981,-72.42250374
VT,50017,Orange,Tunbridge Trout Pond,43.85823404,-72.45632851
VT,50017,Orange,Twin Ponds,44.06141039,-72.57824278
VT,50019,Orleans,Baker Pond,44.7461535,-72.2342985
VT,50019,Orleans,Bald Hill Pond,44.73959564,-71.97726986
VT,50019,Orleans,Brown Pond,44.73137351,-71.98185526
VT,50019,Orleans,Brownington Pond,44.8779315,-72.14757952
VT,50019,Orleans,Caspian Lake,44.58556391,-72.30935141
VT,50019,Orleans,Charleston Pond,44.89161856,-72.05348554
VT,50019,Orleans,Clarks Pond,44.64436289,-72.20400696
VT,50019,Orleans,Clyde Pond,44.93522699,-72.17185116
VT,50019,Orleans,Cobb Pond,44.91305284,-72.13704799
VT,50019,Orleans,Crystal Lake,44.73338572,-72.15398204
VT,50019,Orleans,Daniels Pond,44.67627173,-72.26293844
VT,50019,Orleans,Echo Lake,44.85972513,-71.99352071
VT,50019,Orleans,Farrell Pond,44.9187960991755,-72.2811747525788
VT,50019,Orleans,Fire Pond,44.6505867693217,-72.3785782177762
VT,50019,Orleans,Frog Pond,44.6792405611162,-72.3636240026261
VT,50019,Orleans,Great Hosmer Pond,44.69388537,-72.36104301
VT,50019,Orleans,Griggs Pond,44.77312971,-72.3252781
VT,50019,Orleans,Hartwell Pond,44.70430943,-72.29319842
VT,50019,Orleans,Holland Pond,44.98609294,-71.92885294
VT,50019,Orleans,Horse Pond,44.61757134,-72.21183151
VT,50019,Orleans,Jay Pond,44.93952159498,-72.5105631925758
VT,50019,Orleans,Jobs Pond,44.76247555,-71.95374545
VT,50019,Orleans,Kidder Pond,44.86932128,-72.3072631
VT,50019,Orleans,Lake Derby,44.95314741,-72.11652599
VT,50019,Orleans,Lake Elligo,44.6015288,-72.35666113
VT,50019,Orleans,Lake Parker,44.71951975,-72.23374927
VT,50019,Orleans,Lake Salem,44.92721159,-72.10254145
VT,50019,Orleans,Lake Willoughby,44.75011647,-72.05634771
VT,50019,Orleans,Line Pond,45.00691858,-71.91567582
VT,50019,Orleans,Little Hosmer Pond,44.67655232,-72.37653964
VT,50019,Orleans,Lockwood Pond,44.80093814,-72.55346504
VT,50019,Orleans,Max's Pond,44.7013593777091,-72.3464314809929
VT,50019,Orleans,May Pond,44.74207706,-72.11821673
VT,50019,Orleans,McAllister Pond,44.82929264,-72.48316322
VT,50019,Orleans,Page Pond,44.71451778,-72.36637039
VT,50019,Orleans,Pensioner Pond,44.87296404,-72.05569741
VT,50019,Orleans,Phillips Pond,44.92421757,-72.42259573
VT,50019,Orleans,Potters Pond,44.77708665,-72.31981613
VT,50019,Orleans,Round Pond,45.00174342,-71.92566229
VT,50019,Orleans,Sargent Pond,44.91412382,-72.27078887
VT,50019,Orleans,Seymour Lake,44.89402844,-71.98787591
VT,50019,Orleans,Shadow Lake,44.66806464,-72.22577819
VT,50019,Orleans,Smith Pond,44.91674709,-72.28133053
VT,50019,Orleans,Stillwater Pond,44.84022312,-71.93063947
VT,50019,Orleans,Sweeney Pond,44.69530447,-72.27672527
VT,50019,Orleans,Turtle Pond,44.99332817,-71.92192132
VT,50019,Orleans,Underpass Pond,44.86972429,-71.90309795
VT,50019,Orleans,Walker Pond,44.92551261,-72.25931319
VT,50019,Orleans,Wheeler Pond,44.7153349,-72.10115744
VT,50021,Rutland,Austin Pond,43.71605559,-73.19466363
VT,50021,Rutland,Beaver Meadow,43.68932584,-73.23284344
VT,50021,Rutland,Beaver Meadows,43.76596851,-72.89476002
VT,50021,Rutland,Beebe Pond,43.73409012,-73.18370944
VT,50021,Rutland,Big Mud Pond,43.31471437,-72.9306582
VT,50021,Rutland,Billings Marsh,43.60473346,-73.3775114
VT,50021,Rutland,Black Pond,43.70321916,-73.22412678
VT,50021,Rutland,Breese Pond,43.71418145,-73.21603104
VT,50021,Rutland,Bullhead Pond,43.73470778,-73.33121226
VT,50021,Rutland,Burnell Pond,43.83368196,-73.07640034
VT,50021,Rutland,Butler Pond,43.69444435,-73.08000505
VT,50021,Rutland,Chipman Lake,43.40749079,-73.03028243
VT,50021,Rutland,Chittenden Reservoir,43.7309362,-72.91092027
VT,50021,Rutland,Coggman Pond,43.62101624,-73.37502379
VT,50021,Rutland,Colton Pond,43.697627,-72.81972055
VT,50021,Rutland,Combination Pond,43.61365539,-72.95242431
VT,50021,Rutland,Cooks Pond,43.51168266,-72.85443844
VT,50021,Rutland,Danby Pond,43.36481202,-73.05203812
VT,50021,Rutland,Doughty Pond,43.75853989,-73.28285701
VT,50021,Rutland,Dunklee Pond,43.62228073,-72.97366617
VT,50021,Rutland,Echo Lake,43.74728769,-73.18168919
VT,50021,Rutland,Eddy Pond,43.59072336,-72.96184628
VT,50021,Rutland,Elfin Lake,43.4683726,-72.98807589
VT,50021,Rutland,Fifield Pond,43.40564222,-72.88665512
VT,50021,Rutland,Glen Lake,43.66355981,-73.23901438
VT,50021,Rutland,Halfmoon Lake,43.69293265,-73.21905426
VT,50021,Rutland,Hinkum Pond,43.76474978,-73.16800281
VT,50021,Rutland,Howard Pond,43.66077269,-73.27248182
VT,50021,Rutland,Huff Pond,43.78510316,-73.18128647
VT,50021,Rutland,Inman Pond,43.64285626,-73.27711161
VT,50021,Rutland,Johnson Pond,43.51808619,-72.84564555
VT,50021,Rutland,Jones Mill Pond,43.78267127,-73.06090469
VT,50021,Rutland,Kent Pond,43.67652678,-72.8038152
VT,50021,Rutland,Lake Bomoseen,43.65297271,-73.20959318
VT,50021,Rutland,Lake Hortonia,43.75118493,-73.20690718
VT,50021,Rutland,Lake Ninevah,43.46995137,-72.75636669
VT,50021,Rutland,Lake Saint Catherine,43.46754084,-73.2123392
VT,50021,Rutland,Lefferts Pond,43.7159383,-72.9013763
VT,50021,Rutland,Little Lake,43.43285643,-73.20332358
VT,50021,Rutland,Little Mud Pond,43.31621592,-72.9371533
VT,50021,Rutland,Little Rock Pond,43.4001528,-72.95592248
VT,50021,Rutland,Lost Pond,43.34040136,-72.94250841
VT,50021,Rutland,Loves Marsh,43.67091069,-73.20530069
VT,50021,Rutland,Marble Street Quarry Pond,43.6300171225515,-73.0576701488313
VT,50021,Rutland,Mill Pond,43.7040954,-73.28391406
VT,50021,Rutland,Moscow Pond,43.68421295,-73.23656891
VT,50021,Rutland,Mud Pond,43.74398456,-73.32918064
VT,50021,Rutland,Mudd Pond,43.73724929,-73.14623299
VT,50021,Rutland,Muddy Pond,43.62994581,-73.00397794
VT,50021,Rutland,North Pond,43.74886597,-72.88571567
VT,50021,Rutland,Patch Pond,43.63033209,-72.98303897
VT,50021,Rutland,Perch Pond,43.75121307,-73.27992809
VT,50021,Rutland,Pico Pond,43.64887053,-72.81249256
VT,50021,Rutland,Piedmont Pond,43.6091566,-72.95734812
VT,50021,Rutland,Pine Pond,43.63697813,-73.193231
VT,50021,Rutland,Reynolds Reservoir,43.64409929,-73.02549122
VT,50021,Rutland,Roach Pond,43.71566874,-73.20569708
VT,50021,Rutland,Rocky Pond,43.62630683,-73.00314353
VT,50021,Rutland,Rutland City Reservoir,43.64894123,-72.94295402
VT,50021,Rutland,Schoolhouse Marsh,43.59301109,-73.3875556
VT,50021,Rutland,Sheldon Pond,43.65886374,-73.26602228
VT,50021,Rutland,Smith Pond,43.71858935,-73.06149267
VT,50021,Rutland,South Pond,43.71617373,-72.87497106
VT,50021,Rutland,Spring Lake,43.49595446,-72.91890602
VT,50021,Rutland,Spring Pond,43.83543211,-73.06407077
VT,50021,Rutland,Star Lake,43.41887874,-72.81630368
VT,50021,Rutland,Strong Swamp,43.71032696,-73.32316709
VT,50021,Rutland,Sugar Hollow Pond,43.75616112,-73.02824332
VT,50021,Rutland,Summit Pond,43.6563235692687,-72.7888888760694
VT,50021,Rutland,Sunrise Lake,43.76030456,-73.26041655
VT,50021,Rutland,Sunset Lake,43.75588189,-73.27022356
VT,50021,Rutland,Tiny Pond,43.46031788,-72.72499922
VT,50021,Rutland,Upper Eddy Pond,43.59282965,-72.94739283
VT,50021,Rutland,Walker Pond,43.74262218,-73.14116696
VT,50021,Rutland,Walker Swamp,43.74361357,-73.28409397
VT,50021,Rutland,Wallingford Pond,43.4147019,-72.90830661
VT,50021,Rutland,Warner Cove,43.6545709935037,-73.032855298964
VT,50021,Rutland,Youngs Brook Reservoir,43.57162726,-73.05221038
VT,50023,Washington,Adamant Pond,44.33405249,-72.50249152
VT,50023,Washington,Bailey Pond,44.32742338,-72.34463221
VT,50023,Washington,bancroft pond,44.2451906108857,-72.3879073890954
VT,50023,Washington,Bancroft Pond,44.24700767,-72.38320446
VT,50023,Washington,Bear Swamp,44.36112638,-72.65040119
VT,50023,Washington,Beaver Meadow,44.28868868,-72.85355622
VT,50023,Washington,Beaver Pond,44.06044873,-72.72031379
VT,50023,Washington,Berlin Pond,44.19112227,-72.58768953
VT,50023,Washington,Bliss Pond,44.35259797,-72.50140012
VT,50023,Washington,Blue Pond,44.41163549,-72.46766027
VT,50023,Washington,Blueberry Lake,44.08179837,-72.82244644
VT,50023,Washington,Bolster Reservoir,44.15827747,-72.5277527
VT,50023,Washington,Buck Lake,44.46350159,-72.39752786
VT,50023,Washington,Butler Pond,44.3436887,-72.76291156
VT,50023,Washington,Chapels Pond,44.31564332,-72.51903535
VT,50023,Washington,Coits Pond,44.44779071,-72.32809009
VT,50023,Washington,Cranberry Meadow Pond,44.42098139,-72.45737943
VT,50023,Washington,Crystal Pool,44.30862175,-72.49302903
VT,50023,Washington,Curtis Pond,44.38324958,-72.49612072
VT,50023,Washington,Dobson Pond,44.44018741,-72.44882729
VT,50023,Washington,Dry Pond,44.14847081,-72.60161523
VT,50023,Washington,East Long Pond,44.44474994,-72.35519231
VT,50023,Washington,Forest Lake,44.40784445,-72.44151296
VT,50023,Washington,Goodall Pond,44.42647704,-72.43766532
VT,50023,Washington,Goose Pond,44.41083365,-72.83380074
VT,50023,Washington,Greenwood Lake,44.4588355,-72.42506109
VT,50023,Washington,Harry Pond,44.4083465,-72.42951297
VT,50023,Washington,Hawkins Pond,44.40321185,-72.50090654
VT,50023,Washington,Horn of the Moon Pond,44.32356548,-72.54171466
VT,50023,Washington,Joes Pond,44.4118787,-72.21906224
VT,50023,Washington,Kettle Pond,44.29551268,-72.31791959
VT,50023,Washington,King Ponds,44.41193704,-72.43412231
VT,50023,Washington,Knob Hill Pond,44.36062737,-72.37312648
VT,50023,Washington,Laird Pond,44.29143954,-72.3737129
VT,50023,Washington,Lake Robinson,44.06488205,-72.82697164
VT,50023,Washington,Leech Pond,44.42143841,-72.42995587
VT,50023,Washington,Little Mud Pond,44.38653449,-72.39068504
VT,50023,Washington,Little Pond,44.38629406,-72.43764606
VT,50023,Washington,Mirror Lake,44.39599686,-72.4437168
VT,50023,Washington,Mollys Falls Pond,44.357090695399,-72.2862975463557
VT,50023,Washington,Mollys Pond,44.39387554,-72.2369539
VT,50023,Washington,Nelson Pond,44.31833173,-72.52499819
VT,50023,Washington,Nichols Pond,44.45785845,-72.34254031
VT,50023,Washington,North Montpelier Pond,44.30899221,-72.44423745
VT,50023,Washington,Pecks Pond,44.16811098,-72.53651504
VT,50023,Washington,Pickett Pond,44.43924819,-72.3785744
VT,50023,Washington,Sabin Pond,44.40148793,-72.41687354
VT,50023,Washington,Shadow Pond,44.46565539,-72.41311956
VT,50023,Washington,Smith Pond,44.43037552,-72.46413065
VT,50023,Washington,Sodom Pond,44.32591589,-72.49996525
VT,50023,Washington,Tabor Pond,44.38735866,-72.47877963
VT,50023,Washington,Turtlehead Pond,44.32582686,-72.33069267
VT,50023,Washington,Valley Lake,44.44757986,-72.43999014
VT,50023,Washington,Vatters Pond,44.11576015,-72.62293368
VT,50023,Washington,Walton Pond,44.44523258,-72.4290103
VT,50023,Washington,Warren Lake,44.07796264,-72.8341305
VT,50023,Washington,Waterbury Reservoir,44.39636892,-72.75182329
VT,50023,Washington,Watson Pond,44.38738608,-72.48274123
VT,50023,Washington,Websterville Quarry,44.1622163003812,-72.4729827679922
VT,50023,Washington,West Hill Pond,44.41773647,-72.34298953
VT,50023,Washington,Wrightsville Reservoir,44.32345416,-72.57340901
VT,50025,Windham,Adam Pond,43.10818219,-72.76027458
VT,50025,Windham,Athens Pond,43.12233404,-72.60465114
VT,50025,Windham,Atherton Meadow,42.77704524,-72.90924256
VT,50025,Windham,Ball Mountain Lake,43.1258777,-72.78256879
VT,50025,Windham,Bowles Pond,43.1458362464755,-72.5072366735014
VT,50025,Windham,Burbees Pond,43.15271122,-72.73142035
VT,50025,Windham,Chestnut Hill Reservoir,42.8543551625755,-72.5664133791056
VT,50025,Windham,Clara Lake,42.79604346,-72.87910638
VT,50025,Windham,Cole Pond,43.14787099,-72.80595342
VT,50025,Windham,Crystal Pond,42.9122274,-72.91525963
VT,50025,Windham,Deer Park Pond,42.78981508,-72.71331919
VT,50025,Windham,East Pond,42.814994920375,-72.6620664437322
VT,50025,Windham,Elwin Meadow,42.97173058,-72.7558307
VT,50025,Windham,Fire Pond,43.1730791366876,-72.6158519836234
VT,50025,Windham,Forester Pond,43.0816413,-72.8671844
VT,50025,Windham,Gates Pond,42.81892186,-72.80681098
VT,50025,Windham,Grout Pond,43.04396379,-72.94438602
VT,50025,Windham,Gulf Brook Reservoir,43.11332907,-72.92556092
VT,50025,Windham,Harriman Reservoir,42.82873812,-72.89736048
VT,50025,Windham,Haystack Pond,42.91801249,-72.91641793
VT,50025,Windham,Hidden Lake,42.88185137,-72.71894745
VT,50025,Windham,Ice Pond,42.8624178641016,-72.5751537631812
VT,50025,Windham,Jacksonville Pond,42.80134596,-72.81600024
VT,50025,Windham,Kenny Pond,42.98910482,-72.70560977
VT,50025,Windham,Lake Clara,42.79578442,-72.88079458
VT,50025,Windham,Lake Raponda,42.87515085,-72.8187323
VT,50025,Windham,Laurel Lake,42.81964426,-72.81789445
VT,50025,Windham,Lowell Lake,43.22568066,-72.76197405
VT,50025,Windham,Minards Pond,43.14316173,-72.46942675
VT,50025,Windham,Mirror Lake,42.9200003954624,-72.8848593402651
VT,50025,Windham,Pine Lake,42.75491448,-72.8788531
VT,50025,Windham,Pleasant Valley Reservoir,42.88463905,-72.61229576
VT,50025,Windham,Ryder Pond,42.81557727,-72.84465299
VT,50025,Windham,Sadawga Lake,42.78085231,-72.87796531
VT,50025,Windham,Shep Meadow,42.99159231,-72.98334244
VT,50025,Windham,Sherman Reservoir,42.73963628,-72.92628374
VT,50025,Windham,Shippee Pond,42.74641719,-72.83502424
VT,50025,Windham,Snow Lake,42.9652933982276,-72.8888918152894
VT,50025,Windham,South Pond,42.84403033,-72.71298288
VT,50025,Windham,Spruce Lake,42.85094541,-72.8385825
VT,50025,Windham,Stratton Pond,43.10456252,-72.96864025
VT,50025,Windham,Sunset Lake,42.91826247,-72.68375545
VT,50025,Windham,Sweet Pond,42.75405311,-72.63450351
VT,50025,Windham,Tunn Ponds,43.1289986868696,-72.600809603484
VT,50025,Windham,Vernon Hatchery Pond,42.74298275,-72.49863144
VT,50025,Windham,Watson Pond,43.07553939,-72.50878729
VT,50025,Windham,Weatherhead Hollow Pond,42.74237247,-72.61131267
VT,50027,Windsor,Amherst Lake,43.48636385,-72.70453377
VT,50027,Windsor,Amity Pond,43.72882377,-72.53190036
VT,50027,Windsor,Ansel Pond,43.83684752,-72.61785003
VT,50027,Windsor,Beaver Pond,43.57360196,-72.4638996
VT,50027,Windsor,Black Pond,43.55264808,-72.75402888
VT,50027,Windsor,Bloodsucker Pond,43.33652676,-72.42908567
VT,50027,Windsor,C C C Pond,43.81675189,-72.39346676
VT,50027,Windsor,Carlton Reservoir,43.59922653,-72.54209479
VT,50027,Windsor,Colby Pond,43.47119447,-72.66568897
VT,50027,Windsor,Cook Pond,43.43026809,-72.70727766
VT,50027,Windsor,Cooks Pond,43.3761907,-72.45121064
VT,50027,Windsor,Copper Pond,43.72507679889,-72.5920381626982
VT,50027,Windsor,Cox Reservoir,43.615803,-72.56360719
VT,50027,Windsor,Crescent Lake,43.80221422,-72.40866872
VT,50027,Windsor,Crystal Pond,43.59373438,-72.47689902
VT,50027,Windsor,Echo Lake,43.47381608,-72.70073067
VT,50027,Windsor,Grass Pond,43.54688356,-72.73723746
VT,50027,Windsor,Greenlee Pond,43.83603181787,-72.5060132252149
VT,50027,Windsor,Hidden Pond,43.5953202720374,-72.4760640307234
VT,50027,Windsor,Jewell Brook Site Number 1 Reservoir,43.36149231,-72.72344291
VT,50027,Windsor,Jewell Brook Site Number 2 Reservoir,43.36744953,-72.72736562
VT,50027,Windsor,Jewell Brook Site Number 3 Reservoir,43.39180471,-72.71360657
VT,50027,Windsor,Jewell Brook Site Number 5 Reservoir,43.38091055,-72.72338761
VT,50027,Windsor,Kings Pond,43.86055203,-72.87256105
VT,50027,Windsor,Knapp Brook Pond Number 1,43.44709814,-72.56267728
VT,50027,Windsor,Knapp Brook Ponds,43.44948898,-72.5689727
VT,50027,Windsor,Lake Pinneo,43.6524379,-72.43237028
VT,50027,Windsor,Lake Rescue,43.45183884,-72.70179518
VT,50027,Windsor,Lake Runnenede,43.48452327,-72.39098772
VT,50027,Windsor,Lakota Lake,43.68632909,-72.64580836
VT,50027,Windsor,Lewin Pond,43.77204679,-72.21625652
VT,50027,Windsor,Line Pond,43.71741846,-72.56701387
VT,50027,Windsor,Lower Hurricane Reservoir,43.6471535,-72.36947184
VT,50027,Windsor,Mecawee Pond,43.55575905,-72.63900055
VT,50027,Windsor,Mill Pond,43.47256865,-72.39815451
VT,50027,Windsor,Mitchell Pond,43.74880064,-72.40304499
VT,50027,Windsor,Moores Ponds,43.5220424,-72.72194074
VT,50027,Windsor,Moses Pond,43.33419695,-72.84294122
VT,50027,Windsor,North Hartland Reservoir,43.61450465,-72.38609167
VT,50027,Windsor,North Springfield Reservoir,43.34601115,-72.50655283
VT,50027,Windsor,Peabody Pond,43.31731126,-72.8443219
VT,50027,Windsor,Potwin Pond,43.6604194733338,-72.4349950612174
VT,50027,Windsor,Quarry Pond,43.37275542,-72.53551028
VT,50027,Windsor,Reading Pond,43.50186437,-72.6530036
VT,50027,Windsor,Reservoir Pond,43.43856746,-72.69802301
VT,50027,Windsor,Silver Lake,43.72916314,-72.61082244
VT,50027,Windsor,Simonds Reservoir,43.63897687,-72.35501374
VT,50027,Windsor,Springfield Reservoir,43.35219649,-72.48822558
VT,50027,Windsor,Standing Pond,43.81744829,-72.42558589
VT,50027,Windsor,Stoughton Pond,43.38009939,-72.49982426
VT,50027,Windsor,The Pogue,43.63379882,-72.54253884
VT,50027,Windsor,Upper Hurricane Reservoir,43.64328871,-72.3731893
VT,50027,Windsor,Upper Moore Pond,43.52469626,-72.72252381
VT,50027,Windsor,View Pond,43.60122066,-72.52345497
VT,50027,Windsor,Vondell Reservoir,43.628819,-72.57245885
VT,50027,Windsor,Wantastiquet Lake,43.30883483,-72.81668613
VT,50027,Windsor,Woodward Reservoir,43.56577944,-72.75853079
VT,50027,Windsor,Wright Reservoir,43.64622472,-72.34961467
