st2,GEOID,NAME,lakename,lat,lon
AL,1003,Baldwin,Justins Bay,30.6813403707473,-87.939605622814
AL,1003,Baldwin,Gator Lake,30.2373566280181,-87.82107018595
AL,1015,Calhoun,Training Lake,33.7476801032106,-85.7806636590921
AL,1073,Jefferson,Paradise Lake,33.3688464755096,-86.8224374475961
AL,1017,Chambers,Riverside Number One Lake,32.8716054654399,-85.214611330952
AL,1017,Chambers,Lanier Lake,32.892853631688,-85.2073096660389
AL,1111,Randolph,Higgins Lake,33.2852666697195,-85.3101332177081
AL,1017,Chambers,Langley Lake,33.0637479086816,-85.2765285690804
AL,1017,Chambers,Stricklands Lake,33.098577730288,-85.2774346322114
AL,1017,Chambers,Baker Lake,33.0915704858981,-85.2717614407927
AL,1017,Chambers,Hudson Lake,33.0764644196201,-85.2327872552163
AL,1017,Chambers,Thompson Lake,32.9850518525486,-85.2584358408989
AL,1017,Chambers,Philips Lake,32.8518928472811,-85.2200106201369
AL,1081,Lee,Lake Harding,32.6956337498728,-85.1213592226952
AL,1017,Chambers,Kilpatrick Lake,32.7673216595102,-85.2826657697484
AL,1017,Chambers,Cunningham Lake,33.0401177568245,-85.2280752630251
AL,1017,Chambers,Chambers County State Lake,32.8272273428436,-85.3528596051863
AL,1017,Chambers,Robinson Lake,32.9570977470823,-85.3863916302023
AL,1017,Chambers,Taunton Lake,32.7797183756627,-85.2089270681836
AL,1081,Lee,Smiths Lake,32.5576135884267,-85.0749237862354
AL,1017,Chambers,Hill Lake,32.9189399674749,-85.2382851346171
AL,1017,Chambers,Jones Lake,32.9312803746577,-85.22544505277
AL,1017,Chambers,Flint Hill Lake,32.7537446021362,-85.3462603387518
AL,1017,Chambers,Hincle Lake,32.7380225363381,-85.3975895813468
AL,1017,Chambers,Wheeler Lake,32.9222320860678,-85.3879004980546
AL,1111,Randolph,Bartlett Pond,33.1495999863834,-85.353219832142
AL,1017,Chambers,Simmons Lake,32.8891884312446,-85.2205817598884
AL,1081,Lee,Lake Condy,32.6785510437941,-85.3600478756456
AL,1017,Chambers,Hills Lake,32.8771440017877,-85.251686680445
AL,1015,Calhoun,Lake Haven,33.8947737798891,-85.6568211395335
AL,1029,Cleburne,Lake Charles,33.6755244304043,-85.5569969757277
AL,1029,Cleburne,Lake Cleburne,33.6067457812006,-85.5373848941076
AL,1019,Cherokee,Terrapin Creek Lake Number 8,33.9973962774814,-85.561801436319
AL,1111,Randolph,Brady Lake,33.4570198199998,-85.5336701312792
AL,1111,Randolph,Burns Lakes,33.3099092089212,-85.4356044395698
AL,1029,Cleburne,Abel Lake,33.5428351226936,-85.6864546655668
AL,1049,DeKalb,Temples Lake,34.3861295269616,-85.7315241936995
AL,1111,Randolph,Woodland Lake,33.3537819202447,-85.4006964586108
AL,1029,Cleburne,Bonner Lake,33.6282298676789,-85.6324219029652
AL,1029,Cleburne,Beecham Lake,33.9390449446037,-85.4730526052087
AL,1049,DeKalb,Lake Lahusage,34.5284693812651,-85.523464139175
AL,1029,Cleburne,Gold Mine Lakes,33.541425363916,-85.6393217523789
AL,1029,Cleburne,Snows Lake,33.9402118388201,-85.3980980380513
AL,1029,Cleburne,Mountain Brook Lake,33.7448891746112,-85.511296868598
AL,1029,Cleburne,Robinson Lake Number 2,33.5104791281146,-85.3725442510591
AL,1111,Randolph,Boyd Lake,33.4267977106441,-85.5446286361084
AL,1029,Cleburne,Nelsons Lake,33.7459670222408,-85.4365970616465
AL,1027,Clay,Lake Henry,33.4729101803665,-85.768623347705
AL,1019,Cherokee,Helms Lake,34.1668479320398,-85.809599209383
AL,1019,Cherokee,Norton Lake,34.0167638999216,-85.512254210961
AL,1111,Randolph,Moores Pond,33.3480993552111,-85.3118707625831
AL,1027,Clay,Lake Gerald,33.4332087251685,-85.6743410489801
AL,1029,Cleburne,Lost Creek Lake Number 3,33.5552630975257,-85.3572457965171
AL,1019,Cherokee,Mcgee Lake,33.9772289360474,-85.4540851649884
AL,1029,Cleburne,Boy Scout Lake,33.5197201866302,-85.6670129471083
AL,1019,Cherokee,La Garde Lake,33.9629573827806,-85.5510900855863
AL,1027,Clay,Lake David,33.3866329121115,-85.7473739816886
AL,1027,Clay,Lake Virginia,33.4346288864576,-85.6971099239623
AL,1049,DeKalb,Republic Lake,34.524780078807,-85.6131810692213
AL,1111,Randolph,Barton Lake,33.3306233426134,-85.4732614495876
AL,1029,Cleburne,Laminack Lake,33.7391014009861,-85.3940309009044
AL,1029,Cleburne,Mineral Spring Pond,33.9591328775717,-85.4207376452865
AL,1027,Clay,Bonner Lake,33.38447614732,-85.8107764555791
AL,1029,Cleburne,Lost Creek Lake Number 1,33.575622758815,-85.3367027730451
AL,1029,Cleburne,White Lake Number 2,33.5733787534488,-85.6833119116265
AL,1027,Clay,Center Hill Lake,33.3982682742198,-85.7057356636813
AL,1027,Clay,Upper State Lake,33.4360301990581,-85.7092477525633
AL,1019,Cherokee,Lake Weisner,34.0686570185095,-85.6751081852012
AL,1029,Cleburne,Terrapin Creek Lake Number 15,33.8855993298983,-85.4816160643387
AL,1029,Cleburne,Lake Heflin,33.6405392618845,-85.5800270024976
AL,1015,Calhoun,Lake Watson,33.9289591338564,-85.6719224659651
AL,1029,Cleburne,Terrapin Creek Lake Number 31,33.8922551415908,-85.5270491132921
AL,1019,Cherokee,Woods Lake,34.0032522926936,-85.6266639496277
AL,1049,DeKalb,Cashs Lake,34.3172672312132,-85.7360092952776
AL,1111,Randolph,New Hope Lake,33.3195438741707,-85.423930669193
AL,1111,Randolph,Mcmanus Pond,33.2640814203063,-85.4242809680114
AL,1029,Cleburne,Owens Lake,33.6963415269385,-85.5575329096534
AL,1029,Cleburne,Robinson Lake,33.601346777435,-85.6367629592213
AL,1019,Cherokee,Arrington Lake Number 1,33.9641534635828,-85.438267463137
AL,1029,Cleburne,Creighton Number 2 Lake,33.5460438647181,-85.6564748851793
AL,1049,DeKalb,Moon Lake,34.5669564478327,-85.573783633187
AL,1027,Clay,Burchfield Lake,33.3971604284174,-85.7972673201653
AL,1111,Randolph,Nelson Lake,33.4048745648959,-85.4954705382469
AL,1029,Cleburne,Thomas Lake,33.6465935654008,-85.6164239302754
AL,1029,Cleburne,White Lake Number 1,33.5753591500567,-85.6830850524342
AL,1027,Clay,Clay County Lake,33.4305485378181,-85.7030609686219
AL,1029,Cleburne,Terrapin Creek Lake Number 22,33.8773065499926,-85.4300870496795
AL,1049,DeKalb,Achunachi Lake,34.5282003207808,-85.6215970707024
AL,1029,Cleburne,Lost Creek Lake Number 2,33.5710344028076,-85.3468471761175
AL,1029,Cleburne,Lost Creek Lake Number 4,33.5411114565551,-85.3692383333129
AL,1019,Cherokee,Terrapin Creek Lake Number 17,33.9999927037267,-85.4466276276893
AL,1073,Jefferson,Crest Lake,33.3585411471753,-86.859162027432
AL,1117,Shelby,Fultons Lake,33.2310453524981,-86.7874861496235
AL,1117,Shelby,Kimberly Clark Lake,33.2462049624058,-86.7734191889129
AL,1117,Shelby,Bowden Lake,33.2490229142791,-86.6827671497312
AL,1117,Shelby,Bounds Lake,33.2264417681805,-86.7189540909739
AL,1117,Shelby,Dobbin Brothers Lake,33.2559883800704,-86.7870911739189
AL,1089,Madison,Intergraph Lake,34.6736597849305,-86.7442106382235
AL,1089,Madison,McDaniel's Pond,34.7379328196979,-86.7738184909531
AL,1073,Jefferson,B Mountain Lake,33.3661310319885,-86.8753555825601
AL,1073,Jefferson,Scout Lake,33.3443568407315,-86.8565473634446
AL,1073,Jefferson,Lake Trace,33.3395310554785,-86.8600338280149
AL,1073,Jefferson,Star Lake,33.4010413307259,-86.8141140841505
AL,1073,Jefferson,Guyton Lake,33.3353081260375,-86.8850572017335
AL,1073,Jefferson,Johnsons Lake,33.3280684906189,-86.8919083985337
AL,1103,Morgan,Morgan Lake,34.5645415377995,-86.9842410601219
AL,1089,Madison,"Smith, Walker and Johnson Lake",34.6867229423463,-86.3702215578919
AL,1125,Tuscaloosa,Lake Nicol,33.3041826848118,-87.4801444420274
AL,1007,Bibb,Giles Lake,33.2269400227013,-87.1551623065423
AL,1125,Tuscaloosa,Gilbert Thomas Lake,33.2866890405814,-87.098503675398
AL,1007,Bibb,Miller Lake,33.231204005339,-87.1460346182702
AL,1125,Tuscaloosa,Ski Lake,33.2877478769224,-87.1415660081231
AL,1125,Tuscaloosa,Rockview Lake,33.2871693196045,-87.0907898980136
AL,1083,Limestone,Burgreen Lake,34.7266945152199,-86.7983453529749
AL,1089,Madison,Walden Pond,34.7260036815324,-86.7791401926778
AL,1049,DeKalb,Well Flat,34.757750675891,-85.5868996831323
AL,1125,Tuscaloosa,Lake Forest,33.1958209427457,-87.5343764614089
AL,1125,Tuscaloosa,Springhill Lake,33.1590805956317,-87.4869511587922
AL,1103,Morgan,Lake Chulavista,34.5357444847053,-87.0603748178256
AL,1089,Madison,Duck Pond,34.7217673909051,-86.6431787082889
AL,1125,Tuscaloosa,William Bacon Oliver Lake,33.2314108130634,-87.5250472499184
AL,1125,Tuscaloosa,Northwood Lake,33.252799789973,-87.5812807531473
AL,1117,Shelby,Wilborn Lake,33.3270659150221,-86.8594915331993
AL,1015,Calhoun,Finks Lake,33.7435106816231,-85.8426702214665
AL,1015,Calhoun,Hillabee Reservoir,33.5690122737911,-85.7474487225232
AL,1015,Calhoun,Crystal Springs Lake,33.85538543357,-85.9094054001023
AL,1015,Calhoun,Boozer's Lake,33.8328059583766,-85.8018157089385
AL,1113,Russell,Moon Lake,32.4984615532458,-85.0088582411698
AL,1079,Lawrence,Swoop Pond,34.6845695555865,-87.260070001821
AL,1115,St. Clair,Big Oak Girl's Ranch Lake,33.8257370872413,-86.3853020714291
AL,1125,Tuscaloosa,Marrs Spring,33.2145250926856,-87.5479491912873
AL,1125,Tuscaloosa,Palmer Lake,33.2179492775971,-87.5474976474117
AL,1125,Tuscaloosa,Lake Lurleen,33.2961970097879,-87.6807894838828
AL,1125,Tuscaloosa,Lake Arnedra,33.290321267963,-87.7005305828395
AL,1129,Washington,D R Stallworth Pond,31.2638471575597,-88.3525827927786
AL,1117,Shelby,Old Lake,33.348357388701,-86.7235561441729
AL,1117,Shelby,Lunker Lake,33.378876805441,-86.6923756438104
AL,1117,Shelby,Beaver Lake,33.3703665225616,-86.702013426363
AL,1003,Baldwin,Shelby Lake,30.2605000731858,-87.6633536015836
AL,1003,Baldwin,Middle River,30.2689897822313,-87.6222711511838
AL,1003,Baldwin,Little Lake,30.2735499466605,-87.6153499415469
AL,1003,Baldwin,Middle Lake,30.2629698596912,-87.637106311935
AL,1003,Baldwin,Reeder Lake,30.482899307742,-87.4424883926186
AL,1003,Baldwin,Ingram Bayou,30.3178285072205,-87.5551726669173
AL,1003,Baldwin,Bay La Launch,30.3054512755875,-87.5581816854329
AL,1003,Baldwin,Wolf Bay,30.3207169398762,-87.5926458373701
AL,1025,Clarke,Fishing Lake,31.2608188760052,-87.9477899516239
AL,1129,Washington,Hellcat Lake,31.2434911781667,-87.9574266794056
AL,1129,Washington,Side Lake Bayou,31.291791132919,-87.9530172029937
AL,1129,Washington,Otter Bayou,31.2931534025298,-87.9633382119549
AL,1129,Washington,Three Rivers Lake,31.3021193713885,-87.9725362818268
AL,1099,Monroe,Smith Lake,31.3140393861677,-87.7556784444636
AL,1025,Clarke,Choctaw Lake,31.369437132277,-87.7572184902704
AL,1047,Dallas,"William ""Bill"" Dannelly Reservoir",32.146151520007,-87.264885755387
AL,1011,Bullock,Martin Lake,32.0860683319128,-85.7645358842488
AL,1011,Bullock,Goodman Lake,32.0682580024856,-85.7663189931214
AL,1011,Bullock,Allen Lake,32.0678480533168,-85.7710778805354
AL,1051,Elmore,Thurlow Reservoir,32.5508163215795,-85.8879444857432
AL,1073,Jefferson,East Lake,33.5699361128137,-86.7260032634548
AL,1081,Lee,Lake Thel,32.5393852507327,-85.1106678095115
AL,1085,Lowndes,Gaston Lake Two,32.0741154628086,-86.4784778167642
AL,1025,Clarke,Horseshoe Lake,31.6565844171572,-88.0661457133065
AL,1089,Madison,Lady Ann Lake,34.6664962942764,-86.723225885941
AL,1073,Jefferson,Echo Lake,33.7278135429163,-86.5421855405126
AL,1073,Jefferson,Lake in the Woods,33.7129973131467,-86.5621153680052
AL,1073,Jefferson,Hidden Vally Lake,33.6935312093228,-86.5855597306155
AL,1073,Jefferson,Old Camp Cosby Lake,33.6849088639306,-86.6247036635564
AL,1073,Jefferson,Hubbard Lake,33.6757762794459,-86.539671964517
AL,1073,Jefferson,Holcomb Lake,33.6518949847272,-86.5454298568534
AL,1073,Jefferson,Windsong Lake,33.6295899030127,-86.5585313316089
AL,1073,Jefferson,Wild Acres Lake,33.6280952943053,-86.55085211967
AL,1107,Pickens,Aliceville Lake,33.2466575272153,-88.2887657071936
AL,1003,Baldwin,Roberts Bayou,30.3254085794185,-87.5359532702426
AL,1053,Escambia,Leon Brooks Hines Lake,31.0308393981906,-86.8317054112253
AL,1073,Jefferson,Lake 2,33.6399410001845,-86.535459090571
AL,1003,Baldwin,Cook Lake,30.5169318516384,-87.517226521398
AL,1003,Baldwin,Pace Lake,30.5211198328406,-87.5098152500238
AL,1125,Tuscaloosa,Harris Lake,33.2717938222624,-87.476490975467
AL,1069,Houston,Emerald Lake,31.2551805887582,-85.4155006610757
AL,1117,Shelby,Long Branch Lake,33.1111220960484,-86.6746081935438
AL,1097,Mobile,Gaillard Lake,30.2472158509271,-88.0877835046088
AL,1059,Franklin,Sloss Lake,34.4868233678786,-87.7099589571178
AL,1059,Franklin,City Lake,34.5214524732655,-87.7388350048354
AL,1003,Baldwin,Big Bateau Bay,30.7039878039295,-87.9506690211004
AL,1125,Tuscaloosa,Indian Lake,33.2447842727118,-87.5534998868528
AL,1073,Jefferson,Sea Lions,33.4873996907517,-86.7780374866451
AL,1073,Jefferson,American Alligator,33.4867216555527,-86.7776027915011
AL,1073,Jefferson,Flamingo,33.4864815953147,-86.778346763606
AL,1073,Jefferson,Reflection Pool,33.4909972237358,-86.7755250198337
AL,1073,Jefferson,Pelican Lake,33.4868372304099,-86.7781879277692
AL,1113,Russell,Asbury Park Lake,32.4290758782611,-85.0148949441124
AL,1073,Jefferson,City of Birmingham - Roebuck Plaza Lake,33.5998910616433,-86.6321846414756
AL,1003,Baldwin,Steelwood Lake,30.700093646021,-87.7331101372167
AL,1073,Jefferson,Zamora Lake,33.7520131300075,-86.6059356401875
AL,1009,Blount,Lake Pittman,33.7665753401183,-86.6077480619398
AL,1009,Blount,Mountain Lake,33.7798372513661,-86.61314479806
AL,1073,Jefferson,Woodhaven Lake,33.7630563852639,-86.6158525726885
AL,1039,Covington,Open Pond,31.0911011509369,-86.5479083343731
AL,1009,Blount,Highland Lake,33.8874615766897,-86.4236104081616
AL,1009,Blount,Sugarland Lake,33.8976799686739,-86.4075086255564
AL,1009,Blount,McKay Lake,33.9055393820058,-86.4072518698314
AL,1009,Blount,Inland Lake,33.8411906686402,-86.5169715515705
AL,1061,Geneva,Lakeside Estates Lake,31.0080202243235,-85.8880514913399
AL,1115,St. Clair,Tekawitha Lake,33.7710407665418,-86.5537507816145
AL,1003,Baldwin,Patterson Lake,31.1613409212129,-87.7053707429246
AL,1029,Cleburne,Coleman Lake,33.7818364492105,-85.5603663181954
AL,1009,Blount,Curtis Williams Lake,34.1892346405374,-86.4947937838375
AL,1089,Madison,Jake's Bog,34.5853824218448,-86.7254162720651
AL,1117,Shelby,Lay lake,33.0298027388857,-86.5181387959054
AL,1065,Hale,Cypress Cutoff Lake,32.9713736533629,-87.7266612536229
AL,1065,Hale,Payne Lake,32.8862877106606,-87.4427407733613
AL,1083,Limestone,Lake Gary,34.6936897009003,-86.8135793780655
AL,1013,Butler,Sherling Lake;Lower Lake,31.8969705606865,-86.6810073888365
AL,1123,Tallapoosa,Junior College Lake,32.923074645447,-85.9453547125094
AL,1081,Lee,Prather Lake,32.6078456937141,-85.4552117961101
AL,1069,Houston,Wheelless Lake,31.2295213108717,-85.4925391083707
AL,1081,Lee,Websters Pond,32.5992639159642,-85.5246771111416
AL,1115,St. Clair,Elam Lake,33.7682900396739,-86.4823880722904
AL,1115,St. Clair,Macdonald Lake,33.7853119636906,-86.4587910841778
AL,1059,Franklin,Elliott Reservoir,34.5169070838533,-87.7992224763101
AL,1115,St. Clair,Lake Sumatanga,33.9574555823987,-86.2639799465616
AL,1083,Limestone,Hatfield Lake,34.7607992647413,-86.9479777573933
AL,1007,Bibb,Kimberly Clark Paper Company Lake,33.0811138168968,-87.0407332915522
AL,1109,Pike,Crowes Pond,31.8107178714886,-85.9431222563544
AL,1039,Covington,Lake Jackson,30.9943790239601,-86.3253790971664
AL,1039,Covington,Thomas Pond,31.0248976990002,-86.3053415357876
AL,1101,Montgomery,Belser Lake,32.3436206571339,-86.0610907533105
AL,1109,Pike,Sorrell Lake,31.833118039442,-85.8308615996242
AL,1109,Pike,Pine Lake,31.8334103725216,-85.8387557485627
AL,1083,Limestone,Alden Lake,34.7705781809568,-86.7900401988208
AL,1089,Madison,Romine Lake,34.7533225103633,-86.7786529503891
AL,1115,St. Clair,Springville Sportsman's Lake,33.7182412821862,-86.4162368768355
AL,1115,St. Clair,Clayton Lake,33.6388883368209,-86.4028005750595
AL,1115,St. Clair,Tabb Lake,33.6394038702522,-86.3148922815574
AL,1073,Jefferson,Georgetown Lake,33.4029032052011,-86.7968386618662
AL,1125,Tuscaloosa,Prudes Mill Pond,33.2202768500648,-87.4461631093693
AL,1099,Monroe,Steels Lake Number One,31.7426702240488,-87.1824322255061
AL,1097,Mobile,Dawes Lake,30.6229864108787,-88.2483722862788
AL,1025,Clarke,Coffeeville Lake,31.7559697790779,-88.1330722471331
AL,1005,Barbour,Logue's Pond,31.9591643209973,-85.1295402727627
AL,1081,Lee,Greg Lake,32.5531866006371,-85.4859136623138
AL,1081,Lee,Auburn Outing Club Lake,32.5516582187466,-85.4918539473937
AL,1081,Lee,Barksdale Lake,32.5513402604886,-85.4979909740533
AL,1081,Lee,Pam Lake,32.5520188929778,-85.5021710508238
AL,1081,Lee,Lake Ogletree,32.5541786773904,-85.4407762224127
AL,1081,Lee,Hamilton Lake,32.6049133287931,-85.4189687392494
AL,1081,Lee,Jones Lake,32.5731908432489,-85.4219590210699
AL,1081,Lee,Ogletree Outing Club Lake,32.6302722438803,-85.5074656173667
AL,1081,Lee,Orr Estates Lake,32.6124314134152,-85.4163211812237
AL,1081,Lee,Plainsman Lake,32.6069273322182,-85.5196967492597
AL,1081,Lee,Richards Pond,32.5922884617769,-85.5205294965563
AL,1081,Lee,Lundy Chase Lake,32.6225284275961,-85.5289407858771
AL,1097,Mobile,Joy Springs Pond,30.6554598967176,-88.130129930538
AL,1073,Jefferson,Liberty Lake,33.467473711299,-86.6918966061757
AL,1117,Shelby,Farmhouse Lake,33.4215263264507,-86.6330027525794
AL,1117,Shelby,Spoonwood,33.407816039527,-86.6233587215249
AL,1015,Calhoun,McCullars Lake Number Two,33.7862441160968,-85.9362841839226
AL,1097,Mobile,Mirror Lake,30.6912799740667,-88.1328598915294
AL,1051,Elmore,Cobbs Lake,32.442813084532,-86.3715212939123
AL,1125,Tuscaloosa,Lake Tamaha,33.2282577692422,-87.5010836199686
AL,1081,Lee,Auburn Farm Storage Pond,32.6553320653651,-85.4918342123528
AL,1101,Montgomery,Lake Cameron,32.3508690865251,-86.0248052303768
AL,1063,Greene,Carpenters Lake,32.999703582619,-88.0492685590991
AL,1091,Marengo,Owensby Lake Number One,32.3108927581715,-87.8099540409049
AL,1091,Marengo,Paul S Owensby Lake Number Two,32.30769472531,-87.8091255916015
AL,1121,Talladega,Harbert Lake,33.2658291297496,-86.3999609910822
AL,1089,Madison,Legacy Lake,34.7809267605048,-86.5713206623122
AL,1101,Montgomery,Russells Lake,31.981107293889,-86.2938741889903
AL,1083,Limestone,retention pond,34.6857337733836,-86.8096123284073
AL,1013,Butler,Upper Lake,31.8950091364019,-86.6756768373035
AL,1125,Tuscaloosa,Mimosa Lake,33.1560829104433,-87.5669965649781
AL,1123,Tallapoosa,Monaghan Lake,33.0210924832695,-85.6195739725626
AL,1111,Randolph,Little Ketchepedrakee Creek,33.4370101147657,-85.6148952032869
AL,1111,Randolph,Mad Indian Creek,33.3412948491865,-85.6091539389998
AL,1111,Randolph,Andanley Branch,33.3218596555324,-85.5355901976425
AL,1111,Randolph,Ketchepedrakee Creek,33.4468736417806,-85.6175688748068
AL,1039,Covington,Lee Pond,31.4669769362701,-86.6768990399136
AL,1039,Covington,Franklin Pond,31.496771853722,-86.4333672243732
AL,1039,Covington,Sims Pond,31.4599104703225,-86.4285374481108
AL,1039,Covington,Nall Pond,31.4791816802321,-86.5704128487351
AL,1039,Covington,Bryant Pond,31.4798311179805,-86.5682308414635
AL,1039,Covington,Ingram Pond,31.4758978584201,-86.5633909171448
AL,1117,Shelby,Lake Dixie,33.4304520286931,-86.6981511406114
AL,1091,Marengo,Demopolis Country Club Lake,32.5003362966051,-87.8616937550613
AL,1117,Shelby,Acton Lake,33.3592874565186,-86.8077196307848
AL,1117,Shelby,Veterans Park Lake,33.3917286669996,-86.7235320640008
AL,1073,Jefferson,Howard Lake,33.3865544155331,-86.8044936172909
AL,1003,Baldwin,Lake Victoria,30.5028545882622,-87.7874148047681
AL,1073,Jefferson,Grantham Lake,33.3317620779961,-87.0651707396237
AL,1073,Jefferson,Big Lake,33.3306698058439,-87.0700711704159
AL,1073,Jefferson,Ellis Lake,33.3277525809361,-87.0673983074293
AL,1073,Jefferson,MaterialSlope Pond,33.4317098188082,-87.1349204350393
AL,1073,Jefferson,Oak Grove Settlement Pond,33.4300209511256,-87.1274376911839
AL,1029,Cleburne,Cheaha Lake,33.4729977001903,-85.8218775568912
AL,1003,Baldwin,Beaver Pond,30.7511047907742,-87.9103336786343
AL,1005,Barbour,Easterling Pond,31.7132611213901,-85.6033315239039
AL,1005,Barbour,Prices Pond,31.7135788698786,-85.6135805964708
AL,1119,Sumter,Duck Pond,32.5936656707755,-88.1860943656181
AL,1043,Cullman,Twin Fork Lake,34.1848277236561,-86.73077056586
AL,1059,Franklin,Bear Creek Reservoir,34.3870361163518,-87.9695843179239
AL,1005,Barbour,Weston Lake,31.7637332332982,-85.5880096617687
AL,1113,Russell,Williams Lake,32.4428557210411,-85.2395492157607
AL,1099,Monroe,Whitey Lee Lake,31.5139810505059,-87.3436923240092
AL,1001,Autauga,Grahamhaven Lake,32.467981443204,-86.4341183656116
AL,1051,Elmore,Williamsons Lake,32.5138470068269,-86.3715123655201
AL,1103,Morgan,White Farms Pond,34.5403676073356,-86.8841399804123
AL,1103,Morgan,Estes Pond,34.3837268464758,-86.6417255336451
AL,1103,Morgan,Jacob Estes Pond,34.3873580044263,-86.6418410837015
AL,1103,Morgan,Jesse Estes Pond,34.385808497776,-86.6392721221382
AL,1047,Dallas,Moore's Pond,32.34574086697,-86.956212985097
AL,1047,Dallas,Craig Field Lake,32.3553911943406,-86.9860233147131
AL,1047,Dallas,Plummer Lake,32.3178717979334,-86.9200142195888
AL,1073,Jefferson,McKelveys Lakes,33.338088418119,-87.021456467447
AL,1083,Limestone,Lake Ida,34.7960374457009,-86.9283142422951
AL,1083,Limestone,Jake's Lagoon,34.7047541215875,-86.7927567406529
AL,1133,Winston,Haleyville City Lake,34.2268486030311,-87.6008039665409
AL,1117,Shelby,Edenton Pond,33.4286699578437,-86.6931064423405
AL,1117,Shelby,Hargis Lake,33.3675335737333,-86.5961365097676
AL,1117,Shelby,Chelsea Game Reserve Lake,33.377711680092,-86.5793991864772
AL,1069,Houston,Drainage Pond,31.1973528236239,-85.4211554869287
AL,1069,Houston,Due West Pond,31.1974121104759,-85.4187527259911
AL,1069,Houston,Eastgate lake,31.1635605232581,-85.3164014635403
AL,1069,Houston,Eastgate Pond,31.1637389226145,-85.3128311831566
AL,1083,Limestone,Braly Lake,34.7737577681146,-86.9452056044674
AL,1079,Lawrence,Oakville Pond,34.4452830596866,-87.1760179012059
AL,1103,Morgan,Cave Spring,34.5360496657914,-86.8894607081337
AL,1121,Talladega,Lambert Lake,33.5670947505977,-85.8724355514336
AL,1015,Calhoun,Choccolocco Lake,33.6136477652502,-85.9939126841275
AL,1015,Calhoun,Rod and Reel Lake,33.6090154048513,-86.0018289117347
AL,1069,Houston,Whispering Oaks Lake,31.209921278448,-85.4907294583275
AL,1089,Madison,Madison Quarry,34.675564864447,-86.7302221565135
AL,1115,St. Clair,Baswell Lake,33.8405516340659,-86.2084078253068
AL,1089,Madison,Addison Park Lake,34.7754506212074,-86.6737998593758
AL,1089,Madison,Back 36 Lake,34.7738027118945,-86.6793282755073
AL,1083,Limestone,Old Thomas Pond,34.9678893103973,-86.936293520443
AL,1089,Madison,Spencer Pond,34.7324198922794,-86.7643847994807
AL,1089,Madison,Thorneywood Pond,34.731626301086,-86.7664249474746
AL,1069,Houston,Spann Ponds,31.2329589318564,-85.4752534366611
AL,1083,Limestone,Quarry Pond,34.8925120592691,-87.0401230951448
AL,1089,Madison,Aviation Pond,34.7112820758269,-86.6412487019107
AL,1083,Limestone,Anitoch Dam,34.9306525171413,-86.9966552218667
AL,1081,Lee,Pond Number S-14,32.6734036560066,-85.505469273536
AL,1081,Lee,Pond Number S-6,32.6765426690307,-85.5128618016922
AL,1049,DeKalb,DeKalb County Public Lake,34.5767742846055,-85.7991615745938
AL,1029,Cleburne,Old CCC Reservoir,33.4842061371904,-85.8132328526471
AL,1069,Houston,Greystone Lake,31.2066445947854,-85.4530126475743
AL,1069,Houston,Woodlands Pond,31.2593127809958,-85.4508588501784
AL,1043,Cullman,Sportsman Lake,34.1905524764359,-86.8613120388783
AL,1081,Lee,+5 Income Family and Friends Pond,32.5901134689675,-85.1573755970406
AL,1089,Madison,Jimmy Johnston Lake,34.8938665985108,-86.4453556971925
AL,1113,Russell,Lake Bickerstaff,32.3779179650137,-85.0029526609117
AL,1073,Jefferson,Lake George,33.5717412040369,-86.6090558094417
AL,1073,Jefferson,Mountain Lake,33.5841924895646,-86.6229155525023
AL,1115,St. Clair,H. Neely Henry Lake,33.8440342646441,-86.0745046664388
AL,1085,Lowndes,Hammond Lake,32.0963805672054,-86.521351175382
AL,1085,Lowndes,Gaston Lake,32.0770762484672,-86.4728222602094
AL,1085,Lowndes,Cedar Lake,32.0864932328883,-86.4788638742777
AL,1085,Lowndes,Midfield Lake,32.1141701189988,-86.5018699359764
AL,1101,Montgomery,Normans Lake,32.0258799404088,-86.2548932933133
AL,1117,Shelby,Tucker Pond,33.286971887427,-86.8423575578925
AL,1081,Lee,Lazenby Lake,32.5023291853205,-85.4427710665328
AL,1081,Lee,Lee County Public Lake,32.5503597232573,-85.3148196278717
AL,1073,Jefferson,Chatham Lake,33.687097239734,-86.7519230234519
AL,1105,Perry,Wilbourne Lake,32.6479407648205,-87.3424920764787
AL,1089,Madison,Turner Pond,34.8497125593142,-86.7072869120422
AL,1089,Madison,Terry Pond,34.8494710539129,-86.7104449259993
AL,1085,Lowndes,B C Rhyne Lake,32.2571298296524,-86.7361619503762
AL,1085,Lowndes,Martins Lake,32.2197825911674,-86.6490562517225
AL,1085,Lowndes,McQueens Pond,32.2819278471753,-86.5211356459322
AL,1065,Hale,Lewis Lawson Lake Number Five,32.6578214100757,-87.5739863435778
AL,1065,Hale,J L Morrison Lake Number One,32.6524214791398,-87.5734618103395
AL,1073,Jefferson,Osborne Lake,33.5215870286916,-86.6874052431004
AL,1089,Madison,Retention pond,34.6509616045238,-86.6295794667782
AL,1081,Lee,Sager Pond,32.6579112328454,-85.3789850286465
AL,1095,Marshall,Arab City Pond,34.321720911434,-86.4782256980256
AL,1125,Tuscaloosa,Lake Tina,33.1904003412939,-87.6307008596656
AL,1125,Tuscaloosa,Woodland Lake,33.1837300234622,-87.4940258871265
AL,1125,Tuscaloosa,Little Reservoir,33.2226966066758,-87.5211630401661
AL,1125,Tuscaloosa,East Lake,33.1649447480317,-87.4838086686018
AL,1091,Marengo,Doctor Max McCord Junior Lake,32.3093191134975,-87.8494281278945
AL,1091,Marengo,Mitchell Lake,32.2847084300496,-87.6910749094953
AL,1091,Marengo,Glass Lake,32.2932280508643,-87.7802030344078
AL,1125,Tuscaloosa,Camp Tuscoba Lake,33.2671752502058,-87.5826737901803
AL,1125,Tuscaloosa,Lake Sherwood,33.279739935708,-87.6046733568358
AL,1125,Tuscaloosa,Carolwood Lake,33.3067871270404,-87.591772409544
AL,1125,Tuscaloosa,Lary Lake,33.3044435658254,-87.5890652457746
AL,1125,Tuscaloosa,Watts Lake,33.3336516527582,-87.6027300736965
AL,1069,Houston,Jessie Forrester Lake,31.1981125761143,-85.3443441993067
AL,1069,Houston,Coleman Pond,31.215086670436,-85.4025851165172
AL,1125,Tuscaloosa,Shelton State Lake,33.1197638618999,-87.5628551145293
AL,1125,Tuscaloosa,Fire Fighter Memorial Lake,33.1201801763012,-87.5695643520066
AL,1011,Bullock,Old Town Creek Watershed Lake Number Thirty-one,32.1790606706295,-85.7837386960492
AL,1011,Bullock,Smuteye Lake,32.0116948382849,-85.6491216359011
AL,1051,Elmore,Tallassee Sewage Disposal Pond,32.5168645214215,-85.8937032310263
AL,1045,Dale,Roy Parker Lake,31.4338829885403,-85.642112919239
AL,1131,Wilcox,Camden Sewage Lagoon,31.978275725595,-87.295526085274
AL,1041,Crenshaw,Firemen Lake,31.7167798083434,-86.2327635036024
AL,1125,Tuscaloosa,Meadow Lake,33.2783431197198,-87.5844585053581
AL,1125,Tuscaloosa,Swanson Lake,33.2722611038985,-87.612623111671
AL,1125,Tuscaloosa,Bell Lake,33.2754071122589,-87.5581022634526
AL,1087,Macon,City Lake,32.423845189411,-85.6768124481036
AL,1007,Bibb,Bibb County Lake,33.0377874755868,-87.1589505194109
AL,1063,Greene,Odum Lake Number 1,32.8272056792993,-87.9151214798145
AL,1103,Morgan,Dinsmore Slough,34.5377258037953,-86.9623903549983
AL,1103,Morgan,Crabtree Slough,34.5513717686516,-86.9595891469051
AL,1125,Tuscaloosa,Mills Lake Lower,33.3249513561462,-87.7203371297756
AL,1045,Dale,Upper Howell Pond,31.3097951363444,-85.456032469963
AL,1045,Dale,Middle Howell Pond,31.3076295016798,-85.4565245718414
AL,1045,Dale,Lower Howell Pond,31.3068766528847,-85.4562864570814
AL,1069,Houston,Kelly Lake,31.2785686707097,-85.4614323568431
AL,1069,Houston,Lower Country Club Lake,31.2227405232656,-85.4152517645769
AL,1069,Houston,Upper Country Club Lake,31.2255787748622,-85.4140865563979
AL,1069,Houston,Highland Oaks Upper Lake,31.2322107927079,-85.4881222944842
AL,1069,Houston,Goodwater Branch Lake,31.2126246880199,-85.6205326086453
AL,1069,Houston,Webb Park Pond,31.2527966271368,-85.2968924053417
AL,1045,Dale,ED Lisenby Lake,31.4792431634135,-85.6318983003528
AL,1039,Covington,Lake Frank Jackson,31.3176084697839,-86.2699631257133
AL,1089,Madison,Flint River,34.6497051097534,-86.4807440903247
AL,1073,Jefferson,Avondale Park Pond,33.521065083376,-86.771967850394
AL,1073,Jefferson,King's Spring,33.5207626790658,-86.770765990178
AL,1109,Pike,Arboretum's Lake,31.7945654252476,-85.9603777089357
AL,1117,Shelby,Lake Gizella,33.3261046747279,-86.7112011314651
AL,1117,Shelby,Lenora Lake,33.3323706111362,-86.6947083428005
AL,1119,Sumter,Mcgregor Lake,32.4714238565128,-88.0804628914362
AL,1101,Montgomery,Lake Lecroy,32.3237758450352,-86.2325525846538
AL,1045,Dale,Lake Helen,31.4077717190863,-85.6706201638253
AL,1101,Montgomery,Underwood Pond,32.1031566422364,-86.273054777852
AL,1115,St. Clair,Saab Pond,33.6731040344745,-86.3058433197196
AL,1129,Washington,Lake Ola,31.6603598857042,-88.4274218358859
AL,1045,Dale,Lake Michelle,31.4077996263975,-85.4774297464936
AL,1101,Montgomery,Lake Linda,32.2568839053511,-86.3906568176815
AL,1101,Montgomery,Farm Bureau Lake,32.3030390394801,-86.352260536787
AL,1101,Montgomery,Suggs Pond,32.2483476628806,-86.3890458864318
AL,1101,Montgomery,Fisher Lake,32.2632809188813,-86.35538528849
AL,1101,Montgomery,Frank Davis Lake,32.2541359827726,-86.3538695233002
AL,1101,Montgomery,Twin Lakes,32.2513549557863,-86.3507910971749
AL,1101,Montgomery,Lake Bowling,32.267132087664,-86.4106204182602
AL,1119,Sumter,Daisy Falls Lake,32.7559982212749,-88.1687739181252
AL,1119,Sumter,Hill Ranch Pond,32.7852336544051,-88.1699391881866
AL,1119,Sumter,Lake L U,32.6032069937511,-88.1945707226582
AL,1055,Etowah,Clayton Fish Pond,34.0382788921645,-86.0425139042886
AL,1095,Marshall,Hopkins Pond,34.2915283312938,-86.1511688606892
AL,1027,Clay,Clarks Lake,33.3608010958925,-85.7656754313847
AL,1117,Shelby,Lake Purdy,33.4646180114685,-86.6501657422424
AL,1073,Jefferson,Hallmark Lake,33.7785652670671,-86.8292639350245
AL,1073,Jefferson,International Park Lake,33.4071508353546,-86.760576396699
AL,1073,Jefferson,Bayview Lake,33.561990254863,-86.9721965416961
AL,1003,Baldwin,Hidden Lake,30.2816651045267,-87.6085575375529
AL,1117,Shelby,Fowler Lake,33.4093309319014,-86.6383400554674
AL,1021,Chilton,Little Griffin Pond,32.7871813442915,-86.7967691523002
AL,1125,Tuscaloosa,Warner Lake,33.2155472599334,-87.6952602616794
AL,1065,Hale,Demopolis Lake,32.5711060376006,-87.7819305778992
AL,1115,St. Clair,Lake 3,33.6398211110175,-86.5240029670677
AL,1073,Jefferson,Quarry Lake,33.3702695270196,-87.0164632440906
AL,1093,Marion,McRae Lake,34.2117639107235,-88.1765544679108
AL,1059,Franklin,Bates Lake,34.428162175393,-88.1490701753659
AL,1059,Franklin,Cedar Creek Reservoir,34.5291574403926,-87.9260358883284
AL,1055,Etowah,Wessons Lake,33.9632980308583,-86.1374311699409
AL,1117,Shelby,Blue Water Park,33.2953476530653,-86.8174996086022
AL,1125,Tuscaloosa,Sewage Lagoon North,33.173733418366,-87.5685111166832
AL,1125,Tuscaloosa,Sewage Lagoon South,33.1721571339227,-87.5686048082914
AL,1077,Lauderdale,Kasmeier Pond,34.8630522213479,-87.6179915469916
AL,1081,Lee,Bonita Farms Lake,32.5813632667736,-85.1766411916271
AL,1077,Lauderdale,Cunningham Pond,34.7815511851464,-87.8370248486368
AL,1077,Lauderdale,Bell Sink Pond,34.8224717356776,-87.8445264079145
AL,1077,Lauderdale,Big Hill Pond,34.812653114815,-87.8552649707846
AL,1077,Lauderdale,Winnie Pond,34.8142740581553,-87.8487875903947
AL,1073,Jefferson,Birmingham Reservoir,33.4667089606968,-86.7584199135952
AL,1077,Lauderdale,Darby Pond,34.7598785435269,-87.8170761039409
AL,1077,Lauderdale,Abramson Lake,34.9776364018356,-87.7810727235308
AL,1077,Lauderdale,Pickens Pond,34.8136106739377,-87.7519289387966
AL,1067,Henry,Walden Pond,31.3374145681825,-85.3260307918329
AL,1069,Houston,Calhoun Pond,31.2132615059635,-85.1177196025764
AL,1117,Shelby,Blackridge Lake,33.3144823168063,-86.8735115016456
AL,1003,Baldwin,Cotton Bayou,30.2779394747983,-87.5667722213643
AL,1073,Jefferson,Rex Lake,33.5012120268638,-86.6310054884595
AL,1073,Jefferson,Pine Ridge Lake,33.5086553304473,-86.6199113292515
AL,1073,Jefferson,Lake Jules,33.5114572157052,-86.6141591057058
AL,1055,Etowah,Glassco Lake,34.0543407493261,-86.1706333779248
AL,1117,Shelby,Indian Spring Lake,33.3389433424636,-86.7735269883247
AL,1103,Morgan,Private Pond,34.4346124397548,-86.8791536550869
AL,1031,Coffee,Lake Tom,31.3783015711842,-85.8537614164141
AL,1031,Coffee,Lake Gateway,31.3811582388861,-85.8624184242319
AL,1031,Coffee,Lake Ailene,31.373287166407,-85.8554900700699
AL,1031,Coffee,Spear Point Lake,31.3732648248495,-85.8600038962051
AL,1031,Coffee,Lake Baker,31.3724216216085,-85.8518026589463
AL,1031,Coffee,Gateway Pond,31.3727105839467,-85.8506408707799
AL,1045,Dale,Ech Lake,31.4034291599071,-85.7559224585616
AL,1045,Dale,Buckhorn Lake,31.332510924966,-85.6759861458659
AL,1045,Dale,Beaver Lake,31.3398596226373,-85.6982708737538
AL,1073,Jefferson,Pine Tree Country Club Lake,33.524233639846,-86.6461770801776
AL,1129,Washington,Lake Gypsy,31.6734393881893,-88.4558000511924
AL,1097,Mobile,Dead Lake,30.890177672476,-87.9874987539061
AL,1035,Conecuh,Wingard Pond,31.5115127202573,-86.7117882542872
AL,1097,Mobile,Semmes Municipal Lake,30.752071372227,-88.2346220801791
AL,1121,Talladega,Brooks Lake,33.6580358573252,-86.0938112309602
AL,1039,Covington,Willow Wood Pond,31.3789882441054,-86.5578774062552
AL,1129,Washington,Ciba Geigy McIntosh Plant Pond 1,31.2805455428905,-87.9943644431076
AL,1003,Baldwin,Silver Lake,31.2204939050948,-87.8507935320466
AL,1097,Mobile,Little Chippewa Lake,31.0311085818917,-87.9727489285773
AL,1097,Mobile,Big Chippewa Lake,31.0305361020096,-87.9836505575657
AL,1089,Madison,Cress Well Spring,34.9272407423612,-86.3942240716056
AL,1127,Walker,Walker County Lake,33.8018938949087,-87.2292324127397
AL,1013,Butler,Lake Alexander,31.5908939819748,-86.7639649892877
AL,1107,Pickens,Davis Lake,33.4958000581136,-88.0664180879128
AL,1107,Pickens,McShan Lake Number Two,33.4180225928588,-88.12370584506
AL,1107,Pickens,McShan Lake Number Three,33.4126106585946,-88.1279150545421
AL,1107,Pickens,McShan Lake,33.4087132787457,-88.1212636257609
AL,1107,Pickens,William Latham Lake,33.400988486884,-88.0420878377894
AL,1001,Autauga,Lake Mildred,32.5743703594703,-86.5180745809185
AL,1001,Autauga,Crane Lake,32.5863918289021,-86.5126059270909
AL,1001,Autauga,Eco Pond,32.582888199669,-86.5091505464043
AL,1107,Pickens,Lowes Lake,33.3625082487561,-87.9345187844696
AL,1045,Dale,D A Deloney Lake Number Two,31.4598569089886,-85.6732912270414
AL,1045,Dale,D A Deloney Lake Number One,31.4593654686675,-85.6757674046336
AL,1089,Madison,James O’Shaughnessy’s Lily Lake,34.7367647510821,-86.5087017909609
AL,1089,Madison,Lake Lonnie,34.709089128805,-86.6327375730896
AL,1089,Madison,Little Smith Lake,34.7101138550571,-86.6329238618142
AL,1089,Madison,Fagan Creek,34.7234774486344,-86.5740037156894
AL,1061,Geneva,Lake Patti Sue,31.1882072562057,-85.5670997321044
AL,1089,Madison,Randall Mullins Lake,34.9366165876532,-86.7166870326993
AL,1133,Winston,Eskridge Lake,34.1647702283476,-87.4145681690987
AL,1073,Jefferson,Oak Grove Highwall Pond,33.4313763946655,-87.1256066925624
AL,1073,Jefferson,Oak Grove Mine Lake,33.4371120881891,-87.1292668307884
AL,1015,Calhoun,creek,33.7219968730598,-85.7952512357715
AL,1125,Tuscaloosa,Houses Lake,33.2712398266865,-87.5667914203223
AL,1125,Tuscaloosa,Partlow Lake Upper,33.2415806523661,-87.6401346200423
AL,1073,Jefferson,Overton Lake,33.501243561101,-86.6919450616795
AL,1065,Hale,Lake Demopolis,32.5708897465196,-87.7371233269707
AL,1057,Fayette,Freeman Lake,33.5247608545499,-87.8207278036759
AL,1073,Jefferson,Altadena Lake,33.418787198859,-86.7430819643485
AL,1125,Tuscaloosa,Lake Duke Lower,33.0853042621972,-87.5406717026347
AL,1125,Tuscaloosa,Jack Duke Lake,33.0852738398152,-87.5368553898228
AL,1125,Tuscaloosa,Elledge Lake,33.2588960096846,-87.6607525569889
AL,1009,Blount,Tidwell Lake,33.9085875064346,-86.6110733491304
AL,1009,Blount,Wilder Lake,33.9013399118025,-86.6207148548639
AL,1105,Perry,Perry Lake,32.6948369567323,-87.2423507479093
AL,1105,Perry,Round Lake,32.6975554433997,-87.2411131084979
AL,1105,Perry,Middle Lake,32.6959486487785,-87.2398734347176
AL,1055,Etowah,Dive Land Park,33.9227951464712,-85.9059424792425
AL,1125,Tuscaloosa,Harless Lake,33.287937889318,-87.7881123761187
AL,1125,Tuscaloosa,Pine Lake,33.4351535565272,-87.7445206335476
AL,1125,Tuscaloosa,Lake Tuscaloosa,33.343321993492,-87.5567995431013
AL,1077,Lauderdale,Florence Canal,34.7973512282069,-87.6504463477285
AL,1133,Winston,Frost Pond,34.2792625782937,-87.5237538366242
AL,1069,Houston,Good Hope Farm Pond,31.3038494969678,-85.1205283995134
AL,1067,Henry,Rivenbark Ponds,31.3128511565793,-85.1323385490474
AL,1041,Crenshaw,Hudson Pond,31.9211348572054,-86.421144322524
AL,1117,Shelby,Catfish Lake,33.3682999293419,-86.6807065255293
AL,1051,Elmore,Crescent Lake,32.4371037679369,-86.36713899816
AL,1051,Elmore,Dorminey Pond,32.4500197190031,-86.3517260593849
AL,1001,Autauga,O'Dell Lake,32.5318252407386,-86.5013400246171
AL,1117,Shelby,Ballard Lake,33.1511065050261,-86.8476179781172
AL,1001,Autauga,Idlewild Lake,32.4688441759524,-86.5733305461241
AL,1001,Autauga,Crystal Lake,32.4371807198079,-86.6404161095337
AL,1087,Macon,Lacey Lake Number 2,32.3735953936451,-85.8770848898212
AL,1087,Macon,Laceys Lake Number One,32.3737835060337,-85.8688653079679
AL,1087,Macon,Polecat Springs,32.395976131213,-85.8971377358051
AL,1109,Pike,Barrs Pond,31.7789310295567,-85.74693154485
AL,1061,Geneva,Lime Springs Lake,31.0758250137305,-86.1056776741097
AL,1061,Geneva,Neal Spears Lake,31.0685891825764,-86.105121303594
AL,1081,Lee,Alnoname One Dam,32.5668684327885,-85.4280663612827
AL,1117,Shelby,Butterfly Lake,33.4163465132606,-86.6608125801557
AL,1039,Covington,Day Pond,31.2176301912352,-86.2970333720757
AL,1039,Covington,Adams Pond,31.2221604922655,-86.297994429386
AL,1081,Lee,Murphy Lake,32.5223084226435,-85.3718204139024
AL,1043,Cullman,Lake Catoma,34.2073368338552,-86.8050701079366
AL,1051,Elmore,Yates Lake,32.6323183620029,-85.8942424294777
AL,1093,Marion,Lake Buttahatchee,34.1124979689142,-87.7064694012578
AL,1075,Lamar,Sulligent Lake,33.8629256661493,-88.1778251705126
AL,1101,Montgomery,Lilian Lake,32.1053224454385,-86.2817529733722
AL,1101,Montgomery,Skinner Lake,32.1090241873434,-86.2829852508606
AL,1089,Madison,Reflection Pond,34.7524316972656,-86.6549919631412
AL,1067,Henry,Mathison Lake,31.6183306343994,-85.2316602347338
AL,1117,Shelby,Lake Abbey,33.3261927540147,-86.8493154235738
AL,1085,Lowndes,Browns Lake,31.9982424107091,-86.4198659304032
AL,1117,Shelby,Wehapa Lake,33.4707954476469,-86.5694553168949
AL,1117,Shelby,Hollybrook Lake,33.4585321618757,-86.589155874265
AL,1081,Lee,Engineering Farm Pond,32.4232107054124,-85.4060902967988
AL,1081,Lee,Little and Stuckys Lake,32.6200722100453,-85.5519038084122
AL,1125,Tuscaloosa,Holt Lake,33.3397956004662,-87.4058944833066
AL,1007,Bibb,Lake Ponderosa,32.9176337398055,-87.3261029179595
AL,1061,Geneva,Burch Pond,31.0852250236896,-85.7045273054448
AL,1061,Geneva,Daughtry Pond,31.0890679681105,-85.694807570062
AL,1007,Bibb,Pine Lake,33.1805863937392,-87.1537840707988
AL,1007,Bibb,Beaver Pond,33.2208439891082,-87.1392677843958
AL,1007,Bibb,Green Pond,33.2234273542402,-87.1312575585968
AL,1117,Shelby,Whispering Pines Lake,33.2198044664947,-87.0247301555597
AL,1007,Bibb,Robinson Lake,33.18134416625,-87.130702879918
AL,1105,Perry,Emily Foster Lake,32.6685462126785,-87.3494339707956
AL,1007,Bibb,Tailings Pond,33.1098225007795,-87.1002433348959
AL,1065,Hale,Massey Lake,32.7321793554232,-87.6904008290335
AL,1065,Hale,John Jays Lake,32.7116838441537,-87.6242698061345
AL,1091,Marengo,Whitley Lake,32.2508188879777,-87.6471034681972
AL,1037,Coosa,Swan Lake,32.9696519898402,-86.0108012802222
AL,1037,Coosa,Baker Creek Lagoon,33.0422321756043,-86.0458896687628
AL,1069,Houston,Glenn Lawrence Lake,31.2262800972269,-85.2419249143095
AL,1007,Bibb,Rockyview Lake,33.0750160187384,-87.2134669754131
AL,1007,Bibb,Crystal Lake,33.0684232868416,-87.2238408018405
AL,1007,Bibb,Jones Lake,33.0937065726092,-87.1694033963132
AL,1007,Bibb,Lightseys Pond,32.9137970121852,-87.118705428152
AL,1049,DeKalb,Gilberts Lake,34.6472234209837,-85.752645168772
AL,1013,Butler,Beaver Pond,31.7965401636892,-86.4589398074087
AL,1013,Butler,Speirs Pond,31.8662931125559,-86.6406324456596
AL,1007,Bibb,Shady Grove Lakes,33.0260810538561,-87.1613461196657
AL,1063,Greene,Dollarhide Hunting Lake,32.741129867156,-87.8139337008415
AL,1133,Winston,Sloan Lake,34.0126053174031,-87.3669181425892
AL,1065,Hale,Manette Pond,32.7935814946391,-87.8023027917041
AL,1125,Tuscaloosa,Touson Lake,33.0061830823819,-87.6627119282908
AL,1065,Hale,Keaton Lake,33.0030643083689,-87.6993769316925
AL,1065,Hale,Storers Lake,32.9211028281692,-87.7579311537537
AL,1003,Baldwin,Lake Crosby,30.9282862413341,-87.7240023496824
AL,1105,Perry,Watershed Structure Number Twelve,32.635542088027,-87.4843123896548
AL,1065,Hale,Bryars Junior Lake Number 3,32.6293926011569,-87.7169064195567
AL,1065,Hale,Bryars Junior Lake Number 1,32.6310837033734,-87.7202147651257
AL,1065,Hale,C. H. Bryars Junior Lake Number 2,32.6391425670679,-87.7175245360018
AL,1065,Hale,Sully Ponds,32.6531178878852,-87.7249875237541
AL,1065,Hale,Millwood Pond,32.6670930500242,-87.747043911322
AL,1065,Hale,Limestone Lake Number 1,32.6847514393132,-87.7336915917773
AL,1065,Hale,Limestone Lake Number 2,32.6888800143536,-87.7348454684849
AL,1117,Shelby,SMyer Lake,33.4516350100742,-86.5967647719716
AL,1105,Perry,Miller Brothers Lake Number Three,32.3244067853585,-87.4693691777047
AL,1009,Blount,McCay Lake,33.8549309951401,-86.7739351991856
AL,1009,Blount,Sherell Pond,33.9390394929243,-86.6770248600342
AL,1081,Lee,Kimbrough Lake,32.5806110357461,-85.6577298988081
AL,1073,Jefferson,Vestavia Lake,33.4441200497434,-86.7834274081084
AL,1121,Talladega,Tallaseehatchee Watershed Number 1,33.2024739409792,-86.1849606041033
AL,1121,Talladega,Tallaseehatchee Creek Watershed,33.1999238873042,-86.1496031864188
AL,1069,Houston,Lakewood Lake,31.1795125552424,-85.4248904791605
AL,1081,Lee,Chewacla Lake,32.5511649178453,-85.478740071914
AL,1047,Dallas,Hammermill Waste Treatment Pond,32.4218757770095,-86.8588676793313
AL,1127,Walker,Bankhead Lake,33.5288547615712,-87.2595702470423
AL,1117,Shelby,Belcher Lake,33.3425280813639,-86.6890274904763
AL,1117,Shelby,Turtle Lake,33.4113910387154,-86.6622345587526
AL,1109,Pike,Walters Pond,31.7752928886217,-85.9565768238791
AL,1043,Cullman,Holly Pond Park Pond,34.1757685435846,-86.6150556023385
AL,1065,Hale,Martin Slough,32.9064394920152,-87.7505988427131
AL,1089,Madison,Joe's Tradin' Pond,34.7382345996384,-86.6677860235464
AL,1091,Marengo,Spencer Lake Two,32.4390997622115,-87.7208193181772
AL,1065,Hale,State Cattle Ranch Lakes,32.6380870413559,-87.6572719531492
AL,1065,Hale,Roy Alexander Lake,32.6290057283674,-87.6622985874417
AL,1065,Hale,Charlie Moseley Lake Number Two,32.743394729268,-87.7655849690887
AL,1065,Hale,Charlie Moseley Lake Number One,32.745026934811,-87.7573926345508
AL,1065,Hale,Lewis Lawson Lake Number 2,32.7555286918595,-87.7670945145091
AL,1065,Hale,Lewis Lawson Lake Number 1,32.7554595594487,-87.7596506253229
AL,1069,Houston,Middleton Lake,31.1416567261013,-85.3874010106326
AL,1065,Hale,Joe Glover Lake,32.8145649849534,-87.4873361970411
AL,1045,Dale,Parcours Youth Lake,31.3303547783011,-85.7205089837909
AL,1065,Hale,Phillips Lake,32.7345725489573,-87.7217667404183
AL,1065,Hale,J B Thomas Lake,32.7887681303211,-87.4778150966991
AL,1081,Lee,Lake Cherry,32.4955571647607,-85.3117934797697
AL,1081,Lee,Hubbard Lake,32.5211027449746,-85.193215699255
AL,1081,Lee,Pond Number S-8,32.672106042776,-85.5096623804747
AL,1081,Lee,Lake Whatley,32.5492423929367,-85.3953779091181
AL,1081,Lee,Pond Number S-1,32.6830987987962,-85.5100135485812
AL,1081,Lee,Fullers Lakes,32.5411186327219,-85.1209735691768
AL,1081,Lee,Powell Lake,32.543157716984,-85.1221058283442
AL,1081,Lee,Pond Number S-3,32.6811913047364,-85.5159111394982
AL,1081,Lee,Cress Outing Club Lake,32.5395975421964,-85.4368524963038
AL,1017,Chambers,Browne Lake,32.7320740050241,-85.4799959608391
AL,1081,Lee,Heath Lake,32.4899947338073,-85.1574658836303
AL,1081,Lee,Wards Pond,32.5260855184838,-85.5027185873242
AL,1081,Lee,Samford Lake Number One,32.5610052132486,-85.2713039709847
AL,1081,Lee,Orr Estates Pond,32.6178888520344,-85.4184766647172
AL,1081,Lee,Neals Pond,32.5236298263537,-85.4843814526928
AL,1081,Lee,Lake Wilmore,32.5663562967754,-85.465469836252
AL,1081,Lee,Bruce Pond Number Four,32.4959274119928,-85.3509886268226
AL,1081,Lee,Bruce Pond Number Two,32.492242739144,-85.359993278913
AL,1081,Lee,Bruce Pond Number One,32.4918011419259,-85.3508306245653
AL,1081,Lee,Bruce Pond Number Three,32.4989572377793,-85.3518268530183
AL,1081,Lee,Kuderna Lake,32.5717783861717,-85.5386896539333
AL,1081,Lee,Kinnett Lake,32.4783121073084,-85.0721893008161
AL,1081,Lee,Condy Lake,32.6786208771358,-85.3601092911637
AL,1081,Lee,Webbs Pond,32.5146855149354,-85.0563377876073
AL,1065,Hale,Coleman Lake Number 1,32.7130663190505,-87.6806868928019
AL,1065,Hale,Coleman Lake Number 2,32.7089888303136,-87.6856085741872
AL,1065,Hale,Richards Lake,32.6599812374919,-87.6822048743622
AL,1065,Hale,Lelia Myers Lake,32.6671823054969,-87.7110607488384
AL,1065,Hale,Jimmy Seale Lake,32.6802378401363,-87.6839399746817
AL,1113,Russell,Beasleys Pond,32.2338341188612,-85.4278775807075
AL,1111,Randolph,High Pine Creek Lake Number 2,33.1763425314694,-85.3762644648115
AL,1111,Randolph,Roanoke City Lake,33.1656940051219,-85.4004962636428
AL,1111,Randolph,McMurray Lake,33.1393545775062,-85.4020198478677
AL,1111,Randolph,Lake Louise,33.1207639270558,-85.3795304249698
AL,1017,Chambers,Smith and Norred Lake,33.1002458500446,-85.3984376643454
AL,1017,Chambers,Royston Lake,33.084165932701,-85.3908501323037
AL,1039,Covington,Wise Pond,31.1867968881506,-86.203403166799
AL,1065,Hale,State Cattle Ranch Lake Number 1,32.6286519294415,-87.6962212168167
AL,1065,Hale,State Cattle Ranch Lake Number 3,32.6340281084788,-87.6899212976716
AL,1065,Hale,State Cattle Ranch Lake Number 2,32.637226737702,-87.6971603568108
AL,1065,Hale,State Cattle Ranch Lake Number 4,32.648970698566,-87.711592167845
AL,1069,Houston,Gerald Crowley Lake,31.0830140214166,-85.3259170479379
AL,1109,Pike,Sanders Lake,31.9541998335351,-86.1259694036191
AL,1109,Pike,Vinson Ponds,31.9657303327711,-86.1374462814758
AL,1109,Pike,Russell Pond,31.9656080793912,-86.1317422011538
AL,1109,Pike,Menefee Lake,31.9630476933108,-86.1251090332545
AL,1053,Escambia,Brewton Sewage Lagoon,31.0834084235065,-87.0867220037926
AL,1035,Conecuh,Freeman Lake,31.363895694469,-87.1637265433174
AL,1045,Dale,Marvin Parker Lake Number One,31.5002321375915,-85.6630855054472
AL,1045,Dale,Marvin Parker Lake Number Two,31.5043695032774,-85.6637921360976
AL,1113,Russell,Wadsworth Lake,32.2967699767649,-85.1620787033743
AL,1113,Russell,McCann Lake,32.3011931120767,-85.1710441730552
AL,1113,Russell,Dudleys Lake,32.3023541184187,-85.2027653287742
AL,1113,Russell,Skinners Lake,32.3269653276259,-85.2866857650743
AL,1113,Russell,Lake Lenora,32.3452125734588,-85.2351154320359
AL,1113,Russell,Carrol Lake,32.3437549017763,-85.2209511474761
AL,1105,Perry,Watershed Structure Number Eleven,32.6260159716648,-87.5098656977933
AL,1065,Hale,Hardenbergh Lake,32.5977009625832,-87.5275758836542
AL,1065,Hale,Walthall Lake,32.568622754814,-87.5381237383893
AL,1105,Perry,Hilton Mckee Lake,32.5283079352908,-87.4876573096115
AL,1105,Perry,Cottrell Lake,32.4998596987734,-87.514558306112
AL,1065,Hale,Fitzgerald Lake,32.5310011983727,-87.7133030674016
AL,1121,Talladega,Shocco Lake,33.4515044163328,-86.1334727234194
AL,1105,Perry,Miller Brothers Lake Number Two,32.3261944639753,-87.4650522379583
AL,1105,Perry,Miller Brothers Lake Number One,32.3279535597095,-87.4695198320258
AL,1005,Barbour,Burke Ponds,31.6679365216379,-85.7086977060771
AL,1005,Barbour,Sutton Lake,31.6388669575793,-85.6958851519598
AL,1035,Conecuh,McMillan Pond,31.3611950118264,-86.9616667313439
AL,1085,Lowndes,Bessie Beck Lake,32.1665885850876,-86.7367717789955
AL,1105,Perry,Marguerite S Howell Lake,32.5738788393363,-87.4563602434574
AL,1105,Perry,James A Wheeler Lake,32.5988647679726,-87.4530780809795
AL,1011,Bullock,McCains Lake,32.0563468468184,-85.4875991682832
AL,1113,Russell,Dudley Lake,32.4628007935588,-85.2025734855601
AL,1031,Coffee,Jackson Pond,31.5286413713513,-86.0112727008692
AL,1085,Lowndes,J L Crenshaw Lake Number One,32.1424310044632,-86.4730193456015
AL,1085,Lowndes,Crenshaw Ponds,32.1399973755368,-86.4862947099524
AL,1065,Hale,Lenson Montgomery Lake Number 1,32.7636996420784,-87.5112296674274
AL,1065,Hale,Lenson Montz Lake Number Three,32.7452998168614,-87.5165688817289
AL,1065,Hale,Lenson Montz Lake Number Two,32.7438529069779,-87.5190717144388
AL,1065,Hale,Lenson Montz Lake Number One,32.7494387650273,-87.5197166741781
AL,1065,Hale,Lenson Montz Lake Number Four,32.7459622549329,-87.5195518632536
AL,1065,Hale,Murphy Averette Lake,32.7547432498651,-87.5108449464182
AL,1065,Hale,Lenson Montgomery Lake Number 2,32.7593385968842,-87.5121950216927
AL,1105,Perry,Bone Lake,32.6196945076074,-87.3942370610875
AL,1105,Perry,Lakeland Farms Lake Number Eight,32.6092884822242,-87.3802724093069
AL,1105,Perry,Lake Ada,32.6108582411474,-87.3764033589489
AL,1091,Marengo,Demopolis Yacht Basin,32.530672303807,-87.8406974643
AL,1047,Dallas,Bloch Park Marina Dock,32.3965614969523,-87.0423417869962
AL,1065,Hale,Bailey Lake,32.7027477227216,-87.6705376940854
AL,1065,Hale,Lake View Country Club Lake,32.6967050982444,-87.6320689907416
AL,1105,Perry,Joe Dozier Lake,32.6066324297582,-87.3988225829454
AL,1065,Hale,J L Morrison Lake Number Two,32.7033015467296,-87.551102473963
AL,1065,Hale,Gross Lake,32.6767453741416,-87.5865521094856
AL,1065,Hale,Willie Woods Lake Number 1,32.6206848212656,-87.6209485866875
AL,1065,Hale,Carmichael Lake,32.6420894769914,-87.6088178547426
AL,1105,Perry,Lakeland Farms Pond Number Fifteen,32.6024770738978,-87.355069257588
AL,1105,Perry,Lakeland Farms Pond Number Fourteen,32.6029231806696,-87.3510790203301
AL,1105,Perry,Lakeland Farms Pond Number Sixteen,32.6061170758479,-87.3539109238243
AL,1105,Perry,Lake Heart,32.6007923097302,-87.3675401657545
AL,1105,Perry,Lake Lou,32.5986078790555,-87.3687596856264
AL,1105,Perry,Lake Betty,32.599771861796,-87.3717763040811
AL,1105,Perry,W A Hughes Lake,32.5864126283657,-87.3720842345296
AL,1105,Perry,Lees Lake,32.5850742901205,-87.3646370270147
AL,1105,Perry,Lake Miriam,32.5946234940613,-87.3702079251276
AL,1105,Perry,Lake Mary,32.5959256023688,-87.3656352647321
AL,1105,Perry,Lake Hugh,32.5828239520039,-87.3680652354604
AL,1105,Perry,Lake Sam,32.5812554953201,-87.3733108408559
AL,1105,Perry,Lake Vida,32.5804160991651,-87.3694023953274
AL,1105,Perry,Lake Rhoda,32.5780536760358,-87.3744695942926
AL,1105,Perry,Lake Beth,32.5893358455563,-87.3829456023929
AL,1105,Perry,Lake Doris,32.5841862624195,-87.3831139728243
AL,1105,Perry,Lake Nett,32.5790804880204,-87.3818150514968
AL,1105,Perry,Lakeland Farms Lake Number Six,32.6005080110231,-87.3822258107198
AL,1105,Perry,Lakeland Farms Lake Number Seven,32.604799554494,-87.3824425509103
AL,1105,Perry,Lake Will,32.6104220662305,-87.3655351692709
AL,1105,Perry,Lake Ines,32.6041405376456,-87.3722828260115
AL,1105,Perry,Lake Eva,32.6042054956261,-87.3672778888458
AL,1065,Hale,Kyser Lake Number 2,32.6310676774781,-87.5746161300915
AL,1065,Hale,Kyser Lake Number 1,32.6293442470432,-87.5773256971357
AL,1065,Hale,Kyser Lake Number 7,32.6250685222503,-87.5695680662056
AL,1105,Perry,F W Pierce Lake Number One,32.5585959741668,-87.3581380827156
AL,1065,Hale,William Dale Lake,32.5881401095193,-87.5894746055616
AL,1065,Hale,Willie Woods Lake Number 2,32.6161301365678,-87.6220689181486
AL,1065,Hale,Willie Woods Lake Number 3,32.6186202852018,-87.6209581907582
AL,1105,Perry,Floyd Cook Lake,32.606584012357,-87.3079483264102
AL,1067,Henry,Tillis Pond,31.5585399336591,-85.1971458385111
AL,1067,Henry,Merritts Pond,31.5488060390747,-85.171392327763
AL,1067,Henry,Starlings Pond,31.539461314633,-85.1647427612158
AL,1101,Montgomery,Myers Number Two Lake,32.1707416502779,-86.275303431973
AL,1031,Coffee,Griffith Lake,31.3057583916704,-85.8741341486617
AL,1067,Henry,Griggs Pond,31.501420878155,-85.2532945898686
AL,1119,Sumter,Grinlin Lake,32.4118867134317,-88.0459111809233
AL,1015,Calhoun,Thompson Lake,33.9318183319088,-85.7667766010545
AL,1113,Russell,Gullatts Lake,32.4072968159119,-85.1332975211168
AL,1121,Talladega,Mump Creek Reservoir,33.3832446484695,-86.0145944510129
AL,1005,Barbour,Tews Ponds,31.7235583740625,-85.5164742477649
AL,1013,Butler,Lake Greenville,31.7965242421114,-86.6242660426181
AL,1095,Marshall,Woodland Lake,34.554075222665,-86.265247563506
AL,1011,Bullock,Greens Pond,31.9654290687505,-85.7657134228123
AL,1011,Bullock,Thad Greens Lake,31.9139890159815,-85.7625536972738
AL,1041,Crenshaw,Thomas Pond,31.8678138526788,-86.3339519933453
AL,1037,Coosa,Thomas Lake,33.0668346844078,-86.2830348037807
AL,1013,Butler,Thigpens Pond,31.9247641404617,-86.7005739970806
AL,1073,Jefferson,Hilldale Farm Lake,33.7247650908062,-86.6235097557241
AL,1063,Greene,Trice Lake,32.7682072488147,-88.0342846761756
AL,1041,Crenshaw,Trotter Pond,31.8996853235293,-86.2399545644524
AL,1055,Etowah,Thornton Lake Number 1,34.0287862699137,-85.8067956101856
AL,1073,Jefferson,Thornton Lake,33.6752108994458,-87.0558657790816
AL,1013,Butler,Tills Pond,31.7691587649286,-86.7387506387034
AL,1127,Walker,Williams Lake,33.7204629968672,-87.0634114770359
AL,1119,Sumter,Williams Lake,32.8640322973291,-88.3278240624963
AL,1109,Pike,Stephens Pond,31.8401263470169,-85.966577396126
AL,1017,Chambers,Grady Lake,33.0516475806395,-85.3409429829573
AL,1075,Lamar,Stuckey Lake,33.9578167378529,-88.0759556082885
AL,1097,Mobile,Spring Lake,31.0491662192141,-88.2267065983562
AL,1095,Marshall,Spring Lake,34.297939628222,-86.1933199432034
AL,1073,Jefferson,Spring Lake,33.6180604505609,-86.6764674636947
AL,1023,Choctaw,Watters Lake,32.1450661844463,-88.0844529237429
AL,1015,Calhoun,Welikee Lake,33.8440954410126,-85.9769375480978
AL,1009,Blount,Spring Valley Lakes,33.7734240962596,-86.6406333347397
AL,1013,Butler,Stallworth Pond,31.6674795217588,-86.6552224608505
AL,1015,Calhoun,Goodwin Lake,33.8995252846287,-85.7693678022077
AL,1099,Monroe,Lake Jane,31.7980601309922,-87.0363333256826
AL,1101,Montgomery,Lake Ta-lale,32.1153651807186,-86.2723484635406
AL,1085,Lowndes,Harrell Lake,32.1864237830785,-86.508116806706
AL,1079,Lawrence,Taylors Pond,34.6034153707757,-87.4630847358318
AL,1011,Bullock,Green Acres Lake,31.9111247127214,-85.7863540014758
AL,1113,Russell,Talbert Lake,32.3892970342545,-85.3932090431374
AL,1013,Butler,English Pond,31.7707150477592,-86.8611381398411
AL,1121,Talladega,Lake Tate,33.1205171049292,-86.2842556620154
AL,1011,Bullock,C F Green Lake,32.1030000833473,-85.7265020189594
AL,1011,Bullock,Green Lakes,32.1048669459904,-85.7278324263251
AL,1027,Clay,Blair Lake Number 2,33.1989875022258,-85.8625712275219
AL,1073,Jefferson,Atchisons Lake,33.4262354145611,-87.0094529755273
AL,1009,Blount,Summers Lake,33.9209932757727,-86.5280035177603
AL,1035,Conecuh,Stowers Pond,31.4265135142031,-87.0239320191169
AL,1069,Houston,Ingram Lake,31.2142607153485,-85.2748818226857
AL,1105,Perry,Vaughans Lake,32.5101110926407,-87.1758774433477
AL,1069,Houston,Hosea Mathis Lake,31.1969126667192,-85.5819338461686
AL,1069,Houston,Emmett Sellers Lake,31.2003891112728,-85.6060147465176
AL,1109,Pike,Pike Country Public Lake,31.7517752845405,-85.9975281434094
AL,1109,Pike,Whiteheads Pond,31.7099709299929,-85.9661440883362
AL,1121,Talladega,Lake Mary,33.3996183057708,-86.0022360626314
AL,1027,Clay,Lake Chinnabee,33.4628847508527,-85.8756162684613
AL,1121,Talladega,C C W Dam Number 6 Lake,33.4690970386872,-85.9414421515922
AL,1121,Talladega,Lake Robin,33.435816175871,-85.9525003966684
AL,1069,Houston,David West Lake,31.1155402631112,-85.402515032746
AL,1021,Chilton,Minooka Lake,33.0214774595834,-86.7329917538394
AL,1119,Sumter,Robert Weir Pond,32.9823106340457,-88.2382970749991
AL,1119,Sumter,Jim Henderson Lake,32.977730807696,-88.2311216759542
AL,1047,Dallas,Marion Weissinger Lake Number One,32.3963165400929,-87.3858001229213
AL,1043,Cullman,Duck Pond,34.0562878595937,-86.7624165849684
AL,1069,Houston,Blakey Pond,31.1851779883141,-85.2918884941315
AL,1035,Conecuh,Stump lake,31.3552852073126,-87.1802684611624
AL,1089,Madison,Weyler Lake,34.7563225594538,-86.7074836917959
AL,1073,Jefferson,Drummond Lake,33.5137122520519,-86.6786256386605
AL,1093,Marion,County Lake,34.0482712773609,-87.9774966494713
AL,1129,Washington,Parnells Pond,31.3491144563496,-88.2545647322093
AL,1015,Calhoun,Cone Reservoir,33.6315471580005,-86.0016937829857
AL,1117,Shelby,Moon Glow Lake,33.3995522416547,-86.7320115128807
AL,1111,Randolph,R.L. Harris Reservoir,33.2843841481425,-85.6121789762451
AL,1005,Barbour,Martin Pond,31.8695012717163,-85.3640257576588
AL,1081,Lee,Wrights Lakes,32.5263161320545,-85.0279944720434
AL,1117,Shelby,Mirror Lakes,33.4696096918708,-86.5635263603077
AL,1085,Lowndes,Robinsons Pond,32.048764690008,-86.4534436859881
AL,1045,Dale,Harris Pond,31.4347383300175,-85.4966970268642
AL,1053,Escambia,Robinsons Lake,31.1380261889645,-87.0938100516679
AL,1069,Houston,Garners Pond,31.2151129898853,-85.2251359357786
AL,1055,Etowah,Estess Lake,34.0577201106608,-85.9417859996804
AL,1069,Houston,Ellis Pond,31.1298717834165,-85.1115031902682
AL,1069,Houston,Bruce Blaum Lake,31.1537818274883,-85.1557877666196
AL,1109,Pike,Pearsons Pond,31.7153489841893,-85.9843395979394
AL,1101,Montgomery,Cauthen Lake Number Two,32.0966645204312,-86.2832274470302
AL,1101,Montgomery,Rutland Pond,32.0986845815183,-86.2811142926154
AL,1101,Montgomery,Cauthen Pond,32.102087195742,-86.2806544219639
AL,1101,Montgomery,Montgomery Hunting Club Lake,32.0939734645502,-86.2763810389208
AL,1101,Montgomery,Leisure Lake,32.1121436614987,-86.2699789289311
AL,1101,Montgomery,Warrs Lake,32.1197752463956,-86.269805223032
AL,1101,Montgomery,Browns Ponds,32.1191323971159,-86.2864282489281
AL,1101,Montgomery,Duncan Lake,32.1224677783557,-86.2921356140806
AL,1101,Montgomery,Flowers Lake,32.1296137021334,-86.298013403373
AL,1003,Baldwin,MacCartees Lake,30.5149705888395,-87.7986414216363
AL,1109,Pike,Whaleys Pond,31.7660183762523,-86.0204519759498
AL,1109,Pike,Youngblood Lake,31.8506233202718,-86.0722387369623
AL,1109,Pike,Carters Pond,31.7920992929447,-86.0809300829533
AL,1031,Coffee,Mallory Lake Dam,31.2663140274442,-86.1914071852807
AL,1109,Pike,Harris Lake,31.6475067929736,-85.7998375121547
AL,1109,Pike,Lake Haven,31.8559167229496,-86.0271992691475
AL,1101,Montgomery,Brooks Lake Number Two,32.1728191798376,-86.0816089402881
AL,1101,Montgomery,Grays Lake,32.1809938087754,-86.0939836920607
AL,1101,Montgomery,W R Turnipseed Lake,32.18835422534,-86.0477064589825
AL,1101,Montgomery,T S Turnipseed Lake,32.1509746144016,-86.0088997065247
AL,1011,Bullock,McGhee Lake Number Two,32.1261871714552,-85.9637805528491
AL,1015,Calhoun,Saxons Lake,33.8089523235335,-85.9012117160681
AL,1115,St. Clair,Etowah Conservation Lake,33.9873017335796,-86.2786832305666
AL,1115,St. Clair,Gilland Lake,33.9717044473314,-86.2882148547939
AL,1033,Colbert,Pickwick Lake,34.8918897358383,-88.0502358005763
AL,1119,Sumter,Allison Derby Lake,32.3688895196146,-88.1533868770149
AL,1119,Sumter,T C Null Lake,32.3572309330381,-88.0388073733731
AL,1119,Sumter,Dean Lake,32.4178393515137,-88.0821042895748
AL,1101,Montgomery,Taylor Oaks,32.3254359997207,-86.183367397138
AL,1119,Sumter,F N Grant Lake,32.4147107653804,-88.2618925890925
AL,1119,Sumter,Lake Louise,32.474020188664,-88.3340092036011
AL,1069,Houston,Bazemore Mill Lake,31.0267665836859,-85.2000526947161
AL,1069,Houston,Bruners Pond,31.1912142589807,-85.175170021077
AL,1063,Greene,Nab Drennen Lake Number 2,32.6371403074918,-88.0700226533724
AL,1063,Greene,Nab Drennen Lake Number 1,32.6347896381872,-88.0716155723232
AL,1121,Talladega,Carrols Lake,33.6334644157791,-86.0581220084491
AL,1015,Calhoun,Edwards Lake,33.8002542953102,-85.8582676402367
AL,1015,Calhoun,Policemen Lake,33.7732849501882,-85.8191531931532
AL,1015,Calhoun,Aderholts Lake,33.7786531317979,-85.7639033354093
AL,1015,Calhoun,Shelton Lakes,33.8005742629568,-85.7010450427329
AL,1015,Calhoun,Harper Lake,33.7417840099016,-85.683918630327
AL,1015,Calhoun,Whitesides Mill Lake,33.7421157520775,-85.6528318865817
AL,1015,Calhoun,Berts Lake,33.7237546019902,-85.6600937051624
AL,1119,Sumter,Ennis Tartt Pond,32.6168830577421,-88.1787632106137
AL,1119,Sumter,C E Boyd Lake,32.6549183344463,-88.2558487803827
AL,1119,Sumter,Buchanan Lake,32.765437651952,-88.1942585475738
AL,1069,Houston,Moodys Pond,31.1789464824596,-85.3050864662804
AL,1113,Russell,Preers Pond,32.4494333513925,-85.086016754742
AL,1113,Russell,Bickerstaffs Pond,32.4044229200957,-85.0113999074802
AL,1099,Monroe,Stallworths Black Pond,31.7316215381125,-87.2544569989112
AL,1099,Monroe,Natchez State Lake,31.7205492369597,-87.2632899778471
AL,1099,Monroe,Mabel Bedsole Ward Trust Lake,31.5242055217174,-87.5529401326269
AL,1107,Pickens,J S Sommerville Lake,33.1056453976968,-88.1569244160884
AL,1107,Pickens,Crim Lake,33.1150200489667,-88.2430359762337
AL,1119,Sumter,Woodward Lakes,32.8468735465868,-88.1967470306525
AL,1119,Sumter,Sibley Pond,32.875354428139,-88.2728942046926
AL,1119,Sumter,Barns Lake,32.8569725355737,-88.2469784157899
AL,1119,Sumter,New Big Lake,32.8581116134047,-88.2620495506149
AL,1039,Covington,Alligator Pond,31.0847754014326,-86.5508815402043
AL,1039,Covington,Ditch Pond,31.0907416631056,-86.5405784601783
AL,1039,Covington,Buck Pond,31.0894632025446,-86.542493267983
AL,1115,St. Clair,Halls Lake,33.586244062693,-86.4801112748727
AL,1119,Sumter,Liars Lake,32.8564293977158,-88.2958791231443
AL,1119,Sumter,Barns Pond,32.8573862544677,-88.2396287257604
AL,1003,Baldwin,pool,30.2338610726312,-87.7817883559101
AL,1119,Sumter,Sumter Lake Number Four,32.9114190361978,-88.3128840654057
AL,1015,Calhoun,Big Pond,33.7701933779002,-85.8569945731945
AL,1047,Dallas,Sedgefield Lake,32.229423023646,-87.3297376488174
AL,1047,Dallas,McHugh Lake,32.2909869331521,-87.2552715026636
AL,1115,St. Clair,Lake Wancoole,33.621968614741,-86.2482207354952
AL,1119,Sumter,Campbells Lake,32.8897793062909,-88.2817739488515
AL,1115,St. Clair,Luker Lake,33.5791269116144,-86.4232994795476
AL,1115,St. Clair,Lake Melanie,33.6250590275626,-86.4661697713613
AL,1115,St. Clair,Lake Joyce,33.6225031077963,-86.4702991120941
AL,1075,Lamar,Rogers Lake,33.7437431363657,-88.1949341595563
AL,1115,St. Clair,Purvis Lake,33.5476051682682,-86.4609666082259
AL,1115,St. Clair,Schneider Lake,33.5458374286829,-86.4574407971105
AL,1115,St. Clair,Elliotts Lake,33.547096801644,-86.452801229351
AL,1003,Baldwin,Crimson Oak Pond,30.5786900915486,-87.6566533789025
AL,1015,Calhoun,Doss Lake,33.7211132129759,-85.8664196527695
AL,1063,Greene,Sprees Ten Acre Lake,32.7485998080265,-88.0450572954306
AL,1063,Greene,Drennen Lake Number 4,32.7334030856015,-88.0335515091617
AL,1063,Greene,Drennen Lake Number 3,32.7340483108005,-88.0296401629322
AL,1063,Greene,C N Drennen Lake Number 1,32.7296598900916,-88.0323573073362
AL,1063,Greene,Drennen Lake Number 2,32.7340716547371,-88.0243348138924
AL,1063,Greene,Drennen Lake Number 1,32.7311562013408,-88.0196012531917
AL,1063,Greene,Sprees Twenty Acre Lake,32.7470997684721,-88.0505158480453
AL,1063,Greene,Dollarhide Camp Lake,32.7416431904754,-87.8570321175973
AL,1061,Geneva,Hartford Lake,31.0602168850729,-85.669777026312
AL,1061,Geneva,Pettits Fishponds,31.1042795770038,-86.0873085540718
AL,1115,St. Clair,Logan Martin Lake,33.5148849350464,-86.2537401650547
AL,1113,Russell,Parrs Pond,32.3898869030439,-85.2043114690342
AL,1097,Mobile,Saraland Reservoir,30.8128305827294,-88.0648187693384
AL,1005,Barbour,Spencer's Pond,31.711438150497,-85.4229221106693
AL,1031,Coffee,Devaughn Lake,31.3948016483826,-86.0068200055884
AL,1031,Coffee,Ridgeway Lake,31.3905749209999,-86.0064778191267
AL,1005,Barbour,Louisville Club Pond,31.7678722917189,-85.4818435089868
AL,1063,Greene,Reed Lake,32.6476728512437,-87.9877295784565
AL,1063,Greene,Johnstons Lake Number Three,32.639772661161,-87.9915043341037
AL,1063,Greene,W D Johnston Lake Number 1,32.646402220688,-88.0123545598362
AL,1083,Limestone,Lawson Lake Number 1,34.7158323363927,-87.0947885796815
AL,1063,Greene,C N Drennen Lake Number 2,32.7233297679355,-88.0306304084452
AL,1063,Greene,Baker Lake,32.7030269639441,-87.9681889521982
AL,1001,Autauga,Circle A Ranch Lake,32.5895155631317,-86.4730565373537
AL,1063,Greene,Doc Hollingsworth Lake,32.7653268286294,-87.9033608729017
AL,1063,Greene,Hardy Lake Number 1,32.7692110523567,-87.8955065147744
AL,1063,Greene,Taylor Lake,32.7579246665825,-87.8793778785742
AL,1031,Coffee,Donaldson Pond,31.4228639440224,-86.1955073057798
AL,1063,Greene,Banks Lake,32.836879929003,-87.9271251903935
AL,1063,Greene,McLean Lake Number 1,32.8777527010864,-87.9858431558097
AL,1105,Perry,Oscar Cobb Lake,32.4875809788321,-87.5209102094712
AL,1043,Cullman,Hayes Lake,34.2089189673,-86.8661785188999
AL,1043,Cullman,Eva Road Lake,34.1995067204266,-86.8382324602586
AL,1069,Houston,Smith's Pond,31.1216026621621,-85.3232725952421
AL,1101,Montgomery,Lake Weil,32.1302546178685,-86.2931728585251
AL,1129,Washington,Coaker Pond,31.3889928112711,-88.3754005037953
AL,1119,Sumter,Lake Hollolla,32.9815020178914,-88.1900745259428
AL,1055,Etowah,Lake Rhea,34.0212023707576,-86.1188531937048
AL,1113,Russell,Goldsteins Pond,32.2214085488227,-85.4275731034062
AL,1009,Blount,Whited Lake,33.9703150733848,-86.4854778444404
AL,1009,Blount,Doctor Pattons Upper Lake,33.9425554356589,-86.5018812064069
AL,1009,Blount,Doctor Pattons Lower Lake,33.9463156537461,-86.4993365541525
AL,1061,Geneva,Dwight Brandon Lake,31.1670378950123,-85.8814963404238
AL,1061,Geneva,Murdock Pond,31.1694570793954,-85.9181870828823
AL,1031,Coffee,White Pond #2,31.2270665092537,-85.8857200066772
AL,1061,Geneva,Lake Victoria,31.0678938673537,-86.0894044930411
AL,1061,Geneva,Weeks Fishpond,31.1727738298032,-86.1460451822353
AL,1061,Geneva,Pigeon Pond,31.0977262069267,-86.1446007823177
AL,1061,Geneva,Tom Davison Lake,31.0679516931801,-86.002466277223
AL,1061,Geneva,Jack Ausley Lake,31.0947654110342,-85.9589590920208
AL,1061,Geneva,Lake Frankie,31.1443462109577,-86.0478973412245
AL,1061,Geneva,Fred Denman Lake,31.1613150385439,-85.9998580290703
AL,1061,Geneva,Ted Averett Lake,31.174393406252,-86.0414773305178
AL,1061,Geneva,Sellers Fishpond,31.1231816356637,-86.010163201123
AL,1125,Tuscaloosa,Snag Lake,33.0364084067488,-87.649042511845
AL,1061,Geneva,Bobby Jones Lake,31.1183903475082,-85.904755379982
AL,1061,Geneva,Lake Jeanette,31.1908970270641,-85.853086441412
AL,1031,Coffee,Lake Fox,31.1969511521428,-85.8563646492572
AL,1061,Geneva,Geneva County Lake,31.1748249185134,-85.9631361489411
AL,1061,Geneva,Edwin Averett Lake,31.1721637041877,-85.8905972259434
AL,1061,Geneva,Lake Geneva,31.0272213831501,-85.8496416150017
AL,1061,Geneva,Hughes Lake,31.132369605024,-85.7638968489387
AL,1061,Geneva,Ponderosa Pond,31.0918460340954,-85.8453355577057
AL,1061,Geneva,Ted Sketo Lake,31.1590098290528,-85.7488764633037
AL,1061,Geneva,Registers Pond,31.0655325218619,-85.4973609288448
AL,1061,Geneva,Pasco Davis Lake,31.1513111778223,-85.5728547396084
AL,1061,Geneva,Mack Snell Lake,31.0118658329349,-85.611498647565
AL,1061,Geneva,McNeil Pond,31.0917442957315,-85.739281762445
AL,1043,Cullman,Duck River Reservoir,34.1906267233481,-86.685338164871
AL,1081,Lee,Lees Lake,32.5889160682759,-85.3601825066098
AL,1107,Pickens,Baldwins Lake,33.0484600039424,-88.258107947571
AL,1125,Tuscaloosa,Big Lake,33.0528907152766,-87.6499901227543
AL,1039,Covington,Barrow Pond,31.2764949896964,-86.5491586163781
AL,1125,Tuscaloosa,Matthews Lake,33.0875951721466,-87.4323797221763
AL,1125,Tuscaloosa,Cain Lake Number 1,33.0964993833227,-87.5221809465933
AL,1125,Tuscaloosa,Cain Lake Number 3,33.0839258562653,-87.5248667666743
AL,1015,Calhoun,Coley Lake,33.8095910125053,-85.9054021463578
AL,1069,Houston,Clark Pond,31.1818385495791,-85.4764010762506
AL,1073,Jefferson,Silver Lake,33.6866075677429,-86.6752269860183
AL,1009,Blount,Marsh Lake,33.9165865220249,-86.6146380149326
AL,1045,Dale,Lake Tholocco,31.4012537296251,-85.7146488477088
AL,1011,Bullock,Maytag Lake,32.1807239541742,-85.7016718641532
AL,1031,Coffee,James Wise Pond,31.2107244210388,-86.0646951553882
AL,1031,Coffee,Ellis Wise Lake,31.2682401967204,-86.024727693838
AL,1031,Coffee,Frank Britt Pond,31.2129543675792,-85.8733856760041
AL,1031,Coffee,Renzol Nichols Lake,31.2267745578885,-85.9329291639308
AL,1031,Coffee,Sessions Pond,31.2431370950169,-86.022342976807
AL,1031,Coffee,Lake Hulon,31.2271165897944,-85.9048393196331
AL,1031,Coffee,Paschal Pond,31.2691882471362,-85.8501583175167
AL,1031,Coffee,Smith Brothers Pond,31.2653780883158,-85.8722546295262
AL,1031,Coffee,Lake Charles,31.3382482041057,-85.835455452446
AL,1031,Coffee,Jimmy Henderson Pond,31.24436267932,-85.8467242960757
AL,1031,Coffee,National Security Lake,31.3858428719986,-86.1251796611758
AL,1031,Coffee,Moates Lake,31.3381591715924,-85.8775288784686
AL,1031,Coffee,Hollis Pond,31.4091264935514,-85.8867921103572
AL,1031,Coffee,Sawyer Lake,31.4347414449947,-85.9124920227037
AL,1031,Coffee,Essayons Lake,31.4214313549932,-85.8586776117201
AL,1031,Coffee,Pittman Brothers Lake,31.4250925157443,-85.8699305806546
AL,1031,Coffee,Elba Country Club Lake,31.4384368600202,-86.0981238130986
AL,1031,Coffee,Whitman Pond,31.4567079219561,-86.1560622117203
AL,1031,Coffee,Coffee County Public Lake,31.4731089178741,-86.1498297651025
AL,1031,Coffee,Carpenters Pond,31.4937259158596,-86.1621571770152
AL,1031,Coffee,Lake Lorene,31.4176148185718,-86.1041532410788
AL,1031,Coffee,Babes Pond,31.4416281422458,-86.0508660706179
AL,1031,Coffee,Club Pond,31.5071916343342,-86.1447456616338
AL,1031,Coffee,Lake Nolin,31.4804614414371,-85.9059202444499
AL,1125,Tuscaloosa,Walker Lake,33.1743165621597,-87.3314853654238
AL,1125,Tuscaloosa,McMicken Lake,33.2424209670718,-87.1533504818131
AL,1097,Mobile,Thompson Lake,30.841921841655,-88.1368291917752
AL,1117,Shelby,Rutherford Lake,33.2535844655765,-86.8063139006096
AL,1083,Limestone,Montgomery Lake,34.7868456721058,-86.9346863848659
AL,1021,Chilton,Livingston Lake,32.8152884036005,-86.4716068845201
AL,1009,Blount,Marshes Ponds,33.8852665403977,-86.6643439328708
AL,1009,Blount,Forest Ingram Lake,34.0882407973138,-86.5488930029276
AL,1041,Crenshaw,Byrds Pond,31.7785317537056,-86.1778479330284
AL,1003,Baldwin,Coopers Lake,30.6232120055914,-87.6808345240816
AL,1009,Blount,Reeves Lake,33.9391354303673,-86.3710147074576
AL,1123,Tallapoosa,Lake Martin,32.7830655505433,-85.903068781982
AL,1009,Blount,Murphree Lake,34.0641068251618,-86.6376331182807
AL,1095,Marshall,Lake Jane,34.4037477755434,-86.2752619045603
AL,1009,Blount,Johnson Farm Lake,33.9099979069699,-86.634408877721
AL,1009,Blount,Jay Lake,33.8988698470456,-86.5925324977689
AL,1049,DeKalb,Sharp Branch Lake,34.5075511001703,-85.6214054272881
AL,1089,Madison,Hays Lake,34.6339941868722,-86.5946298566292
AL,1089,Madison,Millar's Fishing Pond,34.6336392429773,-86.5891476830448
AL,1003,Baldwin,Foxfire Lake,30.7084865769738,-87.9086078403533
AL,1003,Baldwin,Gibson Pond,30.7063123218759,-87.898305896722
AL,1039,Covington,Norris Pond,31.0859223903563,-86.241727737371
AL,1097,Mobile,Cochran Lake,30.7580075782464,-88.1433807583055
AL,1097,Mobile,Hatters Pond,30.9095406433674,-88.0672336750975
AL,1009,Blount,Tidwell Pond,33.9012044551863,-86.5246617732952
AL,1097,Mobile,Big Creek Lake,30.7470922400688,-88.3346410157463
AL,1097,Mobile,Red Nichols Number 2 Lake,31.0881969395279,-88.3932873537916
AL,1097,Mobile,Duboise Lake,30.9699747644613,-88.1344667652742
AL,1097,Mobile,Citronelle Lake,31.068446567551,-88.3191449779513
AL,1011,Bullock,Mcclean Lake,32.2169039659045,-85.5615555877225
AL,1097,Mobile,Salco Lake,30.9735368308665,-88.0544267828964
AL,1051,Elmore,Poundstone Lake,32.4370678534469,-86.115844989931
AL,1055,Etowah,Mount Eba Lake,34.0854403386242,-85.9473998652944
AL,1047,Dallas,Pardue Lake,32.47964910004,-87.121691328045
AL,1003,Baldwin,Muiel Lake,30.3603747062858,-87.6335460389927
AL,1085,Lowndes,Grant Lake,32.183167129294,-86.5388193477807
AL,1129,Washington,Ciba Geigy McIntosh Plant Pond 2,31.2734508413961,-87.9876352536275
AL,1009,Blount,Curtis Williams Upper Lake,34.19224643429,-86.4977792141174
AL,1009,Blount,Moman Lake,34.1625079104258,-86.4122335126841
AL,1009,Blount,Spradlin Pond,34.1218021388221,-86.4358389339966
AL,1009,Blount,Osborne Lake,34.1011176549346,-86.5361133515959
AL,1009,Blount,Donald Smith Lake,34.1039147904275,-86.6040130835418
AL,1009,Blount,Spring Valley Pond,34.0517072147219,-86.5777666607769
AL,1009,Blount,Ingram Lake,33.9065336964903,-86.4877039886213
AL,1009,Blount,Hazerig Lake,33.9814835577241,-86.5865047610717
AL,1009,Blount,Luther Pond,34.0021880792584,-86.5930272020942
AL,1009,Blount,Hazerig Farm Lake,33.9848772476481,-86.5932119802635
AL,1009,Blount,Tom Robinette Lake,33.9037282444906,-86.6149186126019
AL,1009,Blount,Vandegrift Pond,33.9850108517804,-86.410809120672
AL,1009,Blount,Robbins Lake,33.9620343660642,-86.3892862999694
AL,1009,Blount,Camps Lake,34.0631466277759,-86.5699933554182
AL,1009,Blount,Marsh Pond,33.9710534077082,-86.6252819137826
AL,1115,St. Clair,Lake,33.6713121021582,-86.3970270790268
AL,1121,Talladega,Lanes Lake,33.1092933183359,-86.2659587242901
AL,1097,Mobile,Shepard Lake,31.1105573581441,-87.9708931380401
AL,1013,Butler,Eula B Autrey Lake,31.9358993050248,-86.6327750948776
AL,1085,Lowndes,Crenshaw Pond,32.2275926175115,-86.5410447222405
AL,1009,Blount,Will Engle Lake,33.9181664396842,-86.4144681026367
AL,1009,Blount,Wadsworth Lake,33.9204828060632,-86.3586767299206
AL,1009,Blount,Woods Lake,33.8811668580328,-86.7521257018215
AL,1009,Blount,Youngblood Lake,33.9188668639886,-86.6501856848233
AL,1009,Blount,Hazerig Small Pond,33.9801480299028,-86.5927226684532
AL,1125,Tuscaloosa,Camp Horne Lake (upper),33.187410775571,-87.3982467385417
AL,1125,Tuscaloosa,Camp Horne Lake (Lower),33.1851200593635,-87.3998126165561
AL,1089,Madison,Madison County Lake,34.8104059728901,-86.3919801410542
AL,1097,Mobile,Spring Hill Lake,30.7053649139321,-88.1593876673136
AL,1003,Baldwin,Little Lagoon,30.2447360111689,-87.7552820427944
AL,1089,Madison,Mouzon Lake,34.6268035247103,-86.5160692183882
AL,1011,Bullock,Bentons Lake,32.1699404364241,-85.708914443671
AL,1011,Bullock,Cochrans Lake,32.1683138230569,-85.6849307926281
AL,1011,Bullock,Colley Lake,32.0972463987953,-85.7165254734843
AL,1011,Bullock,Varner Lake,32.0819533763764,-85.6748934364613
AL,1011,Bullock,Hoff Pond,32.128979460011,-85.6360800922694
AL,1003,Baldwin,Brickyard Lake,31.2746308982243,-87.7745089313955
AL,1003,Baldwin,Dunn Lake,31.2166635637358,-87.8206709207021
AL,1035,Conecuh,Moody Lake,31.4316410408879,-86.9331340251897
AL,1035,Conecuh,Morgans Pond,31.4417804627685,-86.9640944580137
AL,1057,Fayette,Baptist Lake,33.6588764824165,-87.8789230675002
AL,1057,Fayette,Cains Ridge Lake,33.6520260900912,-87.8488231096228
AL,1097,Mobile,David Lake,31.1010015503328,-87.9705473047368
AL,1003,Baldwin,Stiggins Lake,31.0862861158733,-87.9236104428007
AL,1003,Baldwin,Briar Lake,31.0090675364721,-87.8892485896959
AL,1097,Mobile,Smith Pond,30.5697919677188,-88.2435637655188
AL,1097,Mobile,Cole Lake,30.5774503704264,-88.2465394880695
AL,1097,Mobile,Willow Lake,30.5030067215091,-88.3855785034892
AL,1097,Mobile,Luther Hall Lake,30.4985664321614,-88.3810713027498
AL,1003,Baldwin,Cedar Falls Pond,30.5785497371855,-87.6559951923007
AL,1125,Tuscaloosa,Lake Lulu,33.1242434087886,-87.3260401037076
AL,1039,Covington,Gantt Lake,31.4406680293372,-86.4372274561771
AL,1039,Covington,Patsaliga Creek,31.382408913896,-86.5315709623977
AL,1067,Henry,Barfield Ponds,31.4433848463751,-85.4170317733942
AL,1039,Covington,Point A Reservoir,31.373890591065,-86.5076317860494
AL,1131,Wilcox,Mcclurkin Lake,31.8722958674069,-87.0846961223469
AL,1039,Covington,Martin Pond,31.315808301687,-86.566948477512
AL,1039,Covington,Blackmon Pond,31.3081274363259,-86.5835321223155
AL,1039,Covington,Fuqua Pond,31.2717939389284,-86.5676229977725
AL,1039,Covington,Kelley Pond,31.2378266197597,-86.5484497303314
AL,1039,Covington,Brantwood Pond,31.228441285585,-86.5341004677397
AL,1039,Covington,Pineview Lake,31.3024219973657,-86.4606636994044
AL,1049,DeKalb,Mountain View Lake,34.233972939472,-85.8773886087302
AL,1121,Talladega,Stewarts Lake,33.529247496144,-85.9031276840034
AL,1121,Talladega,Henderson Lake,33.5173385327084,-85.9214624906245
AL,1015,Calhoun,McCullars Lake Number 1,33.7770523101941,-85.9389236569775
AL,1015,Calhoun,McGouirk Lake,33.7445349376599,-86.0370947086686
AL,1019,Cherokee,Weiss Lake,34.1977198974125,-85.6200591281724
AL,1009,Blount,Burgess Spring Lake,34.1034844271013,-86.5801341072048
AL,1041,Crenshaw,Bozeman Pond,31.6904923449569,-86.1983630449747
AL,1071,Jackson,Guntersville Lake,34.5285501472932,-86.1326143286041
AL,1015,Calhoun,Samplers Lake,33.8453257917748,-85.9170317286848
AL,1015,Calhoun,Yahou Lake,33.6864736653582,-85.8002456570774
AL,1013,Butler,Wise Pond,31.6343675085926,-86.7971626756914
AL,1013,Butler,Golson Lake,31.9606630299851,-86.5617252962159
AL,1055,Etowah,Aurora Lake,34.1246566989954,-86.1645645952576
AL,1097,Mobile,Bahlman Lake,30.4922102379238,-88.1659965962072
AL,1003,Baldwin,Lauperouse Lake,30.7331032626568,-87.8831931269737
AL,1003,Baldwin,Lake Forest,30.6514802819297,-87.9013316094967
AL,1003,Baldwin,Lake Raynagua,30.595887743145,-87.7453728232735
AL,1003,Baldwin,Devils Hole,30.5423017348993,-87.9020076116203
AL,1003,Baldwin,Lily Lake,30.4908390840487,-87.9102810789019
AL,1003,Baldwin,Weeks Bay,30.3958577770156,-87.8322045264458
AL,1009,Blount,The Sink,33.8836755077334,-86.8316458303497
AL,1025,Clarke,Doctor Lake,31.2027970940952,-87.9233908678102
AL,1025,Clarke,Jim Burr Lake,31.2158385822173,-87.9209260649013
AL,1073,Jefferson,UABMW - M. F. Bell Memorial Pond,33.3308135993065,-86.9864249533038
AL,1009,Blount,Adams Lake,33.8496594487114,-86.6120080726893
AL,1017,Chambers,Watson Lake,32.819868239028,-85.2576605423636
AL,1083,Limestone,The Pit,34.8016570844061,-86.7861094596648
AL,1115,St. Clair,Golden Lake,33.8017654674956,-86.5319375658711
AL,1133,Winston,Lewis Smith Lake,34.0416787288867,-87.1372536866299
AL,1073,Jefferson,Martin Lake,33.4065710699173,-87.0297855678665
